IDENT;V;220;TYPE;3
MSP_MOTOR_PINS
STATUS;CYCLETIME;2844;I2CERR;0;PRESENT;23;MODE;0
RAW_IMU;AX;33.0;AY;6.0;AZ;252.0;GX;0.0;GY;0.0;GZ;-1.0;MAGX;17.0;MAGY;-90.0;MAGZ;88.0
MOT;0;1000.0;1;1000.0;2;1000.0;3;1000.0;4;0.0;5;0.0;6;0.0;7;0.0;
RC;ROLL;1496.0;PITCH;1514.0;YAW;1518.0;THROTTLE;1058.0;AUX1;1530.0;AUX2;1500.0;AUX3;1500.0;AUX4;1500.0
ALTITUDE;0.0
DEBUG;DEBUG10.0;DEBUG2;0.0;DEBUG3;0.0;DEBUG4;0.0
ATTITUDE;ANGX;7.0;ANGY;0.0;HEAD;-168.0
STATUS;CYCLETIME;2828;I2CERR;0;PRESENT;23;MODE;0
RAW_IMU;AX;31.0;AY;6.0;AZ;251.0;GX;0.0;GY;0.0;GZ;-1.0;MAGX;17.0;MAGY;-90.0;MAGZ;88.0
MOT;0;1000.0;1;1000.0;2;1000.0;3;1000.0;4;0.0;5;0.0;6;0.0;7;0.0;
RC;ROLL;1496.0;PITCH;1514.0;YAW;1528.0;THROTTLE;1056.0;AUX1;1530.0;AUX2;1500.0;AUX3;1500.0;AUX4;1500.0
ALTITUDE;0.0
DEBUG;DEBUG10.0;DEBUG2;0.0;DEBUG3;0.0;DEBUG4;0.0
ATTITUDE;ANGX;7.0;ANGY;0.0;HEAD;-168.0
STATUS;CYCLETIME;2796;I2CERR;0;PRESENT;23;MODE;0
RAW_IMU;AX;31.0;AY;6.0;AZ;252.0;GX;0.0;GY;0.0;GZ;-1.0;MAGX;18.0;MAGY;-90.0;MAGZ;88.0
MOT;0;1000.0;1;1000.0;2;1000.0;3;1000.0;4;0.0;5;0.0;6;0.0;7;0.0;
RC;ROLL;1496.0;PITCH;1517.0;YAW;1530.0;THROTTLE;1056.0;AUX1;1527.0;AUX2;1500.0;AUX3;1500.0;AUX4;1500.0
ALTITUDE;0.0
DEBUG;DEBUG10.0;DEBUG2;0.0;DEBUG3;0.0;DEBUG4;0.0
ATTITUDE;ANGX;7.0;ANGY;0.0;HEAD;-168.0
STATUS;CYCLETIME;2832;I2CERR;0;PRESENT;23;MODE;0
RAW_IMU;AX;31.0;AY;5.0;AZ;252.0;GX;0.0;GY;0.0;GZ;-1.0;MAGX;18.0;MAGY;-90.0;MAGZ;88.0
MOT;0;1000.0;1;1000.0;2;1000.0;3;1000.0;4;0.0;5;0.0;6;0.0;7;0.0;
RC;ROLL;1496.0;PITCH;1514.0;YAW;1524.0;THROTTLE;1052.0;AUX1;1527.0;AUX2;1500.0;AUX3;1500.0;AUX4;1500.0
ALTITUDE;0.0
DEBUG;DEBUG10.0;DEBUG2;0.0;DEBUG3;0.0;DEBUG4;0.0
ATTITUDE;ANGX;7.0;ANGY;0.0;HEAD;-168.0
STATUS;CYCLETIME;2852;I2CERR;0;PRESENT;23;MODE;0
RAW_IMU;AX;32.0;AY;6.0;AZ;250.0;GX;0.0;GY;0.0;GZ;-1.0;MAGX;18.0;MAGY;-89.0;MAGZ;87.0
MOT;0;1000.0;1;1000.0;2;1000.0;3;1000.0;4;0.0;5;0.0;6;0.0;7;0.0;
RC;ROLL;1498.0;PITCH;1520.0;YAW;1524.0;THROTTLE;1050.0;AUX1;1527.0;AUX2;1500.0;AUX3;1500.0;AUX4;1500.0
ALTITUDE;0.0
DEBUG;DEBUG10.0;DEBUG2;0.0;DEBUG3;0.0;DEBUG4;0.0
ATTITUDE;ANGX;7.0;ANGY;0.0;HEAD;-168.0
STATUS;CYCLETIME;2840;I2CERR;0;PRESENT;23;MODE;0
RAW_IMU;AX;33.0;AY;4.0;AZ;249.0;GX;0.0;GY;0.0;GZ;-1.0;MAGX;18.0;MAGY;-89.0;MAGZ;87.0
MOT;0;1000.0;1;1000.0;2;1000.0;3;1000.0;4;0.0;5;0.0;6;0.0;7;0.0;
RC;ROLL;1496.0;PITCH;1520.0;YAW;1518.0;THROTTLE;1050.0;AUX1;1535.0;AUX2;1500.0;AUX3;1500.0;AUX4;1500.0
ALTITUDE;0.0
DEBUG;DEBUG10.0;DEBUG2;0.0;DEBUG3;0.0;DEBUG4;0.0
ATTITUDE;ANGX;7.0;ANGY;0.0;HEAD;-168.0
STATUS;CYCLETIME;2896;I2CERR;0;PRESENT;23;MODE;0
RAW_IMU;AX;32.0;AY;4.0;AZ;253.0;GX;0.0;GY;0.0;GZ;-1.0;MAGX;17.0;MAGY;-89.0;MAGZ;87.0
MOT;0;1000.0;1;1000.0;2;1000.0;3;1000.0;4;0.0;5;0.0;6;0.0;7;0.0;
RC;ROLL;1494.0;PITCH;1520.0;YAW;1518.0;THROTTLE;1050.0;AUX1;1537.0;AUX2;1500.0;AUX3;1500.0;AUX4;1500.0
ALTITUDE;0.0
DEBUG;DEBUG10.0;DEBUG2;0.0;DEBUG3;0.0;DEBUG4;0.0
ATTITUDE;ANGX;7.0;ANGY;0.0;HEAD;-167.0
STATUS;CYCLETIME;2784;I2CERR;0;PRESENT;23;MODE;0
RAW_IMU;AX;33.0;AY;4.0;AZ;253.0;GX;0.0;GY;0.0;GZ;-1.0;MAGX;17.0;MAGY;-89.0;MAGZ;87.0
MOT;0;1000.0;1;1000.0;2;1000.0;3;1000.0;4;0.0;5;0.0;6;0.0;7;0.0;
RC;ROLL;1494.0;PITCH;1520.0;YAW;1523.0;THROTTLE;1047.0;AUX1;1537.0;AUX2;1500.0;AUX3;1500.0;AUX4;1500.0
ALTITUDE;0.0
DEBUG;DEBUG10.0;DEBUG2;0.0;DEBUG3;0.0;DEBUG4;0.0
ATTITUDE;ANGX;7.0;ANGY;0.0;HEAD;-168.0
STATUS;CYCLETIME;2832;I2CERR;0;PRESENT;23;MODE;0
RAW_IMU;AX;33.0;AY;3.0;AZ;252.0;GX;0.0;GY;0.0;GZ;-1.0;MAGX;17.0;MAGY;-89.0;MAGZ;88.0
MOT;0;1000.0;1;1000.0;2;1000.0;3;1000.0;4;0.0;5;0.0;6;0.0;7;0.0;
RC;ROLL;1494.0;PITCH;1520.0;YAW;1526.0;THROTTLE;1043.0;AUX1;1537.0;AUX2;1500.0;AUX3;1500.0;AUX4;1500.0
ALTITUDE;0.0
DEBUG;DEBUG10.0;DEBUG2;0.0;DEBUG3;0.0;DEBUG4;0.0
ATTITUDE;ANGX;7.0;ANGY;0.0;HEAD;-168.0
STATUS;CYCLETIME;2968;I2CERR;0;PRESENT;23;MODE;0
RAW_IMU;AX;34.0;AY;2.0;AZ;251.0;GX;0.0;GY;0.0;GZ;-1.0;MAGX;17.0;MAGY;-89.0;MAGZ;88.0
MOT;0;1000.0;1;1000.0;2;1000.0;3;1000.0;4;0.0;5;0.0;6;0.0;7;0.0;
RC;ROLL;1494.0;PITCH;1513.0;YAW;1523.0;THROTTLE;1051.0;AUX1;1532.0;AUX2;1500.0;AUX3;1500.0;AUX4;1500.0
ALTITUDE;0.0
DEBUG;DEBUG10.0;DEBUG2;0.0;DEBUG3;0.0;DEBUG4;0.0
ATTITUDE;ANGX;7.0;ANGY;0.0;HEAD;-168.0
STATUS;CYCLETIME;2760;I2CERR;0;PRESENT;23;MODE;0
RAW_IMU;AX;32.0;AY;3.0;AZ;252.0;GX;0.0;GY;0.0;GZ;-1.0;MAGX;18.0;MAGY;-90.0;MAGZ;87.0
MOT;0;1000.0;1;1000.0;2;1000.0;3;1000.0;4;0.0;5;0.0;6;0.0;7;0.0;
RC;ROLL;1494.0;PITCH;1511.0;YAW;1523.0;THROTTLE;1051.0;AUX1;1532.0;AUX2;1500.0;AUX3;1500.0;AUX4;1500.0
ALTITUDE;0.0
DEBUG;DEBUG10.0;DEBUG2;0.0;DEBUG3;0.0;DEBUG4;0.0
ATTITUDE;ANGX;7.0;ANGY;0.0;HEAD;-168.0
STATUS;CYCLETIME;2792;I2CERR;0;PRESENT;23;MODE;0
RAW_IMU;AX;33.0;AY;3.0;AZ;253.0;GX;0.0;GY;0.0;GZ;-2.0;MAGX;18.0;MAGY;-90.0;MAGZ;87.0
MOT;0;1000.0;1;1000.0;2;1000.0;3;1000.0;4;0.0;5;0.0;6;0.0;7;0.0;
RC;ROLL;1494.0;PITCH;1518.0;YAW;1521.0;THROTTLE;1051.0;AUX1;1536.0;AUX2;1500.0;AUX3;1500.0;AUX4;1500.0
ALTITUDE;0.0
DEBUG;DEBUG10.0;DEBUG2;0.0;DEBUG3;0.0;DEBUG4;0.0
ATTITUDE;ANGX;7.0;ANGY;0.0;HEAD;-168.0
STATUS;CYCLETIME;2820;I2CERR;0;PRESENT;23;MODE;0
RAW_IMU;AX;34.0;AY;3.0;AZ;251.0;GX;0.0;GY;0.0;GZ;-1.0;MAGX;18.0;MAGY;-90.0;MAGZ;88.0
MOT;0;1000.0;1;1000.0;2;1000.0;3;1000.0;4;0.0;5;0.0;6;0.0;7;0.0;
RC;ROLL;1489.0;PITCH;1520.0;YAW;1521.0;THROTTLE;1057.0;AUX1;1534.0;AUX2;1500.0;AUX3;1500.0;AUX4;1500.0
ALTITUDE;0.0
DEBUG;DEBUG10.0;DEBUG2;0.0;DEBUG3;0.0;DEBUG4;0.0
ATTITUDE;ANGX;7.0;ANGY;0.0;HEAD;-168.0
STATUS;CYCLETIME;2804;I2CERR;0;PRESENT;23;MODE;0
RAW_IMU;AX;32.0;AY;5.0;AZ;252.0;GX;0.0;GY;0.0;GZ;-1.0;MAGX;18.0;MAGY;-90.0;MAGZ;88.0
MOT;0;1000.0;1;1000.0;2;1000.0;3;1000.0;4;0.0;5;0.0;6;0.0;7;0.0;
RC;ROLL;1489.0;PITCH;1516.0;YAW;1521.0;THROTTLE;1059.0;AUX1;1530.0;AUX2;1500.0;AUX3;1500.0;AUX4;1500.0
ALTITUDE;0.0
DEBUG;DEBUG10.0;DEBUG2;0.0;DEBUG3;0.0;DEBUG4;0.0
ATTITUDE;ANGX;7.0;ANGY;0.0;HEAD;-168.0
STATUS;CYCLETIME;2832;I2CERR;0;PRESENT;23;MODE;0
RAW_IMU;AX;35.0;AY;3.0;AZ;252.0;GX;0.0;GY;0.0;GZ;-1.0;MAGX;17.0;MAGY;-91.0;MAGZ;87.0
MOT;0;1000.0;1;1000.0;2;1000.0;3;1000.0;4;0.0;5;0.0;6;0.0;7;0.0;
RC;ROLL;1491.0;PITCH;1516.0;YAW;1521.0;THROTTLE;1059.0;AUX1;1535.0;AUX2;1500.0;AUX3;1500.0;AUX4;1500.0
ALTITUDE;0.0
DEBUG;DEBUG10.0;DEBUG2;0.0;DEBUG3;0.0;DEBUG4;0.0
ATTITUDE;ANGX;7.0;ANGY;0.0;HEAD;-168.0
STATUS;CYCLETIME;2908;I2CERR;0;PRESENT;23;MODE;0
RAW_IMU;AX;34.0;AY;5.0;AZ;253.0;GX;0.0;GY;0.0;GZ;-1.0;MAGX;17.0;MAGY;-91.0;MAGZ;87.0
MOT;0;1000.0;1;1000.0;2;1000.0;3;1000.0;4;0.0;5;0.0;6;0.0;7;0.0;
RC;ROLL;1491.0;PITCH;1518.0;YAW;1524.0;THROTTLE;1053.0;AUX1;1537.0;AUX2;1500.0;AUX3;1500.0;AUX4;1500.0
ALTITUDE;0.0
DEBUG;DEBUG10.0;DEBUG2;0.0;DEBUG3;0.0;DEBUG4;0.0
ATTITUDE;ANGX;7.0;ANGY;0.0;HEAD;-168.0
STATUS;CYCLETIME;2820;I2CERR;0;PRESENT;23;MODE;0
RAW_IMU;AX;33.0;AY;4.0;AZ;253.0;GX;0.0;GY;0.0;GZ;-1.0;MAGX;17.0;MAGY;-90.0;MAGZ;87.0
MOT;0;1000.0;1;1000.0;2;1000.0;3;1000.0;4;0.0;5;0.0;6;0.0;7;0.0;
RC;ROLL;1493.0;PITCH;1518.0;YAW;1524.0;THROTTLE;1053.0;AUX1;1537.0;AUX2;1500.0;AUX3;1500.0;AUX4;1500.0
ALTITUDE;0.0
DEBUG;DEBUG10.0;DEBUG2;0.0;DEBUG3;0.0;DEBUG4;0.0
ATTITUDE;ANGX;7.0;ANGY;0.0;HEAD;-167.0
STATUS;CYCLETIME;2836;I2CERR;0;PRESENT;23;MODE;0
RAW_IMU;AX;31.0;AY;4.0;AZ;251.0;GX;0.0;GY;0.0;GZ;-1.0;MAGX;17.0;MAGY;-90.0;MAGZ;87.0
MOT;0;1000.0;1;1000.0;2;1000.0;3;1000.0;4;0.0;5;0.0;6;0.0;7;0.0;
RC;ROLL;1493.0;PITCH;1523.0;YAW;1522.0;THROTTLE;1051.0;AUX1;1531.0;AUX2;1500.0;AUX3;1500.0;AUX4;1500.0
ALTITUDE;0.0
DEBUG;DEBUG10.0;DEBUG2;0.0;DEBUG3;0.0;DEBUG4;0.0
ATTITUDE;ANGX;7.0;ANGY;0.0;HEAD;-168.0
STATUS;CYCLETIME;2848;I2CERR;0;PRESENT;23;MODE;0
RAW_IMU;AX;34.0;AY;5.0;AZ;254.0;GX;0.0;GY;0.0;GZ;-1.0;MAGX;17.0;MAGY;-89.0;MAGZ;87.0
MOT;0;1000.0;1;1000.0;2;1000.0;3;1000.0;4;0.0;5;0.0;6;0.0;7;0.0;
RC;ROLL;1493.0;PITCH;1519.0;YAW;1518.0;THROTTLE;1057.0;AUX1;1531.0;AUX2;1500.0;AUX3;1500.0;AUX4;1500.0
ALTITUDE;0.0
DEBUG;DEBUG10.0;DEBUG2;0.0;DEBUG3;0.0;DEBUG4;0.0
ATTITUDE;ANGX;7.0;ANGY;0.0;HEAD;-168.0
STATUS;CYCLETIME;2804;I2CERR;0;PRESENT;23;MODE;0
RAW_IMU;AX;32.0;AY;5.0;AZ;253.0;GX;0.0;GY;0.0;GZ;-1.0;MAGX;17.0;MAGY;-89.0;MAGZ;87.0
MOT;0;1000.0;1;1000.0;2;1000.0;3;1000.0;4;0.0;5;0.0;6;0.0;7;0.0;
RC;ROLL;1493.0;PITCH;1519.0;YAW;1518.0;THROTTLE;1057.0;AUX1;1531.0;AUX2;1500.0;AUX3;1500.0;AUX4;1500.0
ALTITUDE;0.0
DEBUG;DEBUG10.0;DEBUG2;0.0;DEBUG3;0.0;DEBUG4;0.0
ATTITUDE;ANGX;7.0;ANGY;0.0;HEAD;-168.0
STATUS;CYCLETIME;2928;I2CERR;0;PRESENT;23;MODE;0
RAW_IMU;AX;32.0;AY;4.0;AZ;254.0;GX;0.0;GY;0.0;GZ;-1.0;MAGX;18.0;MAGY;-90.0;MAGZ;87.0
MOT;0;1000.0;1;1000.0;2;1000.0;3;1000.0;4;0.0;5;0.0;6;0.0;7;0.0;
RC;ROLL;1495.0;PITCH;1519.0;YAW;1522.0;THROTTLE;1054.0;AUX1;1533.0;AUX2;1500.0;AUX3;1500.0;AUX4;1500.0
ALTITUDE;0.0
DEBUG;DEBUG10.0;DEBUG2;0.0;DEBUG3;0.0;DEBUG4;0.0
ATTITUDE;ANGX;7.0;ANGY;0.0;HEAD;-168.0
STATUS;CYCLETIME;2828;I2CERR;0;PRESENT;23;MODE;0
RAW_IMU;AX;31.0;AY;3.0;AZ;254.0;GX;0.0;GY;0.0;GZ;-1.0;MAGX;18.0;MAGY;-90.0;MAGZ;87.0
MOT;0;1000.0;1;1000.0;2;1000.0;3;1000.0;4;0.0;5;0.0;6;0.0;7;0.0;
RC;ROLL;1495.0;PITCH;1519.0;YAW;1522.0;THROTTLE;1051.0;AUX1;1529.0;AUX2;1500.0;AUX3;1500.0;AUX4;1500.0
ALTITUDE;0.0
DEBUG;DEBUG10.0;DEBUG2;0.0;DEBUG3;0.0;DEBUG4;0.0
ATTITUDE;ANGX;7.0;ANGY;0.0;HEAD;-168.0
STATUS;CYCLETIME;3080;I2CERR;0;PRESENT;23;MODE;0
RAW_IMU;AX;30.0;AY;3.0;AZ;252.0;GX;0.0;GY;0.0;GZ;-1.0;MAGX;18.0;MAGY;-90.0;MAGZ;87.0
MOT;0;1000.0;1;1000.0;2;1000.0;3;1000.0;4;0.0;5;0.0;6;0.0;7;0.0;
RC;ROLL;1495.0;PITCH;1532.0;YAW;1519.0;THROTTLE;1051.0;AUX1;1527.0;AUX2;1500.0;AUX3;1500.0;AUX4;1500.0
ALTITUDE;0.0
DEBUG;DEBUG10.0;DEBUG2;0.0;DEBUG3;0.0;DEBUG4;0.0
ATTITUDE;ANGX;7.0;ANGY;0.0;HEAD;-168.0
STATUS;CYCLETIME;2788;I2CERR;0;PRESENT;23;MODE;0
RAW_IMU;AX;32.0;AY;2.0;AZ;252.0;GX;0.0;GY;0.0;GZ;-1.0;MAGX;18.0;MAGY;-90.0;MAGZ;87.0
MOT;0;1000.0;1;1000.0;2;1000.0;3;1000.0;4;0.0;5;0.0;6;0.0;7;0.0;
RC;ROLL;1495.0;PITCH;1526.0;YAW;1519.0;THROTTLE;1051.0;AUX1;1527.0;AUX2;1500.0;AUX3;1500.0;AUX4;1500.0
ALTITUDE;0.0
DEBUG;DEBUG10.0;DEBUG2;0.0;DEBUG3;0.0;DEBUG4;0.0
ATTITUDE;ANGX;7.0;ANGY;0.0;HEAD;-167.0
STATUS;CYCLETIME;2828;I2CERR;0;PRESENT;23;MODE;0
RAW_IMU;AX;34.0;AY;1.0;AZ;253.0;GX;0.0;GY;0.0;GZ;-1.0;MAGX;18.0;MAGY;-90.0;MAGZ;87.0
MOT;0;1000.0;1;1000.0;2;1000.0;3;1000.0;4;0.0;5;0.0;6;0.0;7;0.0;
RC;ROLL;1495.0;PITCH;1517.0;YAW;1519.0;THROTTLE;1049.0;AUX1;1529.0;AUX2;1500.0;AUX3;1500.0;AUX4;1500.0
ALTITUDE;0.0
DEBUG;DEBUG10.0;DEBUG2;0.0;DEBUG3;0.0;DEBUG4;0.0
ATTITUDE;ANGX;7.0;ANGY;0.0;HEAD;-167.0
STATUS;CYCLETIME;2788;I2CERR;0;PRESENT;23;MODE;0
RAW_IMU;AX;33.0;AY;3.0;AZ;251.0;GX;0.0;GY;0.0;GZ;-1.0;MAGX;18.0;MAGY;-90.0;MAGZ;87.0
MOT;0;1000.0;1;1000.0;2;1000.0;3;1000.0;4;0.0;5;0.0;6;0.0;7;0.0;
RC;ROLL;1495.0;PITCH;1517.0;YAW;1527.0;THROTTLE;1049.0;AUX1;1534.0;AUX2;1500.0;AUX3;1500.0;AUX4;1500.0
ALTITUDE;0.0
DEBUG;DEBUG10.0;DEBUG2;0.0;DEBUG3;0.0;DEBUG4;0.0
ATTITUDE;ANGX;7.0;ANGY;0.0;HEAD;-167.0
STATUS;CYCLETIME;2924;I2CERR;0;PRESENT;23;MODE;0
RAW_IMU;AX;35.0;AY;4.0;AZ;251.0;GX;0.0;GY;0.0;GZ;-1.0;MAGX;18.0;MAGY;-90.0;MAGZ;87.0
MOT;0;1000.0;1;1000.0;2;1000.0;3;1000.0;4;0.0;5;0.0;6;0.0;7;0.0;
RC;ROLL;1499.0;PITCH;1512.0;YAW;1527.0;THROTTLE;1051.0;AUX1;1534.0;AUX2;1500.0;AUX3;1500.0;AUX4;1500.0
ALTITUDE;0.0
DEBUG;DEBUG10.0;DEBUG2;0.0;DEBUG3;0.0;DEBUG4;0.0
ATTITUDE;ANGX;7.0;ANGY;0.0;HEAD;-167.0
STATUS;CYCLETIME;2812;I2CERR;0;PRESENT;23;MODE;0
RAW_IMU;AX;32.0;AY;4.0;AZ;254.0;GX;0.0;GY;0.0;GZ;-1.0;MAGX;17.0;MAGY;-90.0;MAGZ;88.0
MOT;0;1000.0;1;1000.0;2;1000.0;3;1000.0;4;0.0;5;0.0;6;0.0;7;0.0;
RC;ROLL;1499.0;PITCH;1512.0;YAW;1523.0;THROTTLE;1054.0;AUX1;1534.0;AUX2;1500.0;AUX3;1500.0;AUX4;1500.0
ALTITUDE;0.0
DEBUG;DEBUG10.0;DEBUG2;0.0;DEBUG3;0.0;DEBUG4;0.0
ATTITUDE;ANGX;7.0;ANGY;0.0;HEAD;-167.0
STATUS;CYCLETIME;2856;I2CERR;0;PRESENT;23;MODE;0
RAW_IMU;AX;33.0;AY;4.0;AZ;251.0;GX;0.0;GY;0.0;GZ;-1.0;MAGX;17.0;MAGY;-90.0;MAGZ;88.0
MOT;0;1000.0;1;1000.0;2;1000.0;3;1000.0;4;0.0;5;0.0;6;0.0;7;0.0;
RC;ROLL;1493.0;PITCH;1519.0;YAW;1516.0;THROTTLE;1054.0;AUX1;1536.0;AUX2;1500.0;AUX3;1500.0;AUX4;1500.0
ALTITUDE;0.0
DEBUG;DEBUG10.0;DEBUG2;0.0;DEBUG3;0.0;DEBUG4;0.0
ATTITUDE;ANGX;7.0;ANGY;0.0;HEAD;-168.0
STATUS;CYCLETIME;2908;I2CERR;0;PRESENT;23;MODE;0
RAW_IMU;AX;32.0;AY;2.0;AZ;251.0;GX;0.0;GY;0.0;GZ;-1.0;MAGX;17.0;MAGY;-91.0;MAGZ;87.0
MOT;0;1000.0;1;1000.0;2;1000.0;3;1000.0;4;0.0;5;0.0;6;0.0;7;0.0;
RC;ROLL;1491.0;PITCH;1519.0;YAW;1516.0;THROTTLE;1054.0;AUX1;1536.0;AUX2;1500.0;AUX3;1500.0;AUX4;1500.0
ALTITUDE;0.0
DEBUG;DEBUG10.0;DEBUG2;0.0;DEBUG3;0.0;DEBUG4;0.0
ATTITUDE;ANGX;7.0;ANGY;0.0;HEAD;-168.0
STATUS;CYCLETIME;2820;I2CERR;0;PRESENT;23;MODE;0
RAW_IMU;AX;31.0;AY;4.0;AZ;251.0;GX;0.0;GY;0.0;GZ;-1.0;MAGX;17.0;MAGY;-91.0;MAGZ;87.0
MOT;0;1000.0;1;1000.0;2;1000.0;3;1000.0;4;0.0;5;0.0;6;0.0;7;0.0;
RC;ROLL;1491.0;PITCH;1522.0;YAW;1521.0;THROTTLE;1050.0;AUX1;1536.0;AUX2;1500.0;AUX3;1500.0;AUX4;1500.0
ALTITUDE;0.0
DEBUG;DEBUG10.0;DEBUG2;0.0;DEBUG3;0.0;DEBUG4;0.0
ATTITUDE;ANGX;7.0;ANGY;0.0;HEAD;-168.0
STATUS;CYCLETIME;2824;I2CERR;0;PRESENT;23;MODE;0
RAW_IMU;AX;33.0;AY;3.0;AZ;250.0;GX;0.0;GY;0.0;GZ;-1.0;MAGX;17.0;MAGY;-90.0;MAGZ;86.0
MOT;0;1000.0;1;1000.0;2;1000.0;3;1000.0;4;0.0;5;0.0;6;0.0;7;0.0;
RC;ROLL;1491.0;PITCH;1522.0;YAW;1521.0;THROTTLE;1050.0;AUX1;1534.0;AUX2;1500.0;AUX3;1500.0;AUX4;1500.0
ALTITUDE;0.0
DEBUG;DEBUG10.0;DEBUG2;0.0;DEBUG3;0.0;DEBUG4;0.0
ATTITUDE;ANGX;7.0;ANGY;0.0;HEAD;-168.0
STATUS;CYCLETIME;2912;I2CERR;0;PRESENT;23;MODE;0
RAW_IMU;AX;32.0;AY;3.0;AZ;250.0;GX;0.0;GY;0.0;GZ;-1.0;MAGX;17.0;MAGY;-90.0;MAGZ;86.0
MOT;0;1000.0;1;1000.0;2;1000.0;3;1000.0;4;0.0;5;0.0;6;0.0;7;0.0;
RC;ROLL;1491.0;PITCH;1518.0;YAW;1518.0;THROTTLE;1054.0;AUX1;1534.0;AUX2;1500.0;AUX3;1500.0;AUX4;1500.0
ALTITUDE;0.0
DEBUG;DEBUG10.0;DEBUG2;0.0;DEBUG3;0.0;DEBUG4;0.0
ATTITUDE;ANGX;7.0;ANGY;0.0;HEAD;-168.0
STATUS;CYCLETIME;2840;I2CERR;0;PRESENT;23;MODE;0
RAW_IMU;AX;34.0;AY;2.0;AZ;249.0;GX;0.0;GY;0.0;GZ;-2.0;MAGX;17.0;MAGY;-90.0;MAGZ;88.0
MOT;0;1000.0;1;1000.0;2;1000.0;3;1000.0;4;0.0;5;0.0;6;0.0;7;0.0;
RC;ROLL;1491.0;PITCH;1518.0;YAW;1518.0;THROTTLE;1056.0;AUX1;1534.0;AUX2;1500.0;AUX3;1500.0;AUX4;1500.0
ALTITUDE;0.0
DEBUG;DEBUG10.0;DEBUG2;0.0;DEBUG3;0.0;DEBUG4;0.0
ATTITUDE;ANGX;7.0;ANGY;0.0;HEAD;-168.0
STATUS;CYCLETIME;2776;I2CERR;0;PRESENT;23;MODE;0
RAW_IMU;AX;32.0;AY;4.0;AZ;252.0;GX;0.0;GY;0.0;GZ;-2.0;MAGX;17.0;MAGY;-90.0;MAGZ;88.0
MOT;0;1000.0;1;1000.0;2;1000.0;3;1000.0;4;0.0;5;0.0;6;0.0;7;0.0;
RC;ROLL;1493.0;PITCH;1518.0;YAW;1518.0;THROTTLE;1056.0;AUX1;1536.0;AUX2;1500.0;AUX3;1500.0;AUX4;1500.0
ALTITUDE;0.0
DEBUG;DEBUG10.0;DEBUG2;0.0;DEBUG3;0.0;DEBUG4;0.0
ATTITUDE;ANGX;7.0;ANGY;0.0;HEAD;-168.0
STATUS;CYCLETIME;2792;I2CERR;0;PRESENT;23;MODE;0
RAW_IMU;AX;33.0;AY;4.0;AZ;251.0;GX;0.0;GY;0.0;GZ;-2.0;MAGX;17.0;MAGY;-89.0;MAGZ;88.0
MOT;0;1000.0;1;1000.0;2;1000.0;3;1000.0;4;0.0;5;0.0;6;0.0;7;0.0;
RC;ROLL;1493.0;PITCH;1518.0;YAW;1518.0;THROTTLE;1056.0;AUX1;1536.0;AUX2;1500.0;AUX3;1500.0;AUX4;1500.0
ALTITUDE;0.0
DEBUG;DEBUG10.0;DEBUG2;0.0;DEBUG3;0.0;DEBUG4;0.0
ATTITUDE;ANGX;7.0;ANGY;0.0;HEAD;-168.0
STATUS;CYCLETIME;2792;I2CERR;0;PRESENT;23;MODE;0
RAW_IMU;AX;33.0;AY;5.0;AZ;254.0;GX;0.0;GY;0.0;GZ;-1.0;MAGX;17.0;MAGY;-89.0;MAGZ;88.0
MOT;0;1000.0;1;1000.0;2;1000.0;3;1000.0;4;0.0;5;0.0;6;0.0;7;0.0;
RC;ROLL;1495.0;PITCH;1518.0;YAW;1518.0;THROTTLE;1059.0;AUX1;1536.0;AUX2;1500.0;AUX3;1500.0;AUX4;1500.0
ALTITUDE;0.0
DEBUG;DEBUG10.0;DEBUG2;0.0;DEBUG3;0.0;DEBUG4;0.0
ATTITUDE;ANGX;7.0;ANGY;0.0;HEAD;-168.0
STATUS;CYCLETIME;2912;I2CERR;0;PRESENT;23;MODE;0
RAW_IMU;AX;33.0;AY;4.0;AZ;251.0;GX;0.0;GY;0.0;GZ;-2.0;MAGX;18.0;MAGY;-90.0;MAGZ;87.0
MOT;0;1000.0;1;1000.0;2;1000.0;3;1000.0;4;0.0;5;0.0;6;0.0;7;0.0;
RC;ROLL;1495.0;PITCH;1518.0;YAW;1515.0;THROTTLE;1059.0;AUX1;1536.0;AUX2;1500.0;AUX3;1500.0;AUX4;1500.0
ALTITUDE;0.0
DEBUG;DEBUG10.0;DEBUG2;0.0;DEBUG3;0.0;DEBUG4;0.0
ATTITUDE;ANGX;7.0;ANGY;0.0;HEAD;-168.0
STATUS;CYCLETIME;2788;I2CERR;0;PRESENT;23;MODE;0
RAW_IMU;AX;32.0;AY;5.0;AZ;251.0;GX;0.0;GY;0.0;GZ;-1.0;MAGX;18.0;MAGY;-90.0;MAGZ;87.0
MOT;0;1000.0;1;1000.0;2;1000.0;3;1000.0;4;0.0;5;0.0;6;0.0;7;0.0;
RC;ROLL;1495.0;PITCH;1518.0;YAW;1515.0;THROTTLE;1059.0;AUX1;1538.0;AUX2;1500.0;AUX3;1500.0;AUX4;1500.0
ALTITUDE;0.0
DEBUG;DEBUG10.0;DEBUG2;0.0;DEBUG3;0.0;DEBUG4;0.0
ATTITUDE;ANGX;7.0;ANGY;0.0;HEAD;-168.0
STATUS;CYCLETIME;2808;I2CERR;0;PRESENT;23;MODE;0
RAW_IMU;AX;33.0;AY;2.0;AZ;253.0;GX;0.0;GY;0.0;GZ;-1.0;MAGX;19.0;MAGY;-90.0;MAGZ;87.0
MOT;0;1000.0;1;1000.0;2;1000.0;3;1000.0;4;0.0;5;0.0;6;0.0;7;0.0;
RC;ROLL;1495.0;PITCH;1518.0;YAW;1515.0;THROTTLE;1059.0;AUX1;1538.0;AUX2;1500.0;AUX3;1500.0;AUX4;1500.0
ALTITUDE;0.0
DEBUG;DEBUG10.0;DEBUG2;0.0;DEBUG3;0.0;DEBUG4;0.0
ATTITUDE;ANGX;7.0;ANGY;0.0;HEAD;-168.0
STATUS;CYCLETIME;2768;I2CERR;0;PRESENT;23;MODE;0
RAW_IMU;AX;35.0;AY;2.0;AZ;251.0;GX;0.0;GY;0.0;GZ;-1.0;MAGX;19.0;MAGY;-90.0;MAGZ;87.0
MOT;0;1000.0;1;1000.0;2;1000.0;3;1000.0;4;0.0;5;0.0;6;0.0;7;0.0;
RC;ROLL;1495.0;PITCH;1516.0;YAW;1515.0;THROTTLE;1059.0;AUX1;1538.0;AUX2;1500.0;AUX3;1500.0;AUX4;1500.0
ALTITUDE;0.0
DEBUG;DEBUG10.0;DEBUG2;0.0;DEBUG3;0.0;DEBUG4;0.0
ATTITUDE;ANGX;7.0;ANGY;0.0;HEAD;-168.0
STATUS;CYCLETIME;2820;I2CERR;0;PRESENT;23;MODE;0
RAW_IMU;AX;28.0;AY;2.0;AZ;252.0;GX;0.0;GY;0.0;GZ;-1.0;MAGX;18.0;MAGY;-91.0;MAGZ;87.0
MOT;0;1000.0;1;1000.0;2;1000.0;3;1000.0;4;0.0;5;0.0;6;0.0;7;0.0;
RC;ROLL;1495.0;PITCH;1516.0;YAW;1515.0;THROTTLE;1057.0;AUX1;1538.0;AUX2;1500.0;AUX3;1500.0;AUX4;1500.0
ALTITUDE;0.0
DEBUG;DEBUG10.0;DEBUG2;0.0;DEBUG3;0.0;DEBUG4;0.0
ATTITUDE;ANGX;7.0;ANGY;0.0;HEAD;-168.0
STATUS;CYCLETIME;2868;I2CERR;0;PRESENT;23;MODE;0
RAW_IMU;AX;30.0;AY;4.0;AZ;252.0;GX;0.0;GY;0.0;GZ;-1.0;MAGX;18.0;MAGY;-91.0;MAGZ;87.0
MOT;0;1000.0;1;1000.0;2;1000.0;3;1000.0;4;0.0;5;0.0;6;0.0;7;0.0;
RC;ROLL;1495.0;PITCH;1516.0;YAW;1515.0;THROTTLE;1057.0;AUX1;1538.0;AUX2;1500.0;AUX3;1500.0;AUX4;1500.0
ALTITUDE;0.0
DEBUG;DEBUG10.0;DEBUG2;0.0;DEBUG3;0.0;DEBUG4;0.0
ATTITUDE;ANGX;7.0;ANGY;0.0;HEAD;-168.0
STATUS;CYCLETIME;2800;I2CERR;0;PRESENT;23;MODE;0
RAW_IMU;AX;33.0;AY;7.0;AZ;252.0;GX;0.0;GY;0.0;GZ;-1.0;MAGX;18.0;MAGY;-90.0;MAGZ;87.0
MOT;0;1000.0;1;1000.0;2;1000.0;3;1000.0;4;0.0;5;0.0;6;0.0;7;0.0;
RC;ROLL;1495.0;PITCH;1516.0;YAW;1515.0;THROTTLE;1060.0;AUX1;1538.0;AUX2;1500.0;AUX3;1500.0;AUX4;1500.0
ALTITUDE;0.0
DEBUG;DEBUG10.0;DEBUG2;0.0;DEBUG3;0.0;DEBUG4;0.0
ATTITUDE;ANGX;7.0;ANGY;0.0;HEAD;-168.0
STATUS;CYCLETIME;2760;I2CERR;0;PRESENT;23;MODE;0
RAW_IMU;AX;33.0;AY;6.0;AZ;254.0;GX;0.0;GY;0.0;GZ;-1.0;MAGX;18.0;MAGY;-90.0;MAGZ;87.0
MOT;0;1000.0;1;1000.0;2;1000.0;3;1000.0;4;0.0;5;0.0;6;0.0;7;0.0;
RC;ROLL;1495.0;PITCH;1516.0;YAW;1515.0;THROTTLE;1058.0;AUX1;1538.0;AUX2;1500.0;AUX3;1500.0;AUX4;1500.0
ALTITUDE;0.0
DEBUG;DEBUG10.0;DEBUG2;0.0;DEBUG3;0.0;DEBUG4;0.0
ATTITUDE;ANGX;7.0;ANGY;0.0;HEAD;-167.0
STATUS;CYCLETIME;3032;I2CERR;0;PRESENT;23;MODE;0
RAW_IMU;AX;34.0;AY;4.0;AZ;254.0;GX;0.0;GY;0.0;GZ;-1.0;MAGX;18.0;MAGY;-90.0;MAGZ;86.0
MOT;0;1000.0;1;1000.0;2;1000.0;3;1000.0;4;0.0;5;0.0;6;0.0;7;0.0;
RC;ROLL;1495.0;PITCH;1516.0;YAW;1515.0;THROTTLE;1058.0;AUX1;1538.0;AUX2;1500.0;AUX3;1500.0;AUX4;1500.0
ALTITUDE;0.0
DEBUG;DEBUG10.0;DEBUG2;0.0;DEBUG3;0.0;DEBUG4;0.0
ATTITUDE;ANGX;7.0;ANGY;0.0;HEAD;-167.0
STATUS;CYCLETIME;2816;I2CERR;0;PRESENT;23;MODE;0
RAW_IMU;AX;33.0;AY;7.0;AZ;252.0;GX;0.0;GY;0.0;GZ;-1.0;MAGX;18.0;MAGY;-90.0;MAGZ;86.0
MOT;0;1000.0;1;1000.0;2;1000.0;3;1000.0;4;0.0;5;0.0;6;0.0;7;0.0;
RC;ROLL;1495.0;PITCH;1518.0;YAW;1513.0;THROTTLE;1058.0;AUX1;1538.0;AUX2;1500.0;AUX3;1500.0;AUX4;1500.0
ALTITUDE;0.0
DEBUG;DEBUG10.0;DEBUG2;0.0;DEBUG3;0.0;DEBUG4;0.0
ATTITUDE;ANGX;7.0;ANGY;0.0;HEAD;-167.0
STATUS;CYCLETIME;2804;I2CERR;0;PRESENT;23;MODE;0
RAW_IMU;AX;33.0;AY;5.0;AZ;250.0;GX;0.0;GY;0.0;GZ;-1.0;MAGX;18.0;MAGY;-90.0;MAGZ;86.0
MOT;0;1000.0;1;1000.0;2;1000.0;3;1000.0;4;0.0;5;0.0;6;0.0;7;0.0;
RC;ROLL;1495.0;PITCH;1518.0;YAW;1515.0;THROTTLE;1058.0;AUX1;1538.0;AUX2;1500.0;AUX3;1500.0;AUX4;1500.0
ALTITUDE;0.0
DEBUG;DEBUG10.0;DEBUG2;0.0;DEBUG3;0.0;DEBUG4;0.0
ATTITUDE;ANGX;7.0;ANGY;0.0;HEAD;-168.0
STATUS;CYCLETIME;2816;I2CERR;0;PRESENT;23;MODE;0
RAW_IMU;AX;33.0;AY;6.0;AZ;252.0;GX;0.0;GY;0.0;GZ;-1.0;MAGX;17.0;MAGY;-89.0;MAGZ;88.0
MOT;0;1000.0;1;1000.0;2;1000.0;3;1000.0;4;0.0;5;0.0;6;0.0;7;0.0;
RC;ROLL;1495.0;PITCH;1516.0;YAW;1515.0;THROTTLE;1058.0;AUX1;1538.0;AUX2;1500.0;AUX3;1500.0;AUX4;1500.0
ALTITUDE;0.0
DEBUG;DEBUG10.0;DEBUG2;0.0;DEBUG3;0.0;DEBUG4;0.0
ATTITUDE;ANGX;7.0;ANGY;0.0;HEAD;-168.0
STATUS;CYCLETIME;2908;I2CERR;0;PRESENT;23;MODE;0
RAW_IMU;AX;32.0;AY;2.0;AZ;251.0;GX;0.0;GY;0.0;GZ;-1.0;MAGX;17.0;MAGY;-89.0;MAGZ;88.0
MOT;0;1000.0;1;1000.0;2;1000.0;3;1000.0;4;0.0;5;0.0;6;0.0;7;0.0;
RC;ROLL;1495.0;PITCH;1516.0;YAW;1515.0;THROTTLE;1058.0;AUX1;1536.0;AUX2;1500.0;AUX3;1500.0;AUX4;1500.0
ALTITUDE;0.0
DEBUG;DEBUG10.0;DEBUG2;0.0;DEBUG3;0.0;DEBUG4;0.0
ATTITUDE;ANGX;7.0;ANGY;0.0;HEAD;-168.0
STATUS;CYCLETIME;2784;I2CERR;0;PRESENT;23;MODE;0
RAW_IMU;AX;34.0;AY;4.0;AZ;250.0;GX;0.0;GY;0.0;GZ;-1.0;MAGX;18.0;MAGY;-90.0;MAGZ;87.0
MOT;0;1000.0;1;1000.0;2;1000.0;3;1000.0;4;0.0;5;0.0;6;0.0;7;0.0;
RC;ROLL;1495.0;PITCH;1516.0;YAW;1515.0;THROTTLE;1058.0;AUX1;1536.0;AUX2;1500.0;AUX3;1500.0;AUX4;1500.0
ALTITUDE;0.0
DEBUG;DEBUG10.0;DEBUG2;0.0;DEBUG3;0.0;DEBUG4;0.0
ATTITUDE;ANGX;7.0;ANGY;0.0;HEAD;-168.0
STATUS;CYCLETIME;2788;I2CERR;0;PRESENT;23;MODE;0
RAW_IMU;AX;30.0;AY;2.0;AZ;256.0;GX;0.0;GY;0.0;GZ;-1.0;MAGX;18.0;MAGY;-90.0;MAGZ;87.0
MOT;0;1000.0;1;1000.0;2;1000.0;3;1000.0;4;0.0;5;0.0;6;0.0;7;0.0;
RC;ROLL;1495.0;PITCH;1516.0;YAW;1515.0;THROTTLE;1058.0;AUX1;1536.0;AUX2;1500.0;AUX3;1500.0;AUX4;1500.0
ALTITUDE;0.0
DEBUG;DEBUG10.0;DEBUG2;0.0;DEBUG3;0.0;DEBUG4;0.0
ATTITUDE;ANGX;7.0;ANGY;0.0;HEAD;-168.0
STATUS;CYCLETIME;2952;I2CERR;0;PRESENT;23;MODE;0
RAW_IMU;AX;32.0;AY;4.0;AZ;253.0;GX;0.0;GY;0.0;GZ;-1.0;MAGX;17.0;MAGY;-90.0;MAGZ;88.0
MOT;0;1000.0;1;1000.0;2;1000.0;3;1000.0;4;0.0;5;0.0;6;0.0;7;0.0;
RC;ROLL;1495.0;PITCH;1518.0;YAW;1515.0;THROTTLE;1058.0;AUX1;1536.0;AUX2;1500.0;AUX3;1500.0;AUX4;1500.0
ALTITUDE;0.0
DEBUG;DEBUG10.0;DEBUG2;0.0;DEBUG3;0.0;DEBUG4;0.0
ATTITUDE;ANGX;7.0;ANGY;0.0;HEAD;-168.0
STATUS;CYCLETIME;2820;I2CERR;0;PRESENT;23;MODE;0
RAW_IMU;AX;30.0;AY;7.0;AZ;251.0;GX;0.0;GY;0.0;GZ;-1.0;MAGX;17.0;MAGY;-90.0;MAGZ;88.0
MOT;0;1000.0;1;1000.0;2;1000.0;3;1000.0;4;0.0;5;0.0;6;0.0;7;0.0;
RC;ROLL;1495.0;PITCH;1516.0;YAW;1515.0;THROTTLE;1058.0;AUX1;1536.0;AUX2;1500.0;AUX3;1500.0;AUX4;1500.0
ALTITUDE;0.0
DEBUG;DEBUG10.0;DEBUG2;0.0;DEBUG3;0.0;DEBUG4;0.0
ATTITUDE;ANGX;7.0;ANGY;0.0;HEAD;-168.0
STATUS;CYCLETIME;2804;I2CERR;0;PRESENT;23;MODE;0
RAW_IMU;AX;30.0;AY;6.0;AZ;253.0;GX;0.0;GY;0.0;GZ;-1.0;MAGX;16.0;MAGY;-90.0;MAGZ;87.0
MOT;0;1000.0;1;1000.0;2;1000.0;3;1000.0;4;0.0;5;0.0;6;0.0;7;0.0;
RC;ROLL;1495.0;PITCH;1516.0;YAW;1515.0;THROTTLE;1058.0;AUX1;1536.0;AUX2;1500.0;AUX3;1500.0;AUX4;1500.0
ALTITUDE;0.0
DEBUG;DEBUG10.0;DEBUG2;0.0;DEBUG3;0.0;DEBUG4;0.0
ATTITUDE;ANGX;7.0;ANGY;0.0;HEAD;-168.0
STATUS;CYCLETIME;2932;I2CERR;0;PRESENT;23;MODE;0
RAW_IMU;AX;33.0;AY;7.0;AZ;253.0;GX;0.0;GY;0.0;GZ;-1.0;MAGX;16.0;MAGY;-90.0;MAGZ;87.0
MOT;0;1000.0;1;1000.0;2;1000.0;3;1000.0;4;0.0;5;0.0;6;0.0;7;0.0;
RC;ROLL;1495.0;PITCH;1516.0;YAW;1513.0;THROTTLE;1058.0;AUX1;1538.0;AUX2;1500.0;AUX3;1500.0;AUX4;1500.0
ALTITUDE;0.0
DEBUG;DEBUG10.0;DEBUG2;0.0;DEBUG3;0.0;DEBUG4;0.0
ATTITUDE;ANGX;7.0;ANGY;0.0;HEAD;-168.0
STATUS;CYCLETIME;2852;I2CERR;0;PRESENT;23;MODE;0
RAW_IMU;AX;34.0;AY;6.0;AZ;248.0;GX;0.0;GY;0.0;GZ;-1.0;MAGX;19.0;MAGY;-89.0;MAGZ;87.0
MOT;0;1000.0;1;1000.0;2;1000.0;3;1000.0;4;0.0;5;0.0;6;0.0;7;0.0;
RC;ROLL;1495.0;PITCH;1516.0;YAW;1513.0;THROTTLE;1058.0;AUX1;1536.0;AUX2;1500.0;AUX3;1500.0;AUX4;1500.0
ALTITUDE;0.0
DEBUG;DEBUG10.0;DEBUG2;0.0;DEBUG3;0.0;DEBUG4;0.0
ATTITUDE;ANGX;7.0;ANGY;0.0;HEAD;-168.0
STATUS;CYCLETIME;2812;I2CERR;0;PRESENT;23;MODE;0
RAW_IMU;AX;32.0;AY;4.0;AZ;251.0;GX;0.0;GY;0.0;GZ;-1.0;MAGX;19.0;MAGY;-89.0;MAGZ;87.0
MOT;0;1000.0;1;1000.0;2;1000.0;3;1000.0;4;0.0;5;0.0;6;0.0;7;0.0;
RC;ROLL;1495.0;PITCH;1516.0;YAW;1513.0;THROTTLE;1058.0;AUX1;1536.0;AUX2;1500.0;AUX3;1500.0;AUX4;1500.0
ALTITUDE;0.0
DEBUG;DEBUG10.0;DEBUG2;0.0;DEBUG3;0.0;DEBUG4;0.0
ATTITUDE;ANGX;7.0;ANGY;0.0;HEAD;-168.0
STATUS;CYCLETIME;2904;I2CERR;0;PRESENT;23;MODE;0
RAW_IMU;AX;32.0;AY;3.0;AZ;251.0;GX;0.0;GY;0.0;GZ;-1.0;MAGX;17.0;MAGY;-90.0;MAGZ;87.0
MOT;0;1000.0;1;1000.0;2;1000.0;3;1000.0;4;0.0;5;0.0;6;0.0;7;0.0;
RC;ROLL;1497.0;PITCH;1516.0;YAW;1513.0;THROTTLE;1058.0;AUX1;1536.0;AUX2;1500.0;AUX3;1500.0;AUX4;1500.0
ALTITUDE;0.0
DEBUG;DEBUG10.0;DEBUG2;0.0;DEBUG3;0.0;DEBUG4;0.0
ATTITUDE;ANGX;7.0;ANGY;0.0;HEAD;-168.0
STATUS;CYCLETIME;2796;I2CERR;0;PRESENT;23;MODE;0
RAW_IMU;AX;33.0;AY;1.0;AZ;254.0;GX;0.0;GY;0.0;GZ;-1.0;MAGX;17.0;MAGY;-90.0;MAGZ;87.0
MOT;0;1000.0;1;1000.0;2;1000.0;3;1000.0;4;0.0;5;0.0;6;0.0;7;0.0;
RC;ROLL;1497.0;PITCH;1516.0;YAW;1513.0;THROTTLE;1058.0;AUX1;1536.0;AUX2;1500.0;AUX3;1500.0;AUX4;1500.0
ALTITUDE;0.0
DEBUG;DEBUG10.0;DEBUG2;0.0;DEBUG3;0.0;DEBUG4;0.0
ATTITUDE;ANGX;7.0;ANGY;0.0;HEAD;-168.0
STATUS;CYCLETIME;2808;I2CERR;0;PRESENT;23;MODE;0
RAW_IMU;AX;35.0;AY;2.0;AZ;254.0;GX;0.0;GY;0.0;GZ;-1.0;MAGX;18.0;MAGY;-89.0;MAGZ;86.0
MOT;0;1000.0;1;1000.0;2;1000.0;3;1000.0;4;0.0;5;0.0;6;0.0;7;0.0;
RC;ROLL;1497.0;PITCH;1516.0;YAW;1513.0;THROTTLE;1058.0;AUX1;1536.0;AUX2;1500.0;AUX3;1500.0;AUX4;1500.0
ALTITUDE;0.0
DEBUG;DEBUG10.0;DEBUG2;0.0;DEBUG3;0.0;DEBUG4;0.0
ATTITUDE;ANGX;7.0;ANGY;0.0;HEAD;-168.0
STATUS;CYCLETIME;2960;I2CERR;0;PRESENT;23;MODE;0
RAW_IMU;AX;35.0;AY;5.0;AZ;252.0;GX;0.0;GY;0.0;GZ;-1.0;MAGX;18.0;MAGY;-89.0;MAGZ;86.0
MOT;0;1000.0;1;1000.0;2;1000.0;3;1000.0;4;0.0;5;0.0;6;0.0;7;0.0;
RC;ROLL;1497.0;PITCH;1516.0;YAW;1513.0;THROTTLE;1060.0;AUX1;1536.0;AUX2;1500.0;AUX3;1500.0;AUX4;1500.0
ALTITUDE;0.0
DEBUG;DEBUG10.0;DEBUG2;0.0;DEBUG3;0.0;DEBUG4;0.0
ATTITUDE;ANGX;7.0;ANGY;0.0;HEAD;-168.0
STATUS;CYCLETIME;2788;I2CERR;0;PRESENT;23;MODE;0
RAW_IMU;AX;33.0;AY;4.0;AZ;252.0;GX;0.0;GY;0.0;GZ;-1.0;MAGX;18.0;MAGY;-90.0;MAGZ;87.0
MOT;0;1000.0;1;1000.0;2;1000.0;3;1000.0;4;0.0;5;0.0;6;0.0;7;0.0;
RC;ROLL;1497.0;PITCH;1516.0;YAW;1513.0;THROTTLE;1060.0;AUX1;1536.0;AUX2;1500.0;AUX3;1500.0;AUX4;1500.0
ALTITUDE;0.0
DEBUG;DEBUG10.0;DEBUG2;0.0;DEBUG3;0.0;DEBUG4;0.0
ATTITUDE;ANGX;7.0;ANGY;0.0;HEAD;-168.0
STATUS;CYCLETIME;2828;I2CERR;0;PRESENT;23;MODE;0
RAW_IMU;AX;32.0;AY;4.0;AZ;252.0;GX;0.0;GY;0.0;GZ;-1.0;MAGX;18.0;MAGY;-90.0;MAGZ;87.0
MOT;0;1000.0;1;1000.0;2;1000.0;3;1000.0;4;0.0;5;0.0;6;0.0;7;0.0;
RC;ROLL;1497.0;PITCH;1516.0;YAW;1513.0;THROTTLE;1060.0;AUX1;1536.0;AUX2;1500.0;AUX3;1500.0;AUX4;1500.0
ALTITUDE;0.0
DEBUG;DEBUG10.0;DEBUG2;0.0;DEBUG3;0.0;DEBUG4;0.0
ATTITUDE;ANGX;7.0;ANGY;0.0;HEAD;-168.0
STATUS;CYCLETIME;2756;I2CERR;0;PRESENT;23;MODE;0
RAW_IMU;AX;31.0;AY;6.0;AZ;252.0;GX;0.0;GY;0.0;GZ;-1.0;MAGX;18.0;MAGY;-89.0;MAGZ;87.0
MOT;0;1000.0;1;1000.0;2;1000.0;3;1000.0;4;0.0;5;0.0;6;0.0;7;0.0;
RC;ROLL;1497.0;PITCH;1516.0;YAW;1515.0;THROTTLE;1060.0;AUX1;1536.0;AUX2;1500.0;AUX3;1500.0;AUX4;1500.0
ALTITUDE;0.0
DEBUG;DEBUG10.0;DEBUG2;0.0;DEBUG3;0.0;DEBUG4;0.0
ATTITUDE;ANGX;7.0;ANGY;0.0;HEAD;-168.0
STATUS;CYCLETIME;2792;I2CERR;0;PRESENT;23;MODE;0
RAW_IMU;AX;33.0;AY;5.0;AZ;251.0;GX;0.0;GY;0.0;GZ;-1.0;MAGX;18.0;MAGY;-89.0;MAGZ;87.0
MOT;0;1000.0;1;1000.0;2;1000.0;3;1000.0;4;0.0;5;0.0;6;0.0;7;0.0;
RC;ROLL;1497.0;PITCH;1516.0;YAW;1515.0;THROTTLE;1058.0;AUX1;1536.0;AUX2;1500.0;AUX3;1500.0;AUX4;1500.0
ALTITUDE;0.0
DEBUG;DEBUG10.0;DEBUG2;0.0;DEBUG3;0.0;DEBUG4;0.0
ATTITUDE;ANGX;7.0;ANGY;0.0;HEAD;-168.0
STATUS;CYCLETIME;2804;I2CERR;0;PRESENT;23;MODE;0
RAW_IMU;AX;29.0;AY;7.0;AZ;251.0;GX;0.0;GY;0.0;GZ;-1.0;MAGX;17.0;MAGY;-90.0;MAGZ;87.0
MOT;0;1000.0;1;1000.0;2;1000.0;3;1000.0;4;0.0;5;0.0;6;0.0;7;0.0;
RC;ROLL;1497.0;PITCH;1516.0;YAW;1515.0;THROTTLE;1058.0;AUX1;1536.0;AUX2;1500.0;AUX3;1500.0;AUX4;1500.0
ALTITUDE;0.0
DEBUG;DEBUG10.0;DEBUG2;0.0;DEBUG3;0.0;DEBUG4;0.0
ATTITUDE;ANGX;7.0;ANGY;0.0;HEAD;-167.0
STATUS;CYCLETIME;2780;I2CERR;0;PRESENT;23;MODE;0
RAW_IMU;AX;33.0;AY;5.0;AZ;253.0;GX;0.0;GY;0.0;GZ;-1.0;MAGX;17.0;MAGY;-90.0;MAGZ;87.0
MOT;0;1000.0;1;1000.0;2;1000.0;3;1000.0;4;0.0;5;0.0;6;0.0;7;0.0;
RC;ROLL;1495.0;PITCH;1516.0;YAW;1515.0;THROTTLE;1058.0;AUX1;1536.0;AUX2;1500.0;AUX3;1500.0;AUX4;1500.0
ALTITUDE;0.0
DEBUG;DEBUG10.0;DEBUG2;0.0;DEBUG3;0.0;DEBUG4;0.0
ATTITUDE;ANGX;7.0;ANGY;0.0;HEAD;-168.0
STATUS;CYCLETIME;3072;I2CERR;0;PRESENT;23;MODE;0
RAW_IMU;AX;32.0;AY;3.0;AZ;252.0;GX;0.0;GY;0.0;GZ;-1.0;MAGX;18.0;MAGY;-89.0;MAGZ;88.0
MOT;0;1000.0;1;1000.0;2;1000.0;3;1000.0;4;0.0;5;0.0;6;0.0;7;0.0;
RC;ROLL;1495.0;PITCH;1516.0;YAW;1515.0;THROTTLE;1058.0;AUX1;1536.0;AUX2;1500.0;AUX3;1500.0;AUX4;1500.0
ALTITUDE;0.0
DEBUG;DEBUG10.0;DEBUG2;0.0;DEBUG3;0.0;DEBUG4;0.0
ATTITUDE;ANGX;7.0;ANGY;0.0;HEAD;-168.0
STATUS;CYCLETIME;2836;I2CERR;0;PRESENT;23;MODE;0
RAW_IMU;AX;32.0;AY;3.0;AZ;252.0;GX;0.0;GY;0.0;GZ;-1.0;MAGX;18.0;MAGY;-89.0;MAGZ;88.0
MOT;0;1000.0;1;1000.0;2;1000.0;3;1000.0;4;0.0;5;0.0;6;0.0;7;0.0;
RC;ROLL;1495.0;PITCH;1516.0;YAW;1515.0;THROTTLE;1058.0;AUX1;1536.0;AUX2;1500.0;AUX3;1500.0;AUX4;1500.0
ALTITUDE;0.0
DEBUG;DEBUG10.0;DEBUG2;0.0;DEBUG3;0.0;DEBUG4;0.0
ATTITUDE;ANGX;7.0;ANGY;0.0;HEAD;-168.0
STATUS;CYCLETIME;3060;I2CERR;0;PRESENT;23;MODE;0
RAW_IMU;AX;33.0;AY;4.0;AZ;252.0;GX;0.0;GY;0.0;GZ;-1.0;MAGX;17.0;MAGY;-89.0;MAGZ;87.0
MOT;0;1000.0;1;1000.0;2;1000.0;3;1000.0;4;0.0;5;0.0;6;0.0;7;0.0;
RC;ROLL;1495.0;PITCH;1516.0;YAW;1515.0;THROTTLE;1058.0;AUX1;1538.0;AUX2;1500.0;AUX3;1500.0;AUX4;1500.0
ALTITUDE;0.0
DEBUG;DEBUG10.0;DEBUG2;0.0;DEBUG3;0.0;DEBUG4;0.0
ATTITUDE;ANGX;7.0;ANGY;0.0;HEAD;-168.0
STATUS;CYCLETIME;2756;I2CERR;0;PRESENT;23;MODE;0
RAW_IMU;AX;33.0;AY;2.0;AZ;252.0;GX;0.0;GY;0.0;GZ;-1.0;MAGX;17.0;MAGY;-89.0;MAGZ;87.0
MOT;0;1000.0;1;1000.0;2;1000.0;3;1000.0;4;0.0;5;0.0;6;0.0;7;0.0;
RC;ROLL;1495.0;PITCH;1516.0;YAW;1515.0;THROTTLE;1058.0;AUX1;1534.0;AUX2;1500.0;AUX3;1500.0;AUX4;1500.0
ALTITUDE;0.0
DEBUG;DEBUG10.0;DEBUG2;0.0;DEBUG3;0.0;DEBUG4;0.0
ATTITUDE;ANGX;7.0;ANGY;0.0;HEAD;-167.0
STATUS;CYCLETIME;2812;I2CERR;0;PRESENT;23;MODE;0
RAW_IMU;AX;32.0;AY;2.0;AZ;253.0;GX;0.0;GY;0.0;GZ;-1.0;MAGX;18.0;MAGY;-89.0;MAGZ;88.0
MOT;0;1000.0;1;1000.0;2;1000.0;3;1000.0;4;0.0;5;0.0;6;0.0;7;0.0;
RC;ROLL;1495.0;PITCH;1516.0;YAW;1515.0;THROTTLE;1058.0;AUX1;1534.0;AUX2;1500.0;AUX3;1500.0;AUX4;1500.0
ALTITUDE;0.0
DEBUG;DEBUG10.0;DEBUG2;0.0;DEBUG3;0.0;DEBUG4;0.0
ATTITUDE;ANGX;7.0;ANGY;0.0;HEAD;-168.0
STATUS;CYCLETIME;2788;I2CERR;0;PRESENT;23;MODE;0
RAW_IMU;AX;32.0;AY;3.0;AZ;250.0;GX;0.0;GY;0.0;GZ;-1.0;MAGX;18.0;MAGY;-89.0;MAGZ;88.0
MOT;0;1000.0;1;1000.0;2;1000.0;3;1000.0;4;0.0;5;0.0;6;0.0;7;0.0;
RC;ROLL;1495.0;PITCH;1516.0;YAW;1515.0;THROTTLE;1061.0;AUX1;1534.0;AUX2;1500.0;AUX3;1500.0;AUX4;1500.0
ALTITUDE;0.0
DEBUG;DEBUG10.0;DEBUG2;0.0;DEBUG3;0.0;DEBUG4;0.0
ATTITUDE;ANGX;7.0;ANGY;0.0;HEAD;-168.0
STATUS;CYCLETIME;2824;I2CERR;0;PRESENT;23;MODE;0
RAW_IMU;AX;33.0;AY;3.0;AZ;251.0;GX;0.0;GY;0.0;GZ;-1.0;MAGX;18.0;MAGY;-89.0;MAGZ;88.0
MOT;0;1000.0;1;1000.0;2;1000.0;3;1000.0;4;0.0;5;0.0;6;0.0;7;0.0;
RC;ROLL;1497.0;PITCH;1516.0;YAW;1515.0;THROTTLE;1061.0;AUX1;1534.0;AUX2;1500.0;AUX3;1500.0;AUX4;1500.0
ALTITUDE;0.0
DEBUG;DEBUG10.0;DEBUG2;0.0;DEBUG3;0.0;DEBUG4;0.0
ATTITUDE;ANGX;7.0;ANGY;0.0;HEAD;-167.0
STATUS;CYCLETIME;2812;I2CERR;0;PRESENT;23;MODE;0
RAW_IMU;AX;31.0;AY;4.0;AZ;249.0;GX;0.0;GY;0.0;GZ;-1.0;MAGX;18.0;MAGY;-90.0;MAGZ;87.0
MOT;0;1000.0;1;1000.0;2;1000.0;3;1000.0;4;0.0;5;0.0;6;0.0;7;0.0;
RC;ROLL;1497.0;PITCH;1516.0;YAW;1515.0;THROTTLE;1061.0;AUX1;1534.0;AUX2;1500.0;AUX3;1500.0;AUX4;1500.0
ALTITUDE;0.0
DEBUG;DEBUG10.0;DEBUG2;0.0;DEBUG3;0.0;DEBUG4;0.0
ATTITUDE;ANGX;7.0;ANGY;0.0;HEAD;-167.0
STATUS;CYCLETIME;2792;I2CERR;0;PRESENT;23;MODE;0
RAW_IMU;AX;31.0;AY;4.0;AZ;250.0;GX;0.0;GY;0.0;GZ;-1.0;MAGX;18.0;MAGY;-90.0;MAGZ;87.0
MOT;0;1000.0;1;1000.0;2;1000.0;3;1000.0;4;0.0;5;0.0;6;0.0;7;0.0;
RC;ROLL;1497.0;PITCH;1516.0;YAW;1515.0;THROTTLE;1061.0;AUX1;1536.0;AUX2;1500.0;AUX3;1500.0;AUX4;1500.0
ALTITUDE;0.0
DEBUG;DEBUG10.0;DEBUG2;0.0;DEBUG3;0.0;DEBUG4;0.0
ATTITUDE;ANGX;7.0;ANGY;0.0;HEAD;-167.0
STATUS;CYCLETIME;2864;I2CERR;0;PRESENT;23;MODE;0
RAW_IMU;AX;33.0;AY;3.0;AZ;250.0;GX;0.0;GY;0.0;GZ;-1.0;MAGX;17.0;MAGY;-90.0;MAGZ;87.0
MOT;0;1000.0;1;1000.0;2;1000.0;3;1000.0;4;0.0;5;0.0;6;0.0;7;0.0;
RC;ROLL;1497.0;PITCH;1516.0;YAW;1515.0;THROTTLE;1061.0;AUX1;1536.0;AUX2;1500.0;AUX3;1500.0;AUX4;1500.0
ALTITUDE;0.0
DEBUG;DEBUG10.0;DEBUG2;0.0;DEBUG3;0.0;DEBUG4;0.0
ATTITUDE;ANGX;7.0;ANGY;0.0;HEAD;-167.0
STATUS;CYCLETIME;2788;I2CERR;0;PRESENT;23;MODE;0
RAW_IMU;AX;34.0;AY;3.0;AZ;251.0;GX;0.0;GY;0.0;GZ;-1.0;MAGX;17.0;MAGY;-90.0;MAGZ;87.0
MOT;0;1000.0;1;1000.0;2;1000.0;3;1000.0;4;0.0;5;0.0;6;0.0;7;0.0;
RC;ROLL;1497.0;PITCH;1516.0;YAW;1515.0;THROTTLE;1061.0;AUX1;1536.0;AUX2;1500.0;AUX3;1500.0;AUX4;1500.0
ALTITUDE;0.0
DEBUG;DEBUG10.0;DEBUG2;0.0;DEBUG3;0.0;DEBUG4;0.0
ATTITUDE;ANGX;7.0;ANGY;0.0;HEAD;-167.0
STATUS;CYCLETIME;2808;I2CERR;0;PRESENT;23;MODE;0
RAW_IMU;AX;33.0;AY;5.0;AZ;254.0;GX;0.0;GY;0.0;GZ;-1.0;MAGX;17.0;MAGY;-90.0;MAGZ;87.0
MOT;0;1000.0;1;1000.0;2;1000.0;3;1000.0;4;0.0;5;0.0;6;0.0;7;0.0;
RC;ROLL;1497.0;PITCH;1516.0;YAW;1515.0;THROTTLE;1061.0;AUX1;1536.0;AUX2;1500.0;AUX3;1500.0;AUX4;1500.0
ALTITUDE;0.0
DEBUG;DEBUG10.0;DEBUG2;0.0;DEBUG3;0.0;DEBUG4;0.0
ATTITUDE;ANGX;7.0;ANGY;0.0;HEAD;-167.0
STATUS;CYCLETIME;2828;I2CERR;0;PRESENT;23;MODE;0
RAW_IMU;AX;34.0;AY;5.0;AZ;250.0;GX;0.0;GY;0.0;GZ;-1.0;MAGX;17.0;MAGY;-90.0;MAGZ;87.0
MOT;0;1000.0;1;1000.0;2;1000.0;3;1000.0;4;0.0;5;0.0;6;0.0;7;0.0;
RC;ROLL;1497.0;PITCH;1516.0;YAW;1515.0;THROTTLE;1061.0;AUX1;1536.0;AUX2;1500.0;AUX3;1500.0;AUX4;1500.0
ALTITUDE;0.0
DEBUG;DEBUG10.0;DEBUG2;0.0;DEBUG3;0.0;DEBUG4;0.0
ATTITUDE;ANGX;7.0;ANGY;0.0;HEAD;-168.0
STATUS;CYCLETIME;2876;I2CERR;0;PRESENT;23;MODE;0
RAW_IMU;AX;33.0;AY;5.0;AZ;251.0;GX;0.0;GY;0.0;GZ;-1.0;MAGX;18.0;MAGY;-90.0;MAGZ;87.0
MOT;0;1000.0;1;1000.0;2;1000.0;3;1000.0;4;0.0;5;0.0;6;0.0;7;0.0;
RC;ROLL;1494.0;PITCH;1518.0;YAW;1515.0;THROTTLE;1059.0;AUX1;1536.0;AUX2;1500.0;AUX3;1500.0;AUX4;1500.0
ALTITUDE;0.0
DEBUG;DEBUG10.0;DEBUG2;0.0;DEBUG3;0.0;DEBUG4;0.0
ATTITUDE;ANGX;7.0;ANGY;0.0;HEAD;-168.0
STATUS;CYCLETIME;2832;I2CERR;0;PRESENT;23;MODE;0
RAW_IMU;AX;31.0;AY;6.0;AZ;253.0;GX;0.0;GY;0.0;GZ;-1.0;MAGX;18.0;MAGY;-90.0;MAGZ;87.0
MOT;0;1000.0;1;1000.0;2;1000.0;3;1000.0;4;0.0;5;0.0;6;0.0;7;0.0;
RC;ROLL;1494.0;PITCH;1518.0;YAW;1515.0;THROTTLE;1059.0;AUX1;1536.0;AUX2;1500.0;AUX3;1500.0;AUX4;1500.0
ALTITUDE;0.0
DEBUG;DEBUG10.0;DEBUG2;0.0;DEBUG3;0.0;DEBUG4;0.0
ATTITUDE;ANGX;7.0;ANGY;0.0;HEAD;-168.0
STATUS;CYCLETIME;2756;I2CERR;0;PRESENT;23;MODE;0
RAW_IMU;AX;32.0;AY;6.0;AZ;251.0;GX;0.0;GY;0.0;GZ;-1.0;MAGX;19.0;MAGY;-89.0;MAGZ;88.0
MOT;0;1000.0;1;1000.0;2;1000.0;3;1000.0;4;0.0;5;0.0;6;0.0;7;0.0;
RC;ROLL;1494.0;PITCH;1518.0;YAW;1515.0;THROTTLE;1059.0;AUX1;1536.0;AUX2;1500.0;AUX3;1500.0;AUX4;1500.0
ALTITUDE;0.0
DEBUG;DEBUG10.0;DEBUG2;0.0;DEBUG3;0.0;DEBUG4;0.0
ATTITUDE;ANGX;7.0;ANGY;0.0;HEAD;-168.0
STATUS;CYCLETIME;2756;I2CERR;0;PRESENT;23;MODE;0
RAW_IMU;AX;31.0;AY;4.0;AZ;252.0;GX;0.0;GY;0.0;GZ;-2.0;MAGX;19.0;MAGY;-89.0;MAGZ;88.0
MOT;0;1000.0;1;1000.0;2;1000.0;3;1000.0;4;0.0;5;0.0;6;0.0;7;0.0;
RC;ROLL;1494.0;PITCH;1518.0;YAW;1515.0;THROTTLE;1059.0;AUX1;1536.0;AUX2;1500.0;AUX3;1500.0;AUX4;1500.0
ALTITUDE;0.0
DEBUG;DEBUG10.0;DEBUG2;0.0;DEBUG3;0.0;DEBUG4;0.0
ATTITUDE;ANGX;7.0;ANGY;0.0;HEAD;-168.0
STATUS;CYCLETIME;2960;I2CERR;0;PRESENT;23;MODE;0
RAW_IMU;AX;31.0;AY;5.0;AZ;252.0;GX;0.0;GY;0.0;GZ;-1.0;MAGX;17.0;MAGY;-90.0;MAGZ;87.0
MOT;0;1000.0;1;1000.0;2;1000.0;3;1000.0;4;0.0;5;0.0;6;0.0;7;0.0;
RC;ROLL;1494.0;PITCH;1518.0;YAW;1515.0;THROTTLE;1059.0;AUX1;1536.0;AUX2;1500.0;AUX3;1500.0;AUX4;1500.0
ALTITUDE;0.0
DEBUG;DEBUG10.0;DEBUG2;0.0;DEBUG3;0.0;DEBUG4;0.0
ATTITUDE;ANGX;7.0;ANGY;0.0;HEAD;-168.0
STATUS;CYCLETIME;2760;I2CERR;0;PRESENT;23;MODE;0
RAW_IMU;AX;29.0;AY;5.0;AZ;254.0;GX;0.0;GY;0.0;GZ;-1.0;MAGX;17.0;MAGY;-90.0;MAGZ;87.0
MOT;0;1000.0;1;1000.0;2;1000.0;3;1000.0;4;0.0;5;0.0;6;0.0;7;0.0;
RC;ROLL;1494.0;PITCH;1518.0;YAW;1515.0;THROTTLE;1059.0;AUX1;1536.0;AUX2;1500.0;AUX3;1500.0;AUX4;1500.0
ALTITUDE;0.0
DEBUG;DEBUG10.0;DEBUG2;0.0;DEBUG3;0.0;DEBUG4;0.0
ATTITUDE;ANGX;7.0;ANGY;0.0;HEAD;-168.0
STATUS;CYCLETIME;2828;I2CERR;0;PRESENT;23;MODE;0
RAW_IMU;AX;31.0;AY;4.0;AZ;252.0;GX;0.0;GY;0.0;GZ;-1.0;MAGX;18.0;MAGY;-89.0;MAGZ;86.0
MOT;0;1000.0;1;1000.0;2;1000.0;3;1000.0;4;0.0;5;0.0;6;0.0;7;0.0;
RC;ROLL;1494.0;PITCH;1518.0;YAW;1515.0;THROTTLE;1059.0;AUX1;1536.0;AUX2;1500.0;AUX3;1500.0;AUX4;1500.0
ALTITUDE;0.0
DEBUG;DEBUG10.0;DEBUG2;0.0;DEBUG3;0.0;DEBUG4;0.0
ATTITUDE;ANGX;7.0;ANGY;0.0;HEAD;-168.0
STATUS;CYCLETIME;2856;I2CERR;0;PRESENT;23;MODE;0
RAW_IMU;AX;29.0;AY;5.0;AZ;251.0;GX;0.0;GY;0.0;GZ;-1.0;MAGX;18.0;MAGY;-89.0;MAGZ;86.0
MOT;0;1000.0;1;1000.0;2;1000.0;3;1000.0;4;0.0;5;0.0;6;0.0;7;0.0;
RC;ROLL;1494.0;PITCH;1518.0;YAW;1515.0;THROTTLE;1059.0;AUX1;1536.0;AUX2;1500.0;AUX3;1500.0;AUX4;1500.0
ALTITUDE;0.0
DEBUG;DEBUG10.0;DEBUG2;0.0;DEBUG3;0.0;DEBUG4;0.0
ATTITUDE;ANGX;7.0;ANGY;0.0;HEAD;-168.0
STATUS;CYCLETIME;2816;I2CERR;0;PRESENT;23;MODE;0
RAW_IMU;AX;29.0;AY;3.0;AZ;251.0;GX;0.0;GY;0.0;GZ;-1.0;MAGX;18.0;MAGY;-89.0;MAGZ;86.0
MOT;0;1000.0;1;1000.0;2;1000.0;3;1000.0;4;0.0;5;0.0;6;0.0;7;0.0;
RC;ROLL;1494.0;PITCH;1516.0;YAW;1515.0;THROTTLE;1059.0;AUX1;1536.0;AUX2;1500.0;AUX3;1500.0;AUX4;1500.0
ALTITUDE;0.0
DEBUG;DEBUG10.0;DEBUG2;0.0;DEBUG3;0.0;DEBUG4;0.0
ATTITUDE;ANGX;7.0;ANGY;0.0;HEAD;-168.0
STATUS;CYCLETIME;2752;I2CERR;0;PRESENT;23;MODE;0
RAW_IMU;AX;31.0;AY;2.0;AZ;249.0;GX;0.0;GY;0.0;GZ;-1.0;MAGX;18.0;MAGY;-89.0;MAGZ;86.0
MOT;0;1000.0;1;1000.0;2;1000.0;3;1000.0;4;0.0;5;0.0;6;0.0;7;0.0;
RC;ROLL;1494.0;PITCH;1516.0;YAW;1515.0;THROTTLE;1059.0;AUX1;1536.0;AUX2;1500.0;AUX3;1500.0;AUX4;1500.0
ALTITUDE;0.0
DEBUG;DEBUG10.0;DEBUG2;0.0;DEBUG3;0.0;DEBUG4;0.0
ATTITUDE;ANGX;7.0;ANGY;0.0;HEAD;-168.0
STATUS;CYCLETIME;2896;I2CERR;0;PRESENT;23;MODE;0
RAW_IMU;AX;32.0;AY;4.0;AZ;251.0;GX;0.0;GY;0.0;GZ;-2.0;MAGX;17.0;MAGY;-91.0;MAGZ;88.0
MOT;0;1000.0;1;1000.0;2;1000.0;3;1000.0;4;0.0;5;0.0;6;0.0;7;0.0;
RC;ROLL;1496.0;PITCH;1516.0;YAW;1515.0;THROTTLE;1059.0;AUX1;1536.0;AUX2;1500.0;AUX3;1500.0;AUX4;1500.0
ALTITUDE;0.0
DEBUG;DEBUG10.0;DEBUG2;0.0;DEBUG3;0.0;DEBUG4;0.0
ATTITUDE;ANGX;7.0;ANGY;0.0;HEAD;-168.0
STATUS;CYCLETIME;2808;I2CERR;0;PRESENT;23;MODE;0
RAW_IMU;AX;31.0;AY;6.0;AZ;254.0;GX;0.0;GY;0.0;GZ;-1.0;MAGX;17.0;MAGY;-91.0;MAGZ;88.0
MOT;0;1000.0;1;1000.0;2;1000.0;3;1000.0;4;0.0;5;0.0;6;0.0;7;0.0;
RC;ROLL;1496.0;PITCH;1516.0;YAW;1513.0;THROTTLE;1059.0;AUX1;1538.0;AUX2;1500.0;AUX3;1500.0;AUX4;1500.0
ALTITUDE;0.0
DEBUG;DEBUG10.0;DEBUG2;0.0;DEBUG3;0.0;DEBUG4;0.0
ATTITUDE;ANGX;7.0;ANGY;0.0;HEAD;-168.0
STATUS;CYCLETIME;2848;I2CERR;0;PRESENT;23;MODE;0
RAW_IMU;AX;31.0;AY;3.0;AZ;253.0;GX;0.0;GY;0.0;GZ;-1.0;MAGX;18.0;MAGY;-90.0;MAGZ;88.0
MOT;0;1000.0;1;1000.0;2;1000.0;3;1000.0;4;0.0;5;0.0;6;0.0;7;0.0;
RC;ROLL;1496.0;PITCH;1516.0;YAW;1513.0;THROTTLE;1059.0;AUX1;1538.0;AUX2;1500.0;AUX3;1500.0;AUX4;1500.0
ALTITUDE;0.0
DEBUG;DEBUG10.0;DEBUG2;0.0;DEBUG3;0.0;DEBUG4;0.0
ATTITUDE;ANGX;7.0;ANGY;0.0;HEAD;-168.0
STATUS;CYCLETIME;2872;I2CERR;0;PRESENT;23;MODE;0
RAW_IMU;AX;35.0;AY;3.0;AZ;253.0;GX;0.0;GY;0.0;GZ;-1.0;MAGX;18.0;MAGY;-90.0;MAGZ;88.0
MOT;0;1000.0;1;1000.0;2;1000.0;3;1000.0;4;0.0;5;0.0;6;0.0;7;0.0;
RC;ROLL;1496.0;PITCH;1516.0;YAW;1513.0;THROTTLE;1059.0;AUX1;1538.0;AUX2;1500.0;AUX3;1500.0;AUX4;1500.0
ALTITUDE;0.0
DEBUG;DEBUG10.0;DEBUG2;0.0;DEBUG3;0.0;DEBUG4;0.0
ATTITUDE;ANGX;7.0;ANGY;0.0;HEAD;-168.0
STATUS;CYCLETIME;2792;I2CERR;0;PRESENT;23;MODE;0
RAW_IMU;AX;34.0;AY;3.0;AZ;256.0;GX;0.0;GY;0.0;GZ;-1.0;MAGX;18.0;MAGY;-90.0;MAGZ;88.0
MOT;0;1000.0;1;1000.0;2;1000.0;3;1000.0;4;0.0;5;0.0;6;0.0;7;0.0;
RC;ROLL;1496.0;PITCH;1516.0;YAW;1513.0;THROTTLE;1059.0;AUX1;1538.0;AUX2;1500.0;AUX3;1500.0;AUX4;1500.0
ALTITUDE;0.0
DEBUG;DEBUG10.0;DEBUG2;0.0;DEBUG3;0.0;DEBUG4;0.0
ATTITUDE;ANGX;7.0;ANGY;0.0;HEAD;-168.0
STATUS;CYCLETIME;2788;I2CERR;0;PRESENT;23;MODE;0
RAW_IMU;AX;33.0;AY;3.0;AZ;253.0;GX;0.0;GY;0.0;GZ;-1.0;MAGX;18.0;MAGY;-90.0;MAGZ;86.0
MOT;0;1000.0;1;1000.0;2;1000.0;3;1000.0;4;0.0;5;0.0;6;0.0;7;0.0;
RC;ROLL;1496.0;PITCH;1516.0;YAW;1515.0;THROTTLE;1059.0;AUX1;1538.0;AUX2;1500.0;AUX3;1500.0;AUX4;1500.0
ALTITUDE;0.0
DEBUG;DEBUG10.0;DEBUG2;0.0;DEBUG3;0.0;DEBUG4;0.0
ATTITUDE;ANGX;7.0;ANGY;0.0;HEAD;-168.0
STATUS;CYCLETIME;2844;I2CERR;0;PRESENT;23;MODE;0
RAW_IMU;AX;30.0;AY;3.0;AZ;252.0;GX;0.0;GY;0.0;GZ;-2.0;MAGX;18.0;MAGY;-90.0;MAGZ;86.0
MOT;0;1000.0;1;1000.0;2;1000.0;3;1000.0;4;0.0;5;0.0;6;0.0;7;0.0;
RC;ROLL;1496.0;PITCH;1516.0;YAW;1515.0;THROTTLE;1059.0;AUX1;1538.0;AUX2;1500.0;AUX3;1500.0;AUX4;1500.0
ALTITUDE;0.0
DEBUG;DEBUG10.0;DEBUG2;0.0;DEBUG3;0.0;DEBUG4;0.0
ATTITUDE;ANGX;7.0;ANGY;0.0;HEAD;-168.0
STATUS;CYCLETIME;2936;I2CERR;0;PRESENT;23;MODE;0
RAW_IMU;AX;30.0;AY;4.0;AZ;253.0;GX;0.0;GY;0.0;GZ;-1.0;MAGX;17.0;MAGY;-90.0;MAGZ;87.0
MOT;0;1000.0;1;1000.0;2;1000.0;3;1000.0;4;0.0;5;0.0;6;0.0;7;0.0;
RC;ROLL;1498.0;PITCH;1516.0;YAW;1515.0;THROTTLE;1059.0;AUX1;1532.0;AUX2;1500.0;AUX3;1500.0;AUX4;1500.0
ALTITUDE;0.0
DEBUG;DEBUG10.0;DEBUG2;0.0;DEBUG3;0.0;DEBUG4;0.0
ATTITUDE;ANGX;7.0;ANGY;0.0;HEAD;-168.0
STATUS;CYCLETIME;2812;I2CERR;0;PRESENT;23;MODE;0
RAW_IMU;AX;30.0;AY;4.0;AZ;253.0;GX;0.0;GY;0.0;GZ;-2.0;MAGX;17.0;MAGY;-90.0;MAGZ;87.0
MOT;0;1000.0;1;1000.0;2;1000.0;3;1000.0;4;0.0;5;0.0;6;0.0;7;0.0;
RC;ROLL;1498.0;PITCH;1516.0;YAW;1515.0;THROTTLE;1059.0;AUX1;1532.0;AUX2;1500.0;AUX3;1500.0;AUX4;1500.0
ALTITUDE;0.0
DEBUG;DEBUG10.0;DEBUG2;0.0;DEBUG3;0.0;DEBUG4;0.0
ATTITUDE;ANGX;7.0;ANGY;0.0;HEAD;-168.0
STATUS;CYCLETIME;2828;I2CERR;0;PRESENT;23;MODE;0
RAW_IMU;AX;30.0;AY;2.0;AZ;253.0;GX;0.0;GY;0.0;GZ;-1.0;MAGX;18.0;MAGY;-90.0;MAGZ;87.0
MOT;0;1000.0;1;1000.0;2;1000.0;3;1000.0;4;0.0;5;0.0;6;0.0;7;0.0;
RC;ROLL;1498.0;PITCH;1516.0;YAW;1515.0;THROTTLE;1059.0;AUX1;1534.0;AUX2;1500.0;AUX3;1500.0;AUX4;1500.0
ALTITUDE;0.0
DEBUG;DEBUG10.0;DEBUG2;0.0;DEBUG3;0.0;DEBUG4;0.0
ATTITUDE;ANGX;7.0;ANGY;0.0;HEAD;-168.0
STATUS;CYCLETIME;2860;I2CERR;0;PRESENT;23;MODE;0
RAW_IMU;AX;31.0;AY;3.0;AZ;252.0;GX;0.0;GY;0.0;GZ;-1.0;MAGX;18.0;MAGY;-90.0;MAGZ;87.0
MOT;0;1000.0;1;1000.0;2;1000.0;3;1000.0;4;0.0;5;0.0;6;0.0;7;0.0;
RC;ROLL;1498.0;PITCH;1516.0;YAW;1515.0;THROTTLE;1062.0;AUX1;1536.0;AUX2;1500.0;AUX3;1500.0;AUX4;1500.0
ALTITUDE;0.0
DEBUG;DEBUG10.0;DEBUG2;0.0;DEBUG3;0.0;DEBUG4;0.0
ATTITUDE;ANGX;7.0;ANGY;0.0;HEAD;-167.0
STATUS;CYCLETIME;2812;I2CERR;0;PRESENT;23;MODE;0
RAW_IMU;AX;34.0;AY;3.0;AZ;252.0;GX;0.0;GY;0.0;GZ;-1.0;MAGX;17.0;MAGY;-90.0;MAGZ;87.0
MOT;0;1000.0;1;1000.0;2;1000.0;3;1000.0;4;0.0;5;0.0;6;0.0;7;0.0;
RC;ROLL;1498.0;PITCH;1516.0;YAW;1515.0;THROTTLE;1062.0;AUX1;1536.0;AUX2;1500.0;AUX3;1500.0;AUX4;1500.0
ALTITUDE;0.0
DEBUG;DEBUG10.0;DEBUG2;0.0;DEBUG3;0.0;DEBUG4;0.0
ATTITUDE;ANGX;7.0;ANGY;0.0;HEAD;-168.0
STATUS;CYCLETIME;2808;I2CERR;0;PRESENT;23;MODE;0
RAW_IMU;AX;34.0;AY;2.0;AZ;252.0;GX;0.0;GY;0.0;GZ;-1.0;MAGX;17.0;MAGY;-90.0;MAGZ;87.0
MOT;0;1000.0;1;1000.0;2;1000.0;3;1000.0;4;0.0;5;0.0;6;0.0;7;0.0;
RC;ROLL;1496.0;PITCH;1516.0;YAW;1515.0;THROTTLE;1059.0;AUX1;1536.0;AUX2;1500.0;AUX3;1500.0;AUX4;1500.0
ALTITUDE;0.0
DEBUG;DEBUG10.0;DEBUG2;0.0;DEBUG3;0.0;DEBUG4;0.0
ATTITUDE;ANGX;7.0;ANGY;0.0;HEAD;-168.0
STATUS;CYCLETIME;2764;I2CERR;0;PRESENT;23;MODE;0
RAW_IMU;AX;29.0;AY;3.0;AZ;252.0;GX;0.0;GY;0.0;GZ;-1.0;MAGX;17.0;MAGY;-90.0;MAGZ;88.0
MOT;0;1000.0;1;1000.0;2;1000.0;3;1000.0;4;0.0;5;0.0;6;0.0;7;0.0;
RC;ROLL;1496.0;PITCH;1516.0;YAW;1515.0;THROTTLE;1059.0;AUX1;1536.0;AUX2;1500.0;AUX3;1500.0;AUX4;1500.0
ALTITUDE;0.0
DEBUG;DEBUG10.0;DEBUG2;0.0;DEBUG3;0.0;DEBUG4;0.0
ATTITUDE;ANGX;7.0;ANGY;0.0;HEAD;-168.0
STATUS;CYCLETIME;2796;I2CERR;0;PRESENT;23;MODE;0
RAW_IMU;AX;28.0;AY;2.0;AZ;250.0;GX;0.0;GY;0.0;GZ;-1.0;MAGX;17.0;MAGY;-90.0;MAGZ;88.0
MOT;0;1000.0;1;1000.0;2;1000.0;3;1000.0;4;0.0;5;0.0;6;0.0;7;0.0;
RC;ROLL;1496.0;PITCH;1516.0;YAW;1515.0;THROTTLE;1059.0;AUX1;1536.0;AUX2;1500.0;AUX3;1500.0;AUX4;1500.0
ALTITUDE;0.0
DEBUG;DEBUG10.0;DEBUG2;0.0;DEBUG3;0.0;DEBUG4;0.0
ATTITUDE;ANGX;7.0;ANGY;0.0;HEAD;-168.0
STATUS;CYCLETIME;2764;I2CERR;0;PRESENT;23;MODE;0
RAW_IMU;AX;32.0;AY;1.0;AZ;250.0;GX;0.0;GY;0.0;GZ;-1.0;MAGX;17.0;MAGY;-90.0;MAGZ;88.0
MOT;0;1000.0;1;1000.0;2;1000.0;3;1000.0;4;0.0;5;0.0;6;0.0;7;0.0;
RC;ROLL;1496.0;PITCH;1516.0;YAW;1513.0;THROTTLE;1061.0;AUX1;1536.0;AUX2;1500.0;AUX3;1500.0;AUX4;1500.0
ALTITUDE;0.0
DEBUG;DEBUG10.0;DEBUG2;0.0;DEBUG3;0.0;DEBUG4;0.0
ATTITUDE;ANGX;7.0;ANGY;0.0;HEAD;-168.0
STATUS;CYCLETIME;2904;I2CERR;0;PRESENT;23;MODE;0
RAW_IMU;AX;33.0;AY;2.0;AZ;251.0;GX;0.0;GY;0.0;GZ;-1.0;MAGX;17.0;MAGY;-90.0;MAGZ;88.0
MOT;0;1000.0;1;1000.0;2;1000.0;3;1000.0;4;0.0;5;0.0;6;0.0;7;0.0;
RC;ROLL;1496.0;PITCH;1516.0;YAW;1511.0;THROTTLE;1061.0;AUX1;1536.0;AUX2;1500.0;AUX3;1500.0;AUX4;1500.0
ALTITUDE;0.0
DEBUG;DEBUG10.0;DEBUG2;0.0;DEBUG3;0.0;DEBUG4;0.0
ATTITUDE;ANGX;7.0;ANGY;0.0;HEAD;-168.0
STATUS;CYCLETIME;2828;I2CERR;0;PRESENT;23;MODE;0
RAW_IMU;AX;31.0;AY;3.0;AZ;252.0;GX;0.0;GY;0.0;GZ;-1.0;MAGX;18.0;MAGY;-90.0;MAGZ;87.0
MOT;0;1000.0;1;1000.0;2;1000.0;3;1000.0;4;0.0;5;0.0;6;0.0;7;0.0;
RC;ROLL;1496.0;PITCH;1516.0;YAW;1511.0;THROTTLE;1059.0;AUX1;1536.0;AUX2;1500.0;AUX3;1500.0;AUX4;1500.0
ALTITUDE;0.0
DEBUG;DEBUG10.0;DEBUG2;0.0;DEBUG3;0.0;DEBUG4;0.0
ATTITUDE;ANGX;7.0;ANGY;0.0;HEAD;-168.0
STATUS;CYCLETIME;2796;I2CERR;0;PRESENT;23;MODE;0
RAW_IMU;AX;32.0;AY;2.0;AZ;252.0;GX;0.0;GY;0.0;GZ;-1.0;MAGX;18.0;MAGY;-90.0;MAGZ;87.0
MOT;0;1000.0;1;1000.0;2;1000.0;3;1000.0;4;0.0;5;0.0;6;0.0;7;0.0;
RC;ROLL;1496.0;PITCH;1516.0;YAW;1511.0;THROTTLE;1059.0;AUX1;1536.0;AUX2;1500.0;AUX3;1500.0;AUX4;1500.0
ALTITUDE;0.0
DEBUG;DEBUG10.0;DEBUG2;0.0;DEBUG3;0.0;DEBUG4;0.0
ATTITUDE;ANGX;7.0;ANGY;0.0;HEAD;-168.0
STATUS;CYCLETIME;2892;I2CERR;0;PRESENT;23;MODE;0
RAW_IMU;AX;31.0;AY;4.0;AZ;252.0;GX;0.0;GY;0.0;GZ;-1.0;MAGX;17.0;MAGY;-90.0;MAGZ;87.0
MOT;0;1000.0;1;1000.0;2;1000.0;3;1000.0;4;0.0;5;0.0;6;0.0;7;0.0;
RC;ROLL;1496.0;PITCH;1516.0;YAW;1513.0;THROTTLE;1059.0;AUX1;1536.0;AUX2;1500.0;AUX3;1500.0;AUX4;1500.0
ALTITUDE;0.0
DEBUG;DEBUG10.0;DEBUG2;0.0;DEBUG3;0.0;DEBUG4;0.0
ATTITUDE;ANGX;7.0;ANGY;0.0;HEAD;-168.0
STATUS;CYCLETIME;2824;I2CERR;0;PRESENT;23;MODE;0
RAW_IMU;AX;31.0;AY;3.0;AZ;251.0;GX;0.0;GY;0.0;GZ;-1.0;MAGX;17.0;MAGY;-90.0;MAGZ;87.0
MOT;0;1000.0;1;1000.0;2;1000.0;3;1000.0;4;0.0;5;0.0;6;0.0;7;0.0;
RC;ROLL;1496.0;PITCH;1516.0;YAW;1513.0;THROTTLE;1059.0;AUX1;1536.0;AUX2;1500.0;AUX3;1500.0;AUX4;1500.0
ALTITUDE;0.0
DEBUG;DEBUG10.0;DEBUG2;0.0;DEBUG3;0.0;DEBUG4;0.0
ATTITUDE;ANGX;7.0;ANGY;0.0;HEAD;-168.0
STATUS;CYCLETIME;2776;I2CERR;0;PRESENT;23;MODE;0
RAW_IMU;AX;34.0;AY;6.0;AZ;250.0;GX;0.0;GY;0.0;GZ;-1.0;MAGX;17.0;MAGY;-89.0;MAGZ;87.0
MOT;0;1000.0;1;1000.0;2;1000.0;3;1000.0;4;0.0;5;0.0;6;0.0;7;0.0;
RC;ROLL;1496.0;PITCH;1516.0;YAW;1513.0;THROTTLE;1059.0;AUX1;1536.0;AUX2;1500.0;AUX3;1500.0;AUX4;1500.0
ALTITUDE;0.0
DEBUG;DEBUG10.0;DEBUG2;0.0;DEBUG3;0.0;DEBUG4;0.0
ATTITUDE;ANGX;7.0;ANGY;0.0;HEAD;-168.0
STATUS;CYCLETIME;2752;I2CERR;0;PRESENT;23;MODE;0
RAW_IMU;AX;32.0;AY;6.0;AZ;251.0;GX;0.0;GY;0.0;GZ;-1.0;MAGX;17.0;MAGY;-89.0;MAGZ;87.0
MOT;0;1000.0;1;1000.0;2;1000.0;3;1000.0;4;0.0;5;0.0;6;0.0;7;0.0;
RC;ROLL;1496.0;PITCH;1516.0;YAW;1513.0;THROTTLE;1063.0;AUX1;1536.0;AUX2;1500.0;AUX3;1500.0;AUX4;1500.0
ALTITUDE;0.0
DEBUG;DEBUG10.0;DEBUG2;0.0;DEBUG3;0.0;DEBUG4;0.0
ATTITUDE;ANGX;7.0;ANGY;0.0;HEAD;-168.0
STATUS;CYCLETIME;2792;I2CERR;0;PRESENT;23;MODE;0
RAW_IMU;AX;30.0;AY;5.0;AZ;252.0;GX;0.0;GY;0.0;GZ;-1.0;MAGX;17.0;MAGY;-90.0;MAGZ;87.0
MOT;0;1000.0;1;1000.0;2;1000.0;3;1000.0;4;0.0;5;0.0;6;0.0;7;0.0;
RC;ROLL;1496.0;PITCH;1516.0;YAW;1513.0;THROTTLE;1071.0;AUX1;1536.0;AUX2;1500.0;AUX3;1500.0;AUX4;1500.0
ALTITUDE;0.0
DEBUG;DEBUG10.0;DEBUG2;0.0;DEBUG3;0.0;DEBUG4;0.0
ATTITUDE;ANGX;7.0;ANGY;0.0;HEAD;-168.0
STATUS;CYCLETIME;2752;I2CERR;0;PRESENT;23;MODE;0
RAW_IMU;AX;33.0;AY;4.0;AZ;250.0;GX;0.0;GY;0.0;GZ;-1.0;MAGX;17.0;MAGY;-90.0;MAGZ;87.0
MOT;0;1000.0;1;1000.0;2;1000.0;3;1000.0;4;0.0;5;0.0;6;0.0;7;0.0;
RC;ROLL;1496.0;PITCH;1516.0;YAW;1513.0;THROTTLE;1084.0;AUX1;1536.0;AUX2;1500.0;AUX3;1500.0;AUX4;1500.0
ALTITUDE;0.0
DEBUG;DEBUG10.0;DEBUG2;0.0;DEBUG3;0.0;DEBUG4;0.0
ATTITUDE;ANGX;7.0;ANGY;0.0;HEAD;-168.0
STATUS;CYCLETIME;2908;I2CERR;0;PRESENT;23;MODE;0
RAW_IMU;AX;33.0;AY;3.0;AZ;250.0;GX;0.0;GY;0.0;GZ;-2.0;MAGX;17.0;MAGY;-90.0;MAGZ;87.0
MOT;0;1000.0;1;1000.0;2;1000.0;3;1000.0;4;0.0;5;0.0;6;0.0;7;0.0;
RC;ROLL;1496.0;PITCH;1516.0;YAW;1513.0;THROTTLE;1092.0;AUX1;1536.0;AUX2;1500.0;AUX3;1500.0;AUX4;1500.0
ALTITUDE;0.0
DEBUG;DEBUG10.0;DEBUG2;0.0;DEBUG3;0.0;DEBUG4;0.0
ATTITUDE;ANGX;7.0;ANGY;0.0;HEAD;-168.0
STATUS;CYCLETIME;2816;I2CERR;0;PRESENT;23;MODE;0
RAW_IMU;AX;36.0;AY;3.0;AZ;252.0;GX;0.0;GY;0.0;GZ;-1.0;MAGX;17.0;MAGY;-90.0;MAGZ;87.0
MOT;0;1000.0;1;1000.0;2;1000.0;3;1000.0;4;0.0;5;0.0;6;0.0;7;0.0;
RC;ROLL;1496.0;PITCH;1516.0;YAW;1513.0;THROTTLE;1092.0;AUX1;1536.0;AUX2;1500.0;AUX3;1500.0;AUX4;1500.0
ALTITUDE;0.0
DEBUG;DEBUG10.0;DEBUG2;0.0;DEBUG3;0.0;DEBUG4;0.0
ATTITUDE;ANGX;7.0;ANGY;0.0;HEAD;-168.0
STATUS;CYCLETIME;3068;I2CERR;0;PRESENT;23;MODE;0
RAW_IMU;AX;33.0;AY;3.0;AZ;251.0;GX;0.0;GY;0.0;GZ;-1.0;MAGX;18.0;MAGY;-89.0;MAGZ;87.0
MOT;0;1000.0;1;1000.0;2;1000.0;3;1000.0;4;0.0;5;0.0;6;0.0;7;0.0;
RC;ROLL;1496.0;PITCH;1516.0;YAW;1513.0;THROTTLE;1092.0;AUX1;1536.0;AUX2;1500.0;AUX3;1500.0;AUX4;1500.0
ALTITUDE;0.0
DEBUG;DEBUG10.0;DEBUG2;0.0;DEBUG3;0.0;DEBUG4;0.0
ATTITUDE;ANGX;7.0;ANGY;0.0;HEAD;-168.0
STATUS;CYCLETIME;2748;I2CERR;0;PRESENT;23;MODE;0
RAW_IMU;AX;34.0;AY;5.0;AZ;252.0;GX;0.0;GY;0.0;GZ;-1.0;MAGX;18.0;MAGY;-89.0;MAGZ;87.0
MOT;0;1000.0;1;1000.0;2;1000.0;3;1000.0;4;0.0;5;0.0;6;0.0;7;0.0;
RC;ROLL;1496.0;PITCH;1516.0;YAW;1513.0;THROTTLE;1092.0;AUX1;1536.0;AUX2;1500.0;AUX3;1500.0;AUX4;1500.0
ALTITUDE;0.0
DEBUG;DEBUG10.0;DEBUG2;0.0;DEBUG3;0.0;DEBUG4;0.0
ATTITUDE;ANGX;7.0;ANGY;0.0;HEAD;-168.0
STATUS;CYCLETIME;2792;I2CERR;0;PRESENT;23;MODE;0
RAW_IMU;AX;31.0;AY;4.0;AZ;252.0;GX;0.0;GY;0.0;GZ;-1.0;MAGX;17.0;MAGY;-90.0;MAGZ;87.0
MOT;0;1000.0;1;1000.0;2;1000.0;3;1000.0;4;0.0;5;0.0;6;0.0;7;0.0;
RC;ROLL;1496.0;PITCH;1516.0;YAW;1513.0;THROTTLE;1092.0;AUX1;1536.0;AUX2;1500.0;AUX3;1500.0;AUX4;1500.0
ALTITUDE;0.0
DEBUG;DEBUG10.0;DEBUG2;0.0;DEBUG3;0.0;DEBUG4;0.0
ATTITUDE;ANGX;7.0;ANGY;0.0;HEAD;-168.0
STATUS;CYCLETIME;2816;I2CERR;0;PRESENT;23;MODE;0
RAW_IMU;AX;33.0;AY;3.0;AZ;253.0;GX;0.0;GY;0.0;GZ;-1.0;MAGX;17.0;MAGY;-90.0;MAGZ;87.0
MOT;0;1000.0;1;1000.0;2;1000.0;3;1000.0;4;0.0;5;0.0;6;0.0;7;0.0;
RC;ROLL;1496.0;PITCH;1516.0;YAW;1513.0;THROTTLE;1090.0;AUX1;1536.0;AUX2;1500.0;AUX3;1500.0;AUX4;1500.0
ALTITUDE;0.0
DEBUG;DEBUG10.0;DEBUG2;0.0;DEBUG3;0.0;DEBUG4;0.0
ATTITUDE;ANGX;7.0;ANGY;0.0;HEAD;-168.0
STATUS;CYCLETIME;2940;I2CERR;0;PRESENT;23;MODE;0
RAW_IMU;AX;31.0;AY;4.0;AZ;253.0;GX;0.0;GY;0.0;GZ;-1.0;MAGX;17.0;MAGY;-90.0;MAGZ;87.0
MOT;0;1000.0;1;1000.0;2;1000.0;3;1000.0;4;0.0;5;0.0;6;0.0;7;0.0;
RC;ROLL;1496.0;PITCH;1518.0;YAW;1513.0;THROTTLE;1088.0;AUX1;1536.0;AUX2;1500.0;AUX3;1500.0;AUX4;1500.0
ALTITUDE;0.0
DEBUG;DEBUG10.0;DEBUG2;0.0;DEBUG3;0.0;DEBUG4;0.0
ATTITUDE;ANGX;7.0;ANGY;0.0;HEAD;-168.0
STATUS;CYCLETIME;2804;I2CERR;0;PRESENT;23;MODE;0
RAW_IMU;AX;31.0;AY;3.0;AZ;252.0;GX;0.0;GY;0.0;GZ;-1.0;MAGX;16.0;MAGY;-90.0;MAGZ;87.0
MOT;0;1000.0;1;1000.0;2;1000.0;3;1000.0;4;0.0;5;0.0;6;0.0;7;0.0;
RC;ROLL;1496.0;PITCH;1518.0;YAW;1511.0;THROTTLE;1088.0;AUX1;1536.0;AUX2;1500.0;AUX3;1500.0;AUX4;1500.0
ALTITUDE;0.0
DEBUG;DEBUG10.0;DEBUG2;0.0;DEBUG3;0.0;DEBUG4;0.0
ATTITUDE;ANGX;7.0;ANGY;0.0;HEAD;-168.0
STATUS;CYCLETIME;2784;I2CERR;0;PRESENT;23;MODE;0
RAW_IMU;AX;33.0;AY;4.0;AZ;252.0;GX;0.0;GY;0.0;GZ;-1.0;MAGX;16.0;MAGY;-90.0;MAGZ;87.0
MOT;0;1000.0;1;1000.0;2;1000.0;3;1000.0;4;0.0;5;0.0;6;0.0;7;0.0;
RC;ROLL;1496.0;PITCH;1518.0;YAW;1511.0;THROTTLE;1088.0;AUX1;1536.0;AUX2;1500.0;AUX3;1500.0;AUX4;1500.0
ALTITUDE;0.0
DEBUG;DEBUG10.0;DEBUG2;0.0;DEBUG3;0.0;DEBUG4;0.0
ATTITUDE;ANGX;7.0;ANGY;0.0;HEAD;-168.0
STATUS;CYCLETIME;2804;I2CERR;0;PRESENT;23;MODE;0
RAW_IMU;AX;32.0;AY;4.0;AZ;251.0;GX;0.0;GY;0.0;GZ;-1.0;MAGX;18.0;MAGY;-89.0;MAGZ;88.0
MOT;0;1000.0;1;1000.0;2;1000.0;3;1000.0;4;0.0;5;0.0;6;0.0;7;0.0;
RC;ROLL;1496.0;PITCH;1518.0;YAW;1511.0;THROTTLE;1088.0;AUX1;1536.0;AUX2;1500.0;AUX3;1500.0;AUX4;1500.0
ALTITUDE;0.0
DEBUG;DEBUG10.0;DEBUG2;0.0;DEBUG3;0.0;DEBUG4;0.0
ATTITUDE;ANGX;7.0;ANGY;0.0;HEAD;-168.0
STATUS;CYCLETIME;2832;I2CERR;0;PRESENT;23;MODE;0
RAW_IMU;AX;31.0;AY;4.0;AZ;252.0;GX;0.0;GY;0.0;GZ;-1.0;MAGX;18.0;MAGY;-89.0;MAGZ;88.0
MOT;0;1000.0;1;1000.0;2;1000.0;3;1000.0;4;0.0;5;0.0;6;0.0;7;0.0;
RC;ROLL;1496.0;PITCH;1518.0;YAW;1511.0;THROTTLE;1088.0;AUX1;1538.0;AUX2;1500.0;AUX3;1500.0;AUX4;1500.0
ALTITUDE;0.0
DEBUG;DEBUG10.0;DEBUG2;0.0;DEBUG3;0.0;DEBUG4;0.0
ATTITUDE;ANGX;7.0;ANGY;0.0;HEAD;-168.0
STATUS;CYCLETIME;2804;I2CERR;0;PRESENT;23;MODE;0
RAW_IMU;AX;32.0;AY;6.0;AZ;254.0;GX;0.0;GY;0.0;GZ;-1.0;MAGX;18.0;MAGY;-90.0;MAGZ;87.0
MOT;0;1000.0;1;1000.0;2;1000.0;3;1000.0;4;0.0;5;0.0;6;0.0;7;0.0;
RC;ROLL;1496.0;PITCH;1518.0;YAW;1511.0;THROTTLE;1088.0;AUX1;1538.0;AUX2;1500.0;AUX3;1500.0;AUX4;1500.0
ALTITUDE;0.0
DEBUG;DEBUG10.0;DEBUG2;0.0;DEBUG3;0.0;DEBUG4;0.0
ATTITUDE;ANGX;7.0;ANGY;0.0;HEAD;-168.0
STATUS;CYCLETIME;2780;I2CERR;0;PRESENT;23;MODE;0
RAW_IMU;AX;32.0;AY;6.0;AZ;253.0;GX;0.0;GY;0.0;GZ;-1.0;MAGX;18.0;MAGY;-90.0;MAGZ;87.0
MOT;0;1000.0;1;1000.0;2;1000.0;3;1000.0;4;0.0;5;0.0;6;0.0;7;0.0;
RC;ROLL;1496.0;PITCH;1518.0;YAW;1511.0;THROTTLE;1088.0;AUX1;1538.0;AUX2;1500.0;AUX3;1500.0;AUX4;1500.0
ALTITUDE;0.0
DEBUG;DEBUG10.0;DEBUG2;0.0;DEBUG3;0.0;DEBUG4;0.0
ATTITUDE;ANGX;7.0;ANGY;0.0;HEAD;-168.0
STATUS;CYCLETIME;2756;I2CERR;0;PRESENT;23;MODE;0
RAW_IMU;AX;32.0;AY;4.0;AZ;252.0;GX;0.0;GY;0.0;GZ;-2.0;MAGX;17.0;MAGY;-89.0;MAGZ;87.0
MOT;0;1000.0;1;1000.0;2;1000.0;3;1000.0;4;0.0;5;0.0;6;0.0;7;0.0;
RC;ROLL;1496.0;PITCH;1518.0;YAW;1511.0;THROTTLE;1088.0;AUX1;1538.0;AUX2;1500.0;AUX3;1500.0;AUX4;1500.0
ALTITUDE;0.0
DEBUG;DEBUG10.0;DEBUG2;0.0;DEBUG3;0.0;DEBUG4;0.0
ATTITUDE;ANGX;7.0;ANGY;0.0;HEAD;-168.0
STATUS;CYCLETIME;2780;I2CERR;0;PRESENT;23;MODE;0
RAW_IMU;AX;33.0;AY;2.0;AZ;252.0;GX;0.0;GY;0.0;GZ;-1.0;MAGX;17.0;MAGY;-89.0;MAGZ;87.0
MOT;0;1000.0;1;1000.0;2;1000.0;3;1000.0;4;0.0;5;0.0;6;0.0;7;0.0;
RC;ROLL;1496.0;PITCH;1518.0;YAW;1513.0;THROTTLE;1088.0;AUX1;1538.0;AUX2;1500.0;AUX3;1500.0;AUX4;1500.0
ALTITUDE;0.0
DEBUG;DEBUG10.0;DEBUG2;0.0;DEBUG3;0.0;DEBUG4;0.0
ATTITUDE;ANGX;7.0;ANGY;0.0;HEAD;-168.0
STATUS;CYCLETIME;2788;I2CERR;0;PRESENT;23;MODE;0
RAW_IMU;AX;34.0;AY;5.0;AZ;251.0;GX;0.0;GY;0.0;GZ;-1.0;MAGX;17.0;MAGY;-90.0;MAGZ;87.0
MOT;0;1000.0;1;1000.0;2;1000.0;3;1000.0;4;0.0;5;0.0;6;0.0;7;0.0;
RC;ROLL;1496.0;PITCH;1518.0;YAW;1513.0;THROTTLE;1086.0;AUX1;1538.0;AUX2;1500.0;AUX3;1500.0;AUX4;1500.0
ALTITUDE;0.0
DEBUG;DEBUG10.0;DEBUG2;0.0;DEBUG3;0.0;DEBUG4;0.0
ATTITUDE;ANGX;7.0;ANGY;0.0;HEAD;-168.0
STATUS;CYCLETIME;2804;I2CERR;0;PRESENT;23;MODE;0
RAW_IMU;AX;34.0;AY;5.0;AZ;251.0;GX;0.0;GY;0.0;GZ;-1.0;MAGX;17.0;MAGY;-90.0;MAGZ;87.0
MOT;0;1000.0;1;1000.0;2;1000.0;3;1000.0;4;0.0;5;0.0;6;0.0;7;0.0;
RC;ROLL;1496.0;PITCH;1518.0;YAW;1513.0;THROTTLE;1086.0;AUX1;1538.0;AUX2;1500.0;AUX3;1500.0;AUX4;1500.0
ALTITUDE;0.0
DEBUG;DEBUG10.0;DEBUG2;0.0;DEBUG3;0.0;DEBUG4;0.0
ATTITUDE;ANGX;7.0;ANGY;0.0;HEAD;-168.0
STATUS;CYCLETIME;2796;I2CERR;0;PRESENT;23;MODE;0
RAW_IMU;AX;31.0;AY;5.0;AZ;252.0;GX;0.0;GY;0.0;GZ;-1.0;MAGX;18.0;MAGY;-90.0;MAGZ;87.0
MOT;0;1000.0;1;1000.0;2;1000.0;3;1000.0;4;0.0;5;0.0;6;0.0;7;0.0;
RC;ROLL;1496.0;PITCH;1518.0;YAW;1513.0;THROTTLE;1086.0;AUX1;1538.0;AUX2;1500.0;AUX3;1500.0;AUX4;1500.0
ALTITUDE;0.0
DEBUG;DEBUG10.0;DEBUG2;0.0;DEBUG3;0.0;DEBUG4;0.0
ATTITUDE;ANGX;7.0;ANGY;0.0;HEAD;-168.0
STATUS;CYCLETIME;2860;I2CERR;0;PRESENT;23;MODE;0
RAW_IMU;AX;32.0;AY;3.0;AZ;253.0;GX;0.0;GY;0.0;GZ;-1.0;MAGX;18.0;MAGY;-90.0;MAGZ;87.0
MOT;0;1000.0;1;1000.0;2;1000.0;3;1000.0;4;0.0;5;0.0;6;0.0;7;0.0;
RC;ROLL;1494.0;PITCH;1518.0;YAW;1515.0;THROTTLE;1086.0;AUX1;1538.0;AUX2;1500.0;AUX3;1500.0;AUX4;1500.0
ALTITUDE;0.0
DEBUG;DEBUG10.0;DEBUG2;0.0;DEBUG3;0.0;DEBUG4;0.0
ATTITUDE;ANGX;7.0;ANGY;0.0;HEAD;-168.0
STATUS;CYCLETIME;2828;I2CERR;0;PRESENT;23;MODE;0
RAW_IMU;AX;31.0;AY;5.0;AZ;252.0;GX;0.0;GY;0.0;GZ;-1.0;MAGX;17.0;MAGY;-91.0;MAGZ;88.0
MOT;0;1000.0;1;1000.0;2;1000.0;3;1000.0;4;0.0;5;0.0;6;0.0;7;0.0;
RC;ROLL;1494.0;PITCH;1518.0;YAW;1558.0;THROTTLE;1073.0;AUX1;1538.0;AUX2;1500.0;AUX3;1500.0;AUX4;1500.0
ALTITUDE;0.0
DEBUG;DEBUG10.0;DEBUG2;0.0;DEBUG3;0.0;DEBUG4;0.0
ATTITUDE;ANGX;7.0;ANGY;0.0;HEAD;-168.0
STATUS;CYCLETIME;2856;I2CERR;0;PRESENT;23;MODE;0
RAW_IMU;AX;33.0;AY;4.0;AZ;253.0;GX;0.0;GY;0.0;GZ;-1.0;MAGX;17.0;MAGY;-91.0;MAGZ;88.0
MOT;0;1000.0;1;1000.0;2;1000.0;3;1000.0;4;0.0;5;0.0;6;0.0;7;0.0;
RC;ROLL;1496.0;PITCH;1518.0;YAW;1636.0;THROTTLE;1058.0;AUX1;1538.0;AUX2;1500.0;AUX3;1500.0;AUX4;1500.0
ALTITUDE;0.0
DEBUG;DEBUG10.0;DEBUG2;0.0;DEBUG3;0.0;DEBUG4;0.0
ATTITUDE;ANGX;7.0;ANGY;0.0;HEAD;-168.0
STATUS;CYCLETIME;2892;I2CERR;0;PRESENT;23;MODE;0
RAW_IMU;AX;32.0;AY;5.0;AZ;251.0;GX;0.0;GY;0.0;GZ;-1.0;MAGX;18.0;MAGY;-90.0;MAGZ;87.0
MOT;0;1000.0;1;1000.0;2;1000.0;3;1000.0;4;0.0;5;0.0;6;0.0;7;0.0;
RC;ROLL;1496.0;PITCH;1518.0;YAW;1733.0;THROTTLE;1056.0;AUX1;1538.0;AUX2;1500.0;AUX3;1500.0;AUX4;1500.0
ALTITUDE;0.0
DEBUG;DEBUG10.0;DEBUG2;0.0;DEBUG3;0.0;DEBUG4;0.0
ATTITUDE;ANGX;7.0;ANGY;0.0;HEAD;-168.0
STATUS;CYCLETIME;2784;I2CERR;0;PRESENT;23;MODE;0
RAW_IMU;AX;31.0;AY;4.0;AZ;252.0;GX;0.0;GY;0.0;GZ;-1.0;MAGX;18.0;MAGY;-90.0;MAGZ;87.0
MOT;0;1000.0;1;1000.0;2;1000.0;3;1000.0;4;0.0;5;0.0;6;0.0;7;0.0;
RC;ROLL;1496.0;PITCH;1518.0;YAW;1782.0;THROTTLE;1056.0;AUX1;1536.0;AUX2;1500.0;AUX3;1500.0;AUX4;1500.0
ALTITUDE;0.0
DEBUG;DEBUG10.0;DEBUG2;0.0;DEBUG3;0.0;DEBUG4;0.0
ATTITUDE;ANGX;7.0;ANGY;0.0;HEAD;-168.0
STATUS;CYCLETIME;2796;I2CERR;0;PRESENT;23;MODE;0
RAW_IMU;AX;31.0;AY;6.0;AZ;252.0;GX;0.0;GY;0.0;GZ;-1.0;MAGX;17.0;MAGY;-90.0;MAGZ;87.0
MOT;0;1000.0;1;1000.0;2;1000.0;3;1000.0;4;0.0;5;0.0;6;0.0;7;0.0;
RC;ROLL;1496.0;PITCH;1518.0;YAW;1832.0;THROTTLE;1056.0;AUX1;1534.0;AUX2;1500.0;AUX3;1500.0;AUX4;1500.0
ALTITUDE;0.0
DEBUG;DEBUG10.0;DEBUG2;0.0;DEBUG3;0.0;DEBUG4;0.0
ATTITUDE;ANGX;7.0;ANGY;0.0;HEAD;-168.0
STATUS;CYCLETIME;2944;I2CERR;0;PRESENT;23;MODE;0
RAW_IMU;AX;31.0;AY;5.0;AZ;253.0;GX;0.0;GY;0.0;GZ;-1.0;MAGX;17.0;MAGY;-90.0;MAGZ;87.0
MOT;0;1000.0;1;1000.0;2;1000.0;3;1000.0;4;0.0;5;0.0;6;0.0;7;0.0;
RC;ROLL;1496.0;PITCH;1518.0;YAW;1883.0;THROTTLE;1054.0;AUX1;1534.0;AUX2;1500.0;AUX3;1500.0;AUX4;1500.0
ALTITUDE;0.0
DEBUG;DEBUG10.0;DEBUG2;0.0;DEBUG3;0.0;DEBUG4;0.0
ATTITUDE;ANGX;7.0;ANGY;0.0;HEAD;-168.0
STATUS;CYCLETIME;2752;I2CERR;0;PRESENT;23;MODE;0
RAW_IMU;AX;32.0;AY;5.0;AZ;254.0;GX;0.0;GY;0.0;GZ;-1.0;MAGX;16.0;MAGY;-91.0;MAGZ;87.0
MOT;0;1000.0;1;1000.0;2;1000.0;3;1000.0;4;0.0;5;0.0;6;0.0;7;0.0;
RC;ROLL;1496.0;PITCH;1518.0;YAW;1899.0;THROTTLE;1054.0;AUX1;1534.0;AUX2;1500.0;AUX3;1500.0;AUX4;1500.0
ALTITUDE;0.0
DEBUG;DEBUG10.0;DEBUG2;0.0;DEBUG3;0.0;DEBUG4;0.0
ATTITUDE;ANGX;7.0;ANGY;0.0;HEAD;-168.0
STATUS;CYCLETIME;2804;I2CERR;0;PRESENT;23;MODE;0
RAW_IMU;AX;33.0;AY;7.0;AZ;254.0;GX;0.0;GY;0.0;GZ;-1.0;MAGX;16.0;MAGY;-91.0;MAGZ;87.0
MOT;0;1000.0;1;1000.0;2;1000.0;3;1000.0;4;0.0;5;0.0;6;0.0;7;0.0;
RC;ROLL;1496.0;PITCH;1518.0;YAW;1905.0;THROTTLE;1054.0;AUX1;1534.0;AUX2;1500.0;AUX3;1500.0;AUX4;1500.0
ALTITUDE;0.0
DEBUG;DEBUG10.0;DEBUG2;0.0;DEBUG3;0.0;DEBUG4;0.0
ATTITUDE;ANGX;7.0;ANGY;0.0;HEAD;-168.0
STATUS;CYCLETIME;2756;I2CERR;0;PRESENT;23;MODE;0
RAW_IMU;AX;30.0;AY;4.0;AZ;253.0;GX;0.0;GY;0.0;GZ;-1.0;MAGX;17.0;MAGY;-89.0;MAGZ;88.0
MOT;0;1000.0;1;1000.0;2;1000.0;3;1000.0;4;0.0;5;0.0;6;0.0;7;0.0;
RC;ROLL;1496.0;PITCH;1518.0;YAW;1907.0;THROTTLE;1054.0;AUX1;1534.0;AUX2;1500.0;AUX3;1500.0;AUX4;1500.0
ALTITUDE;0.0
DEBUG;DEBUG10.0;DEBUG2;0.0;DEBUG3;0.0;DEBUG4;0.0
ATTITUDE;ANGX;7.0;ANGY;0.0;HEAD;-168.0
STATUS;CYCLETIME;2756;I2CERR;0;PRESENT;23;MODE;0
RAW_IMU;AX;31.0;AY;3.0;AZ;252.0;GX;0.0;GY;0.0;GZ;-1.0;MAGX;17.0;MAGY;-89.0;MAGZ;88.0
MOT;0;1000.0;1;1000.0;2;1000.0;3;1000.0;4;0.0;5;0.0;6;0.0;7;0.0;
RC;ROLL;1496.0;PITCH;1518.0;YAW;1907.0;THROTTLE;1052.0;AUX1;1534.0;AUX2;1500.0;AUX3;1500.0;AUX4;1500.0
ALTITUDE;0.0
DEBUG;DEBUG10.0;DEBUG2;0.0;DEBUG3;0.0;DEBUG4;0.0
ATTITUDE;ANGX;7.0;ANGY;0.0;HEAD;-168.0
STATUS;CYCLETIME;2852;I2CERR;0;PRESENT;23;MODE;0
RAW_IMU;AX;32.0;AY;4.0;AZ;251.0;GX;0.0;GY;0.0;GZ;-1.0;MAGX;17.0;MAGY;-89.0;MAGZ;87.0
MOT;0;1000.0;1;1000.0;2;1000.0;3;1000.0;4;0.0;5;0.0;6;0.0;7;0.0;
RC;ROLL;1496.0;PITCH;1518.0;YAW;1907.0;THROTTLE;1052.0;AUX1;1537.0;AUX2;1500.0;AUX3;1500.0;AUX4;1500.0
ALTITUDE;0.0
DEBUG;DEBUG10.0;DEBUG2;0.0;DEBUG3;0.0;DEBUG4;0.0
ATTITUDE;ANGX;7.0;ANGY;0.0;HEAD;-168.0
STATUS;CYCLETIME;2896;I2CERR;0;PRESENT;23;MODE;0
RAW_IMU;AX;33.0;AY;3.0;AZ;250.0;GX;0.0;GY;0.0;GZ;-1.0;MAGX;17.0;MAGY;-89.0;MAGZ;87.0
MOT;0;1000.0;1;1000.0;2;1000.0;3;1000.0;4;0.0;5;0.0;6;0.0;7;0.0;
RC;ROLL;1496.0;PITCH;1518.0;YAW;1907.0;THROTTLE;1048.0;AUX1;1537.0;AUX2;1500.0;AUX3;1500.0;AUX4;1500.0
ALTITUDE;0.0
DEBUG;DEBUG10.0;DEBUG2;0.0;DEBUG3;0.0;DEBUG4;0.0
ATTITUDE;ANGX;7.0;ANGY;0.0;HEAD;-168.0
STATUS;CYCLETIME;3064;I2CERR;0;PRESENT;23;MODE;0
RAW_IMU;AX;31.0;AY;4.0;AZ;251.0;GX;0.0;GY;0.0;GZ;-1.0;MAGX;17.0;MAGY;-90.0;MAGZ;87.0
MOT;0;1000.0;1;1000.0;2;1000.0;3;1000.0;4;0.0;5;0.0;6;0.0;7;0.0;
RC;ROLL;1496.0;PITCH;1518.0;YAW;1909.0;THROTTLE;1048.0;AUX1;1537.0;AUX2;1500.0;AUX3;1500.0;AUX4;1500.0
ALTITUDE;0.0
DEBUG;DEBUG10.0;DEBUG2;0.0;DEBUG3;0.0;DEBUG4;0.0
ATTITUDE;ANGX;7.0;ANGY;0.0;HEAD;-168.0
STATUS;CYCLETIME;2820;I2CERR;0;PRESENT;23;MODE;0
RAW_IMU;AX;32.0;AY;5.0;AZ;254.0;GX;0.0;GY;0.0;GZ;-1.0;MAGX;17.0;MAGY;-90.0;MAGZ;87.0
MOT;0;1000.0;1;1000.0;2;1000.0;3;1000.0;4;0.0;5;0.0;6;0.0;7;0.0;
RC;ROLL;1496.0;PITCH;1518.0;YAW;1909.0;THROTTLE;1048.0;AUX1;1537.0;AUX2;1500.0;AUX3;1500.0;AUX4;1500.0
ALTITUDE;0.0
