IDENT;V;220;TYPE;3
MSP_MOTOR_PINS
STATUS;CYCLETIME;2672;I2CERR;0;PRESENT;23;MODE;0
RAW_IMU;AX;-2.0;AY;-2.0;AZ;56.0;GX;0.0;GY;0.0;GZ;0.0;MAGX;-25.0;MAGY;-75.0;MAGZ;68.0
ALTITUDE;0.0
DEBUG;DEBUG10.0;DEBUG2;0.0;DEBUG3;0.0;DEBUG4;0.0
ATTITUDE;ANGX;0.0;ANGY;0.0;HEAD;10.0
STATUS;CYCLETIME;2492;I2CERR;0;PRESENT;23;MODE;0
RAW_IMU;AX;-4.0;AY;-2.0;AZ;220.0;GX;0.0;GY;0.0;GZ;0.0;MAGX;-25.0;MAGY;-75.0;MAGZ;68.0
MOT;0;1000.0;1;1000.0;2;1000.0;3;1000.0;4;0.0;5;0.0;6;0.0;7;0.0;
RC;ROLL;1485.0;PITCH;1507.0;YAW;1524.0;THROTTLE;1043.0;AUX1;1673.0;AUX2;1500.0;AUX3;1500.0;AUX4;1500.0
ALTITUDE;0.0
DEBUG;DEBUG10.0;DEBUG2;0.0;DEBUG3;0.0;DEBUG4;0.0
ATTITUDE;ANGX;0.0;ANGY;0.0;HEAD;171.0
STATUS;CYCLETIME;2692;I2CERR;0;PRESENT;23;MODE;0
RAW_IMU;AX;-4.0;AY;-1.0;AZ;252.0;GX;0.0;GY;0.0;GZ;0.0;MAGX;-26.0;MAGY;-75.0;MAGZ;69.0
MOT;0;1000.0;1;1000.0;2;1000.0;3;1000.0;4;0.0;5;0.0;6;0.0;7;0.0;
RC;ROLL;1488.0;PITCH;1510.0;YAW;1529.0;THROTTLE;1045.0;AUX1;1682.0;AUX2;1500.0;AUX3;1500.0;AUX4;1500.0
ALTITUDE;0.0
DEBUG;DEBUG10.0;DEBUG2;0.0;DEBUG3;0.0;DEBUG4;0.0
ATTITUDE;ANGX;0.0;ANGY;0.0;HEAD;171.0
STATUS;CYCLETIME;2712;I2CERR;0;PRESENT;23;MODE;0
RAW_IMU;AX;-6.0;AY;-1.0;AZ;253.0;GX;0.0;GY;0.0;GZ;0.0;MAGX;-25.0;MAGY;-76.0;MAGZ;68.0
MOT;0;1000.0;1;1000.0;2;1000.0;3;1000.0;4;0.0;5;0.0;6;0.0;7;0.0;
RC;ROLL;1499.0;PITCH;1496.0;YAW;1522.0;THROTTLE;1056.0;AUX1;1682.0;AUX2;1500.0;AUX3;1500.0;AUX4;1500.0
ALTITUDE;0.0
DEBUG;DEBUG10.0;DEBUG2;0.0;DEBUG3;0.0;DEBUG4;0.0
ATTITUDE;ANGX;0.0;ANGY;0.0;HEAD;171.0
STATUS;CYCLETIME;2700;I2CERR;0;PRESENT;23;MODE;0
RAW_IMU;AX;-4.0;AY;-3.0;AZ;251.0;GX;0.0;GY;0.0;GZ;0.0;MAGX;-25.0;MAGY;-76.0;MAGZ;68.0
MOT;0;1000.0;1;1000.0;2;1000.0;3;1000.0;4;0.0;5;0.0;6;0.0;7;0.0;
RC;ROLL;1507.0;PITCH;1493.0;YAW;1520.0;THROTTLE;1058.0;AUX1;1682.0;AUX2;1500.0;AUX3;1500.0;AUX4;1500.0
ALTITUDE;0.0
DEBUG;DEBUG10.0;DEBUG2;0.0;DEBUG3;0.0;DEBUG4;0.0
ATTITUDE;ANGX;0.0;ANGY;0.0;HEAD;171.0
STATUS;CYCLETIME;2692;I2CERR;0;PRESENT;23;MODE;0
RAW_IMU;AX;-5.0;AY;-3.0;AZ;251.0;GX;0.0;GY;0.0;GZ;0.0;MAGX;-25.0;MAGY;-76.0;MAGZ;68.0
MOT;0;1000.0;1;1000.0;2;1000.0;3;1000.0;4;0.0;5;0.0;6;0.0;7;0.0;
RC;ROLL;1500.0;PITCH;1495.0;YAW;1520.0;THROTTLE;1058.0;AUX1;1682.0;AUX2;1500.0;AUX3;1500.0;AUX4;1500.0
ALTITUDE;0.0
DEBUG;DEBUG10.0;DEBUG2;0.0;DEBUG3;0.0;DEBUG4;0.0
ATTITUDE;ANGX;0.0;ANGY;0.0;HEAD;171.0
STATUS;CYCLETIME;2708;I2CERR;0;PRESENT;23;MODE;0
RAW_IMU;AX;-3.0;AY;-1.0;AZ;254.0;GX;0.0;GY;0.0;GZ;0.0;MAGX;-25.0;MAGY;-76.0;MAGZ;68.0
MOT;0;1000.0;1;1000.0;2;1000.0;3;1000.0;4;0.0;5;0.0;6;0.0;7;0.0;
RC;ROLL;1496.0;PITCH;1499.0;YAW;1520.0;THROTTLE;1065.0;AUX1;1672.0;AUX2;1500.0;AUX3;1500.0;AUX4;1500.0
ALTITUDE;0.0
DEBUG;DEBUG10.0;DEBUG2;0.0;DEBUG3;0.0;DEBUG4;0.0
ATTITUDE;ANGX;0.0;ANGY;0.0;HEAD;171.0
STATUS;CYCLETIME;2688;I2CERR;0;PRESENT;23;MODE;0
RAW_IMU;AX;-4.0;AY;-1.0;AZ;254.0;GX;0.0;GY;0.0;GZ;0.0;MAGX;-25.0;MAGY;-76.0;MAGZ;69.0
MOT;0;1000.0;1;1000.0;2;1000.0;3;1000.0;4;0.0;5;0.0;6;0.0;7;0.0;
RC;ROLL;1496.0;PITCH;1505.0;YAW;1527.0;THROTTLE;1055.0;AUX1;1670.0;AUX2;1500.0;AUX3;1500.0;AUX4;1500.0
ALTITUDE;0.0
DEBUG;DEBUG10.0;DEBUG2;0.0;DEBUG3;0.0;DEBUG4;0.0
ATTITUDE;ANGX;0.0;ANGY;0.0;HEAD;171.0
STATUS;CYCLETIME;2688;I2CERR;0;PRESENT;23;MODE;0
RAW_IMU;AX;-6.0;AY;-3.0;AZ;254.0;GX;0.0;GY;0.0;GZ;0.0;MAGX;-25.0;MAGY;-76.0;MAGZ;69.0
MOT;0;1000.0;1;1000.0;2;1000.0;3;1000.0;4;0.0;5;0.0;6;0.0;7;0.0;
RC;ROLL;1494.0;PITCH;1502.0;YAW;1527.0;THROTTLE;1057.0;AUX1;1675.0;AUX2;1500.0;AUX3;1500.0;AUX4;1500.0
ALTITUDE;0.0
DEBUG;DEBUG10.0;DEBUG2;0.0;DEBUG3;0.0;DEBUG4;0.0
ATTITUDE;ANGX;0.0;ANGY;0.0;HEAD;171.0
STATUS;CYCLETIME;2784;I2CERR;0;PRESENT;23;MODE;0
RAW_IMU;AX;-8.0;AY;-2.0;AZ;253.0;GX;0.0;GY;0.0;GZ;0.0;MAGX;-26.0;MAGY;-74.0;MAGZ;69.0
MOT;0;1000.0;1;1000.0;2;1000.0;3;1000.0;4;0.0;5;0.0;6;0.0;7;0.0;
RC;ROLL;1492.0;PITCH;1504.0;YAW;1518.0;THROTTLE;1059.0;AUX1;1680.0;AUX2;1500.0;AUX3;1500.0;AUX4;1500.0
ALTITUDE;0.0
DEBUG;DEBUG10.0;DEBUG2;0.0;DEBUG3;0.0;DEBUG4;0.0
ATTITUDE;ANGX;0.0;ANGY;0.0;HEAD;172.0
STATUS;CYCLETIME;2924;I2CERR;0;PRESENT;23;MODE;0
RAW_IMU;AX;-5.0;AY;-1.0;AZ;255.0;GX;0.0;GY;0.0;GZ;0.0;MAGX;-26.0;MAGY;-74.0;MAGZ;69.0
MOT;0;1000.0;1;1000.0;2;1000.0;3;1000.0;4;0.0;5;0.0;6;0.0;7;0.0;
RC;ROLL;1489.0;PITCH;1511.0;YAW;1530.0;THROTTLE;1043.0;AUX1;1666.0;AUX2;1500.0;AUX3;1500.0;AUX4;1500.0
ALTITUDE;0.0
DEBUG;DEBUG10.0;DEBUG2;0.0;DEBUG3;0.0;DEBUG4;0.0
ATTITUDE;ANGX;0.0;ANGY;0.0;HEAD;172.0
STATUS;CYCLETIME;2760;I2CERR;0;PRESENT;23;MODE;0
RAW_IMU;AX;-3.0;AY;-4.0;AZ;254.0;GX;0.0;GY;0.0;GZ;0.0;MAGX;-26.0;MAGY;-77.0;MAGZ;68.0
MOT;0;1000.0;1;1000.0;2;1000.0;3;1000.0;4;0.0;5;0.0;6;0.0;7;0.0;
RC;ROLL;1495.0;PITCH;1497.0;YAW;1533.0;THROTTLE;1043.0;AUX1;1678.0;AUX2;1500.0;AUX3;1500.0;AUX4;1500.0
ALTITUDE;0.0
DEBUG;DEBUG10.0;DEBUG2;0.0;DEBUG3;0.0;DEBUG4;0.0
ATTITUDE;ANGX;0.0;ANGY;0.0;HEAD;172.0
STATUS;CYCLETIME;2764;I2CERR;0;PRESENT;23;MODE;0
RAW_IMU;AX;-5.0;AY;-2.0;AZ;254.0;GX;0.0;GY;0.0;GZ;0.0;MAGX;-26.0;MAGY;-77.0;MAGZ;68.0
MOT;0;1000.0;1;1000.0;2;1000.0;3;1000.0;4;0.0;5;0.0;6;0.0;7;0.0;
RC;ROLL;1502.0;PITCH;1499.0;YAW;1529.0;THROTTLE;1046.0;AUX1;1684.0;AUX2;1500.0;AUX3;1500.0;AUX4;1500.0
ALTITUDE;0.0
DEBUG;DEBUG10.0;DEBUG2;0.0;DEBUG3;0.0;DEBUG4;0.0
ATTITUDE;ANGX;0.0;ANGY;0.0;HEAD;172.0
STATUS;CYCLETIME;-22152;I2CERR;0;PRESENT;23;MODE;0
RAW_IMU;AX;-5.0;AY;-2.0;AZ;253.0;GX;0.0;GY;0.0;GZ;0.0;MAGX;-26.0;MAGY;-77.0;MAGZ;68.0
MOT;0;1000.0;1;1000.0;2;1000.0;3;1000.0;4;0.0;5;0.0;6;0.0;7;0.0;
RC;ROLL;1502.0;PITCH;1499.0;YAW;1522.0;THROTTLE;1052.0;AUX1;1689.0;AUX2;1500.0;AUX3;1500.0;AUX4;1500.0
ALTITUDE;0.0
DEBUG;DEBUG10.0;DEBUG2;0.0;DEBUG3;0.0;DEBUG4;0.0
ATTITUDE;ANGX;0.0;ANGY;0.0;HEAD;172.0
STATUS;CYCLETIME;2808;I2CERR;0;PRESENT;23;MODE;0
RAW_IMU;AX;-4.0;AY;-1.0;AZ;253.0;GX;0.0;GY;0.0;GZ;0.0;MAGX;-26.0;MAGY;-76.0;MAGZ;68.0
MOT;0;1000.0;1;1000.0;2;1000.0;3;1000.0;4;0.0;5;0.0;6;0.0;7;0.0;
RC;ROLL;1496.0;PITCH;1505.0;YAW;1520.0;THROTTLE;1048.0;AUX1;1687.0;AUX2;1500.0;AUX3;1500.0;AUX4;1500.0
ALTITUDE;0.0
DEBUG;DEBUG10.0;DEBUG2;0.0;DEBUG3;0.0;DEBUG4;0.0
ATTITUDE;ANGX;0.0;ANGY;0.0;HEAD;172.0
STATUS;CYCLETIME;2964;I2CERR;0;PRESENT;23;MODE;0
RAW_IMU;AX;-1.0;AY;-1.0;AZ;253.0;GX;0.0;GY;0.0;GZ;0.0;MAGX;-26.0;MAGY;-76.0;MAGZ;68.0
MOT;0;1000.0;1;1000.0;2;1000.0;3;1000.0;4;0.0;5;0.0;6;0.0;7;0.0;
RC;ROLL;1496.0;PITCH;1502.0;YAW;1520.0;THROTTLE;1055.0;AUX1;1687.0;AUX2;1500.0;AUX3;1500.0;AUX4;1500.0
ALTITUDE;0.0
DEBUG;DEBUG10.0;DEBUG2;0.0;DEBUG3;0.0;DEBUG4;0.0
ATTITUDE;ANGX;0.0;ANGY;0.0;HEAD;172.0
STATUS;CYCLETIME;2844;I2CERR;0;PRESENT;23;MODE;0
RAW_IMU;AX;-5.0;AY;-2.0;AZ;253.0;GX;0.0;GY;0.0;GZ;0.0;MAGX;-26.0;MAGY;-76.0;MAGZ;68.0
MOT;0;1000.0;1;1000.0;2;1000.0;3;1000.0;4;0.0;5;0.0;6;0.0;7;0.0;
RC;ROLL;1496.0;PITCH;1502.0;YAW;1520.0;THROTTLE;1054.0;AUX1;1682.0;AUX2;1500.0;AUX3;1500.0;AUX4;1500.0
ALTITUDE;0.0
DEBUG;DEBUG10.0;DEBUG2;0.0;DEBUG3;0.0;DEBUG4;0.0
ATTITUDE;ANGX;0.0;ANGY;0.0;HEAD;172.0
STATUS;CYCLETIME;2764;I2CERR;0;PRESENT;23;MODE;0
RAW_IMU;AX;-6.0;AY;-4.0;AZ;254.0;GX;0.0;GY;0.0;GZ;0.0;MAGX;-25.0;MAGY;-76.0;MAGZ;68.0
MOT;0;1000.0;1;1000.0;2;1000.0;3;1000.0;4;0.0;5;0.0;6;0.0;7;0.0;
RC;ROLL;1489.0;PITCH;1506.0;YAW;1515.0;THROTTLE;1064.0;AUX1;1682.0;AUX2;1500.0;AUX3;1500.0;AUX4;1500.0
ALTITUDE;0.0
DEBUG;DEBUG10.0;DEBUG2;0.0;DEBUG3;0.0;DEBUG4;0.0
ATTITUDE;ANGX;0.0;ANGY;0.0;HEAD;172.0
STATUS;CYCLETIME;2796;I2CERR;0;PRESENT;23;MODE;0
RAW_IMU;AX;-6.0;AY;-3.0;AZ;253.0;GX;0.0;GY;0.0;GZ;0.0;MAGX;-25.0;MAGY;-76.0;MAGZ;68.0
MOT;0;1000.0;1;1000.0;2;1000.0;3;1000.0;4;0.0;5;0.0;6;0.0;7;0.0;
RC;ROLL;1489.0;PITCH;1503.0;YAW;1523.0;THROTTLE;1064.0;AUX1;1684.0;AUX2;1500.0;AUX3;1500.0;AUX4;1500.0
ALTITUDE;0.0
DEBUG;DEBUG10.0;DEBUG2;0.0;DEBUG3;0.0;DEBUG4;0.0
ATTITUDE;ANGX;0.0;ANGY;0.0;HEAD;172.0
STATUS;CYCLETIME;2840;I2CERR;0;PRESENT;23;MODE;0
RAW_IMU;AX;-5.0;AY;-3.0;AZ;253.0;GX;0.0;GY;0.0;GZ;0.0;MAGX;-26.0;MAGY;-77.0;MAGZ;69.0
MOT;0;1000.0;1;1000.0;2;1000.0;3;1000.0;4;0.0;5;0.0;6;0.0;7;0.0;
RC;ROLL;1496.0;PITCH;1503.0;YAW;1519.0;THROTTLE;1059.0;AUX1;1684.0;AUX2;1500.0;AUX3;1500.0;AUX4;1500.0
ALTITUDE;0.0
DEBUG;DEBUG10.0;DEBUG2;0.0;DEBUG3;0.0;DEBUG4;0.0
ATTITUDE;ANGX;0.0;ANGY;0.0;HEAD;172.0
STATUS;CYCLETIME;2816;I2CERR;0;PRESENT;23;MODE;0
RAW_IMU;AX;-5.0;AY;-2.0;AZ;256.0;GX;0.0;GY;0.0;GZ;0.0;MAGX;-26.0;MAGY;-77.0;MAGZ;69.0
MOT;0;1000.0;1;1000.0;2;1000.0;3;1000.0;4;0.0;5;0.0;6;0.0;7;0.0;
RC;ROLL;1500.0;PITCH;1496.0;YAW;1526.0;THROTTLE;1059.0;AUX1;1674.0;AUX2;1500.0;AUX3;1500.0;AUX4;1500.0
ALTITUDE;0.0
DEBUG;DEBUG10.0;DEBUG2;0.0;DEBUG3;0.0;DEBUG4;0.0
ATTITUDE;ANGX;0.0;ANGY;0.0;HEAD;172.0
STATUS;CYCLETIME;3088;I2CERR;0;PRESENT;23;MODE;0
RAW_IMU;AX;-2.0;AY;-4.0;AZ;255.0;GX;0.0;GY;0.0;GZ;0.0;MAGX;-25.0;MAGY;-75.0;MAGZ;68.0
MOT;0;1000.0;1;1000.0;2;1000.0;3;1000.0;4;0.0;5;0.0;6;0.0;7;0.0;
RC;ROLL;1497.0;PITCH;1500.0;YAW;1528.0;THROTTLE;1057.0;AUX1;1674.0;AUX2;1500.0;AUX3;1500.0;AUX4;1500.0
ALTITUDE;0.0
DEBUG;DEBUG10.0;DEBUG2;0.0;DEBUG3;0.0;DEBUG4;0.0
ATTITUDE;ANGX;0.0;ANGY;0.0;HEAD;172.0
STATUS;CYCLETIME;3004;I2CERR;0;PRESENT;23;MODE;0
RAW_IMU;AX;-5.0;AY;-3.0;AZ;256.0;GX;0.0;GY;0.0;GZ;0.0;MAGX;-25.0;MAGY;-75.0;MAGZ;68.0
MOT;0;1000.0;1;1000.0;2;1000.0;3;1000.0;4;0.0;5;0.0;6;0.0;7;0.0;
RC;ROLL;1491.0;PITCH;1506.0;YAW;1518.0;THROTTLE;1053.0;AUX1;1693.0;AUX2;1500.0;AUX3;1500.0;AUX4;1500.0
ALTITUDE;0.0
DEBUG;DEBUG10.0;DEBUG2;0.0;DEBUG3;0.0;DEBUG4;0.0
ATTITUDE;ANGX;0.0;ANGY;0.0;HEAD;172.0
STATUS;CYCLETIME;2880;I2CERR;0;PRESENT;23;MODE;0
RAW_IMU;AX;-7.0;AY;-3.0;AZ;254.0;GX;0.0;GY;0.0;GZ;0.0;MAGX;-25.0;MAGY;-75.0;MAGZ;68.0
MOT;0;1000.0;1;1000.0;2;1000.0;3;1000.0;4;0.0;5;0.0;6;0.0;7;0.0;
RC;ROLL;1495.0;PITCH;1501.0;YAW;1509.0;THROTTLE;1063.0;AUX1;1687.0;AUX2;1500.0;AUX3;1500.0;AUX4;1500.0
ALTITUDE;0.0
DEBUG;DEBUG10.0;DEBUG2;0.0;DEBUG3;0.0;DEBUG4;0.0
ATTITUDE;ANGX;0.0;ANGY;0.0;HEAD;172.0
STATUS;CYCLETIME;2876;I2CERR;0;PRESENT;23;MODE;0
RAW_IMU;AX;-7.0;AY;-2.0;AZ;253.0;GX;0.0;GY;0.0;GZ;0.0;MAGX;-26.0;MAGY;-76.0;MAGZ;69.0
MOT;0;1000.0;1;1000.0;2;1000.0;3;1000.0;4;0.0;5;0.0;6;0.0;7;0.0;
RC;ROLL;1499.0;PITCH;1499.0;YAW;1509.0;THROTTLE;1063.0;AUX1;1684.0;AUX2;1500.0;AUX3;1500.0;AUX4;1500.0
ALTITUDE;0.0
DEBUG;DEBUG10.0;DEBUG2;0.0;DEBUG3;0.0;DEBUG4;0.0
ATTITUDE;ANGX;0.0;ANGY;0.0;HEAD;172.0
STATUS;CYCLETIME;2988;I2CERR;0;PRESENT;23;MODE;0
RAW_IMU;AX;-5.0;AY;-2.0;AZ;254.0;GX;0.0;GY;0.0;GZ;0.0;MAGX;-26.0;MAGY;-76.0;MAGZ;69.0
MOT;0;1000.0;1;1000.0;2;1000.0;3;1000.0;4;0.0;5;0.0;6;0.0;7;0.0;
RC;ROLL;1499.0;PITCH;1502.0;YAW;1513.0;THROTTLE;1055.0;AUX1;1684.0;AUX2;1500.0;AUX3;1500.0;AUX4;1500.0
ALTITUDE;0.0
DEBUG;DEBUG10.0;DEBUG2;0.0;DEBUG3;0.0;DEBUG4;0.0
ATTITUDE;ANGX;0.0;ANGY;0.0;HEAD;172.0
STATUS;CYCLETIME;2888;I2CERR;0;PRESENT;23;MODE;0
RAW_IMU;AX;-5.0;AY;-4.0;AZ;253.0;GX;0.0;GY;0.0;GZ;0.0;MAGX;-26.0;MAGY;-76.0;MAGZ;69.0
MOT;0;1000.0;1;1000.0;2;1000.0;3;1000.0;4;0.0;5;0.0;6;0.0;7;0.0;
RC;ROLL;1493.0;PITCH;1502.0;YAW;1515.0;THROTTLE;1055.0;AUX1;1684.0;AUX2;1500.0;AUX3;1500.0;AUX4;1500.0
ALTITUDE;0.0
DEBUG;DEBUG10.0;DEBUG2;0.0;DEBUG3;0.0;DEBUG4;0.0
ATTITUDE;ANGX;0.0;ANGY;0.0;HEAD;172.0
STATUS;CYCLETIME;2908;I2CERR;0;PRESENT;23;MODE;0
RAW_IMU;AX;-6.0;AY;-2.0;AZ;253.0;GX;0.0;GY;0.0;GZ;0.0;MAGX;-26.0;MAGY;-76.0;MAGZ;69.0
MOT;0;1000.0;1;1000.0;2;1000.0;3;1000.0;4;0.0;5;0.0;6;0.0;7;0.0;
RC;ROLL;1493.0;PITCH;1502.0;YAW;1518.0;THROTTLE;1057.0;AUX1;1682.0;AUX2;1500.0;AUX3;1500.0;AUX4;1500.0
ALTITUDE;0.0
DEBUG;DEBUG10.0;DEBUG2;0.0;DEBUG3;0.0;DEBUG4;0.0
ATTITUDE;ANGX;0.0;ANGY;0.0;HEAD;172.0
STATUS;CYCLETIME;2952;I2CERR;0;PRESENT;23;MODE;0
RAW_IMU;AX;-3.0;AY;-1.0;AZ;253.0;GX;0.0;GY;0.0;GZ;0.0;MAGX;-26.0;MAGY;-76.0;MAGZ;68.0
MOT;0;1000.0;1;1000.0;2;1000.0;3;1000.0;4;0.0;5;0.0;6;0.0;7;0.0;
RC;ROLL;1496.0;PITCH;1502.0;YAW;1518.0;THROTTLE;1055.0;AUX1;1680.0;AUX2;1500.0;AUX3;1500.0;AUX4;1500.0
ALTITUDE;0.0
DEBUG;DEBUG10.0;DEBUG2;0.0;DEBUG3;0.0;DEBUG4;0.0
ATTITUDE;ANGX;0.0;ANGY;0.0;HEAD;172.0
STATUS;CYCLETIME;2940;I2CERR;0;PRESENT;23;MODE;0
RAW_IMU;AX;-3.0;AY;-1.0;AZ;253.0;GX;0.0;GY;0.0;GZ;0.0;MAGX;-26.0;MAGY;-76.0;MAGZ;68.0
MOT;0;1000.0;1;1000.0;2;1000.0;3;1000.0;4;0.0;5;0.0;6;0.0;7;0.0;
RC;ROLL;1494.0;PITCH;1502.0;YAW;1516.0;THROTTLE;1057.0;AUX1;1680.0;AUX2;1500.0;AUX3;1500.0;AUX4;1500.0
ALTITUDE;0.0
DEBUG;DEBUG10.0;DEBUG2;0.0;DEBUG3;0.0;DEBUG4;0.0
ATTITUDE;ANGX;0.0;ANGY;0.0;HEAD;172.0
STATUS;CYCLETIME;2940;I2CERR;0;PRESENT;23;MODE;0
RAW_IMU;AX;-1.0;AY;0.0;AZ;254.0;GX;0.0;GY;0.0;GZ;0.0;MAGX;-25.0;MAGY;-76.0;MAGZ;68.0
MOT;0;1000.0;1;1000.0;2;1000.0;3;1000.0;4;0.0;5;0.0;6;0.0;7;0.0;
RC;ROLL;1494.0;PITCH;1506.0;YAW;1519.0;THROTTLE;1057.0;AUX1;1680.0;AUX2;1500.0;AUX3;1500.0;AUX4;1500.0
ALTITUDE;0.0
DEBUG;DEBUG10.0;DEBUG2;0.0;DEBUG3;0.0;DEBUG4;0.0
ATTITUDE;ANGX;0.0;ANGY;0.0;HEAD;172.0
STATUS;CYCLETIME;2908;I2CERR;0;PRESENT;23;MODE;0
RAW_IMU;AX;-1.0;AY;-1.0;AZ;254.0;GX;0.0;GY;0.0;GZ;0.0;MAGX;-25.0;MAGY;-76.0;MAGZ;68.0
MOT;0;1000.0;1;1000.0;2;1000.0;3;1000.0;4;0.0;5;0.0;6;0.0;7;0.0;
RC;ROLL;1494.0;PITCH;1506.0;YAW;1519.0;THROTTLE;1061.0;AUX1;1680.0;AUX2;1500.0;AUX3;1500.0;AUX4;1500.0
ALTITUDE;0.0
DEBUG;DEBUG10.0;DEBUG2;0.0;DEBUG3;0.0;DEBUG4;0.0
ATTITUDE;ANGX;0.0;ANGY;0.0;HEAD;172.0
STATUS;CYCLETIME;3108;I2CERR;0;PRESENT;23;MODE;0
RAW_IMU;AX;-2.0;AY;0.0;AZ;254.0;GX;0.0;GY;0.0;GZ;0.0;MAGX;-25.0;MAGY;-76.0;MAGZ;69.0
MOT;0;1000.0;1;1000.0;2;1000.0;3;1000.0;4;0.0;5;0.0;6;0.0;7;0.0;
RC;ROLL;1494.0;PITCH;1504.0;YAW;1517.0;THROTTLE;1061.0;AUX1;1680.0;AUX2;1500.0;AUX3;1500.0;AUX4;1500.0
ALTITUDE;0.0
DEBUG;DEBUG10.0;DEBUG2;0.0;DEBUG3;0.0;DEBUG4;0.0
ATTITUDE;ANGX;0.0;ANGY;0.0;HEAD;172.0
STATUS;CYCLETIME;2808;I2CERR;0;PRESENT;23;MODE;0
RAW_IMU;AX;-4.0;AY;0.0;AZ;252.0;GX;0.0;GY;0.0;GZ;0.0;MAGX;-25.0;MAGY;-76.0;MAGZ;69.0
MOT;0;1000.0;1;1000.0;2;1000.0;3;1000.0;4;0.0;5;0.0;6;0.0;7;0.0;
RC;ROLL;1494.0;PITCH;1504.0;YAW;1517.0;THROTTLE;1063.0;AUX1;1678.0;AUX2;1500.0;AUX3;1500.0;AUX4;1500.0
ALTITUDE;0.0
DEBUG;DEBUG10.0;DEBUG2;0.0;DEBUG3;0.0;DEBUG4;0.0
ATTITUDE;ANGX;0.0;ANGY;0.0;HEAD;172.0
STATUS;CYCLETIME;2832;I2CERR;0;PRESENT;23;MODE;0
RAW_IMU;AX;-4.0;AY;-1.0;AZ;253.0;GX;0.0;GY;0.0;GZ;0.0;MAGX;-26.0;MAGY;-75.0;MAGZ;70.0
MOT;0;1000.0;1;1000.0;2;1000.0;3;1000.0;4;0.0;5;0.0;6;0.0;7;0.0;
RC;ROLL;1494.0;PITCH;1504.0;YAW;1517.0;THROTTLE;1060.0;AUX1;1682.0;AUX2;1500.0;AUX3;1500.0;AUX4;1500.0
ALTITUDE;0.0
DEBUG;DEBUG10.0;DEBUG2;0.0;DEBUG3;0.0;DEBUG4;0.0
ATTITUDE;ANGX;0.0;ANGY;0.0;HEAD;172.0
STATUS;CYCLETIME;2824;I2CERR;0;PRESENT;23;MODE;0
RAW_IMU;AX;-2.0;AY;-1.0;AZ;253.0;GX;0.0;GY;0.0;GZ;0.0;MAGX;-26.0;MAGY;-75.0;MAGZ;70.0
MOT;0;1000.0;1;1000.0;2;1000.0;3;1000.0;4;0.0;5;0.0;6;0.0;7;0.0;
RC;ROLL;1494.0;PITCH;1504.0;YAW;1517.0;THROTTLE;1060.0;AUX1;1682.0;AUX2;1500.0;AUX3;1500.0;AUX4;1500.0
ALTITUDE;0.0
DEBUG;DEBUG10.0;DEBUG2;0.0;DEBUG3;0.0;DEBUG4;0.0
ATTITUDE;ANGX;0.0;ANGY;0.0;HEAD;172.0
STATUS;CYCLETIME;2804;I2CERR;0;PRESENT;23;MODE;0
RAW_IMU;AX;-5.0;AY;-1.0;AZ;253.0;GX;0.0;GY;0.0;GZ;0.0;MAGX;-26.0;MAGY;-75.0;MAGZ;70.0
MOT;0;1000.0;1;1000.0;2;1000.0;3;1000.0;4;0.0;5;0.0;6;0.0;7;0.0;
RC;ROLL;1494.0;PITCH;1504.0;YAW;1517.0;THROTTLE;1060.0;AUX1;1680.0;AUX2;1500.0;AUX3;1500.0;AUX4;1500.0
ALTITUDE;0.0
DEBUG;DEBUG10.0;DEBUG2;0.0;DEBUG3;0.0;DEBUG4;0.0
ATTITUDE;ANGX;0.0;ANGY;0.0;HEAD;172.0
STATUS;CYCLETIME;2876;I2CERR;0;PRESENT;23;MODE;0
RAW_IMU;AX;-4.0;AY;-1.0;AZ;251.0;GX;0.0;GY;0.0;GZ;0.0;MAGX;-26.0;MAGY;-76.0;MAGZ;68.0
MOT;0;1000.0;1;1000.0;2;1000.0;3;1000.0;4;0.0;5;0.0;6;0.0;7;0.0;
RC;ROLL;1494.0;PITCH;1504.0;YAW;1517.0;THROTTLE;1060.0;AUX1;1680.0;AUX2;1500.0;AUX3;1500.0;AUX4;1500.0
ALTITUDE;0.0
DEBUG;DEBUG10.0;DEBUG2;0.0;DEBUG3;0.0;DEBUG4;0.0
ATTITUDE;ANGX;0.0;ANGY;0.0;HEAD;172.0
STATUS;CYCLETIME;2792;I2CERR;0;PRESENT;23;MODE;0
RAW_IMU;AX;-3.0;AY;-4.0;AZ;254.0;GX;0.0;GY;0.0;GZ;0.0;MAGX;-26.0;MAGY;-76.0;MAGZ;68.0
MOT;0;1000.0;1;1000.0;2;1000.0;3;1000.0;4;0.0;5;0.0;6;0.0;7;0.0;
RC;ROLL;1494.0;PITCH;1504.0;YAW;1514.0;THROTTLE;1060.0;AUX1;1680.0;AUX2;1500.0;AUX3;1500.0;AUX4;1500.0
ALTITUDE;0.0
DEBUG;DEBUG10.0;DEBUG2;0.0;DEBUG3;0.0;DEBUG4;0.0
ATTITUDE;ANGX;0.0;ANGY;0.0;HEAD;172.0
STATUS;CYCLETIME;2836;I2CERR;0;PRESENT;23;MODE;0
RAW_IMU;AX;-5.0;AY;-3.0;AZ;252.0;GX;0.0;GY;0.0;GZ;0.0;MAGX;-26.0;MAGY;-75.0;MAGZ;68.0
MOT;0;1000.0;1;1000.0;2;1000.0;3;1000.0;4;0.0;5;0.0;6;0.0;7;0.0;
RC;ROLL;1494.0;PITCH;1502.0;YAW;1514.0;THROTTLE;1063.0;AUX1;1680.0;AUX2;1500.0;AUX3;1500.0;AUX4;1500.0
ALTITUDE;0.0
DEBUG;DEBUG10.0;DEBUG2;0.0;DEBUG3;0.0;DEBUG4;0.0
ATTITUDE;ANGX;0.0;ANGY;0.0;HEAD;172.0
STATUS;CYCLETIME;2908;I2CERR;0;PRESENT;23;MODE;0
RAW_IMU;AX;-4.0;AY;-1.0;AZ;252.0;GX;0.0;GY;0.0;GZ;0.0;MAGX;-26.0;MAGY;-75.0;MAGZ;68.0
MOT;0;1000.0;1;1000.0;2;1000.0;3;1000.0;4;0.0;5;0.0;6;0.0;7;0.0;
RC;ROLL;1494.0;PITCH;1500.0;YAW;1514.0;THROTTLE;1063.0;AUX1;1680.0;AUX2;1500.0;AUX3;1500.0;AUX4;1500.0
ALTITUDE;0.0
DEBUG;DEBUG10.0;DEBUG2;0.0;DEBUG3;0.0;DEBUG4;0.0
ATTITUDE;ANGX;0.0;ANGY;0.0;HEAD;172.0
STATUS;CYCLETIME;2768;I2CERR;0;PRESENT;23;MODE;0
RAW_IMU;AX;-4.0;AY;-3.0;AZ;252.0;GX;0.0;GY;0.0;GZ;0.0;MAGX;-25.0;MAGY;-75.0;MAGZ;69.0
MOT;0;1000.0;1;1000.0;2;1000.0;3;1000.0;4;0.0;5;0.0;6;0.0;7;0.0;
RC;ROLL;1494.0;PITCH;1500.0;YAW;1514.0;THROTTLE;1063.0;AUX1;1680.0;AUX2;1500.0;AUX3;1500.0;AUX4;1500.0
ALTITUDE;0.0
DEBUG;DEBUG10.0;DEBUG2;0.0;DEBUG3;0.0;DEBUG4;0.0
ATTITUDE;ANGX;0.0;ANGY;0.0;HEAD;172.0
STATUS;CYCLETIME;2812;I2CERR;0;PRESENT;23;MODE;0
RAW_IMU;AX;-5.0;AY;-3.0;AZ;253.0;GX;0.0;GY;0.0;GZ;0.0;MAGX;-25.0;MAGY;-75.0;MAGZ;69.0
MOT;0;1000.0;1;1000.0;2;1000.0;3;1000.0;4;0.0;5;0.0;6;0.0;7;0.0;
RC;ROLL;1494.0;PITCH;1502.0;YAW;1514.0;THROTTLE;1063.0;AUX1;1680.0;AUX2;1500.0;AUX3;1500.0;AUX4;1500.0
ALTITUDE;0.0
DEBUG;DEBUG10.0;DEBUG2;0.0;DEBUG3;0.0;DEBUG4;0.0
ATTITUDE;ANGX;0.0;ANGY;0.0;HEAD;172.0
STATUS;CYCLETIME;2888;I2CERR;0;PRESENT;23;MODE;0
RAW_IMU;AX;-6.0;AY;-3.0;AZ;251.0;GX;0.0;GY;0.0;GZ;0.0;MAGX;-26.0;MAGY;-75.0;MAGZ;68.0
MOT;0;1000.0;1;1000.0;2;1000.0;3;1000.0;4;0.0;5;0.0;6;0.0;7;0.0;
RC;ROLL;1494.0;PITCH;1505.0;YAW;1514.0;THROTTLE;1063.0;AUX1;1680.0;AUX2;1500.0;AUX3;1500.0;AUX4;1500.0
ALTITUDE;0.0
DEBUG;DEBUG10.0;DEBUG2;0.0;DEBUG3;0.0;DEBUG4;0.0
ATTITUDE;ANGX;0.0;ANGY;0.0;HEAD;172.0
STATUS;CYCLETIME;2804;I2CERR;0;PRESENT;23;MODE;0
RAW_IMU;AX;-5.0;AY;-3.0;AZ;253.0;GX;0.0;GY;0.0;GZ;0.0;MAGX;-26.0;MAGY;-75.0;MAGZ;68.0
MOT;0;1000.0;1;1000.0;2;1000.0;3;1000.0;4;0.0;5;0.0;6;0.0;7;0.0;
RC;ROLL;1494.0;PITCH;1505.0;YAW;1514.0;THROTTLE;1063.0;AUX1;1680.0;AUX2;1500.0;AUX3;1500.0;AUX4;1500.0
ALTITUDE;0.0
DEBUG;DEBUG10.0;DEBUG2;0.0;DEBUG3;0.0;DEBUG4;0.0
ATTITUDE;ANGX;0.0;ANGY;0.0;HEAD;172.0
STATUS;CYCLETIME;2900;I2CERR;0;PRESENT;23;MODE;0
RAW_IMU;AX;-1.0;AY;-2.0;AZ;255.0;GX;0.0;GY;0.0;GZ;0.0;MAGX;-25.0;MAGY;-76.0;MAGZ;69.0
MOT;0;1000.0;1;1000.0;2;1000.0;3;1000.0;4;0.0;5;0.0;6;0.0;7;0.0;
RC;ROLL;1494.0;PITCH;1505.0;YAW;1514.0;THROTTLE;1063.0;AUX1;1680.0;AUX2;1500.0;AUX3;1500.0;AUX4;1500.0
ALTITUDE;0.0
DEBUG;DEBUG10.0;DEBUG2;0.0;DEBUG3;0.0;DEBUG4;0.0
ATTITUDE;ANGX;0.0;ANGY;0.0;HEAD;172.0
STATUS;CYCLETIME;2996;I2CERR;0;PRESENT;23;MODE;0
RAW_IMU;AX;-5.0;AY;-3.0;AZ;254.0;GX;0.0;GY;0.0;GZ;0.0;MAGX;-25.0;MAGY;-76.0;MAGZ;69.0
MOT;0;1000.0;1;1000.0;2;1000.0;3;1000.0;4;0.0;5;0.0;6;0.0;7;0.0;
RC;ROLL;1494.0;PITCH;1505.0;YAW;1514.0;THROTTLE;1061.0;AUX1;1680.0;AUX2;1500.0;AUX3;1500.0;AUX4;1500.0
ALTITUDE;0.0
DEBUG;DEBUG10.0;DEBUG2;0.0;DEBUG3;0.0;DEBUG4;0.0
ATTITUDE;ANGX;0.0;ANGY;0.0;HEAD;172.0
STATUS;CYCLETIME;2864;I2CERR;0;PRESENT;23;MODE;0
RAW_IMU;AX;-5.0;AY;-2.0;AZ;255.0;GX;0.0;GY;0.0;GZ;0.0;MAGX;-25.0;MAGY;-76.0;MAGZ;68.0
MOT;0;1000.0;1;1000.0;2;1000.0;3;1000.0;4;0.0;5;0.0;6;0.0;7;0.0;
RC;ROLL;1494.0;PITCH;1505.0;YAW;1514.0;THROTTLE;1061.0;AUX1;1680.0;AUX2;1500.0;AUX3;1500.0;AUX4;1500.0
ALTITUDE;0.0
DEBUG;DEBUG10.0;DEBUG2;0.0;DEBUG3;0.0;DEBUG4;0.0
ATTITUDE;ANGX;0.0;ANGY;0.0;HEAD;172.0
STATUS;CYCLETIME;2920;I2CERR;0;PRESENT;23;MODE;0
RAW_IMU;AX;-4.0;AY;-4.0;AZ;254.0;GX;0.0;GY;0.0;GZ;0.0;MAGX;-25.0;MAGY;-76.0;MAGZ;68.0
MOT;0;1000.0;1;1000.0;2;1000.0;3;1000.0;4;0.0;5;0.0;6;0.0;7;0.0;
RC;ROLL;1494.0;PITCH;1501.0;YAW;1514.0;THROTTLE;1061.0;AUX1;1680.0;AUX2;1500.0;AUX3;1500.0;AUX4;1500.0
ALTITUDE;0.0
DEBUG;DEBUG10.0;DEBUG2;0.0;DEBUG3;0.0;DEBUG4;0.0
ATTITUDE;ANGX;0.0;ANGY;0.0;HEAD;172.0
STATUS;CYCLETIME;2892;I2CERR;0;PRESENT;23;MODE;0
RAW_IMU;AX;-6.0;AY;-3.0;AZ;255.0;GX;0.0;GY;0.0;GZ;0.0;MAGX;-25.0;MAGY;-76.0;MAGZ;68.0
MOT;0;1000.0;1;1000.0;2;1000.0;3;1000.0;4;0.0;5;0.0;6;0.0;7;0.0;
RC;ROLL;1491.0;PITCH;1501.0;YAW;1514.0;THROTTLE;1061.0;AUX1;1680.0;AUX2;1500.0;AUX3;1500.0;AUX4;1500.0
ALTITUDE;0.0
DEBUG;DEBUG10.0;DEBUG2;0.0;DEBUG3;0.0;DEBUG4;0.0
ATTITUDE;ANGX;0.0;ANGY;0.0;HEAD;172.0
STATUS;CYCLETIME;2868;I2CERR;0;PRESENT;23;MODE;0
RAW_IMU;AX;-5.0;AY;-3.0;AZ;256.0;GX;0.0;GY;0.0;GZ;0.0;MAGX;-25.0;MAGY;-76.0;MAGZ;68.0
MOT;0;1000.0;1;1000.0;2;1000.0;3;1000.0;4;0.0;5;0.0;6;0.0;7;0.0;
RC;ROLL;1496.0;PITCH;1501.0;YAW;1517.0;THROTTLE;1059.0;AUX1;1682.0;AUX2;1500.0;AUX3;1500.0;AUX4;1500.0
ALTITUDE;0.0
DEBUG;DEBUG10.0;DEBUG2;0.0;DEBUG3;0.0;DEBUG4;0.0
ATTITUDE;ANGX;0.0;ANGY;0.0;HEAD;172.0
STATUS;CYCLETIME;2872;I2CERR;0;PRESENT;23;MODE;0
RAW_IMU;AX;-4.0;AY;-2.0;AZ;253.0;GX;0.0;GY;0.0;GZ;0.0;MAGX;-26.0;MAGY;-77.0;MAGZ;70.0
MOT;0;1000.0;1;1000.0;2;1000.0;3;1000.0;4;0.0;5;0.0;6;0.0;7;0.0;
RC;ROLL;1499.0;PITCH;1501.0;YAW;1517.0;THROTTLE;1059.0;AUX1;1682.0;AUX2;1500.0;AUX3;1500.0;AUX4;1500.0
ALTITUDE;0.0
DEBUG;DEBUG10.0;DEBUG2;0.0;DEBUG3;0.0;DEBUG4;0.0
ATTITUDE;ANGX;0.0;ANGY;0.0;HEAD;172.0
STATUS;CYCLETIME;2888;I2CERR;0;PRESENT;23;MODE;0
RAW_IMU;AX;-3.0;AY;-1.0;AZ;254.0;GX;0.0;GY;0.0;GZ;0.0;MAGX;-26.0;MAGY;-77.0;MAGZ;70.0
MOT;0;1000.0;1;1000.0;2;1000.0;3;1000.0;4;0.0;5;0.0;6;0.0;7;0.0;
RC;ROLL;1499.0;PITCH;1501.0;YAW;1517.0;THROTTLE;1057.0;AUX1;1682.0;AUX2;1500.0;AUX3;1500.0;AUX4;1500.0
ALTITUDE;0.0
DEBUG;DEBUG10.0;DEBUG2;0.0;DEBUG3;0.0;DEBUG4;0.0
ATTITUDE;ANGX;0.0;ANGY;0.0;HEAD;172.0
STATUS;CYCLETIME;2916;I2CERR;0;PRESENT;23;MODE;0
RAW_IMU;AX;-5.0;AY;-1.0;AZ;254.0;GX;0.0;GY;0.0;GZ;0.0;MAGX;-26.0;MAGY;-77.0;MAGZ;70.0
MOT;0;1000.0;1;1000.0;2;1000.0;3;1000.0;4;0.0;5;0.0;6;0.0;7;0.0;
RC;ROLL;1496.0;PITCH;1504.0;YAW;1517.0;THROTTLE;1055.0;AUX1;1682.0;AUX2;1500.0;AUX3;1500.0;AUX4;1500.0
ALTITUDE;0.0
DEBUG;DEBUG10.0;DEBUG2;0.0;DEBUG3;0.0;DEBUG4;0.0
ATTITUDE;ANGX;0.0;ANGY;0.0;HEAD;172.0
STATUS;CYCLETIME;2804;I2CERR;0;PRESENT;23;MODE;0
RAW_IMU;AX;-4.0;AY;-1.0;AZ;253.0;GX;0.0;GY;0.0;GZ;0.0;MAGX;-24.0;MAGY;-76.0;MAGZ;69.0
MOT;0;1000.0;1;1000.0;2;1000.0;3;1000.0;4;0.0;5;0.0;6;0.0;7;0.0;
RC;ROLL;1494.0;PITCH;1504.0;YAW;1517.0;THROTTLE;1059.0;AUX1;1671.0;AUX2;1500.0;AUX3;1500.0;AUX4;1500.0
ALTITUDE;0.0
DEBUG;DEBUG10.0;DEBUG2;0.0;DEBUG3;0.0;DEBUG4;0.0
ATTITUDE;ANGX;0.0;ANGY;0.0;HEAD;172.0
STATUS;CYCLETIME;2816;I2CERR;0;PRESENT;23;MODE;0
RAW_IMU;AX;-3.0;AY;-1.0;AZ;254.0;GX;0.0;GY;0.0;GZ;0.0;MAGX;-24.0;MAGY;-76.0;MAGZ;69.0
MOT;0;1000.0;1;1000.0;2;1000.0;3;1000.0;4;0.0;5;0.0;6;0.0;7;0.0;
RC;ROLL;1494.0;PITCH;1504.0;YAW;1514.0;THROTTLE;1061.0;AUX1;1661.0;AUX2;1500.0;AUX3;1500.0;AUX4;1500.0
ALTITUDE;0.0
DEBUG;DEBUG10.0;DEBUG2;0.0;DEBUG3;0.0;DEBUG4;0.0
ATTITUDE;ANGX;0.0;ANGY;0.0;HEAD;172.0
STATUS;CYCLETIME;2796;I2CERR;0;PRESENT;23;MODE;0
RAW_IMU;AX;-3.0;AY;-1.0;AZ;254.0;GX;0.0;GY;0.0;GZ;0.0;MAGX;-24.0;MAGY;-76.0;MAGZ;68.0
MOT;0;1000.0;1;1000.0;2;1000.0;3;1000.0;4;0.0;5;0.0;6;0.0;7;0.0;
RC;ROLL;1494.0;PITCH;1504.0;YAW;1514.0;THROTTLE;1061.0;AUX1;1652.0;AUX2;1500.0;AUX3;1500.0;AUX4;1500.0
ALTITUDE;0.0
DEBUG;DEBUG10.0;DEBUG2;0.0;DEBUG3;0.0;DEBUG4;0.0
ATTITUDE;ANGX;0.0;ANGY;0.0;HEAD;172.0
STATUS;CYCLETIME;2784;I2CERR;0;PRESENT;23;MODE;0
RAW_IMU;AX;-4.0;AY;-2.0;AZ;255.0;GX;0.0;GY;0.0;GZ;0.0;MAGX;-24.0;MAGY;-76.0;MAGZ;68.0
MOT;0;1000.0;1;1000.0;2;1000.0;3;1000.0;4;0.0;5;0.0;6;0.0;7;0.0;
RC;ROLL;1494.0;PITCH;1504.0;YAW;1514.0;THROTTLE;1061.0;AUX1;1645.0;AUX2;1500.0;AUX3;1500.0;AUX4;1500.0
ALTITUDE;0.0
DEBUG;DEBUG10.0;DEBUG2;0.0;DEBUG3;0.0;DEBUG4;0.0
ATTITUDE;ANGX;0.0;ANGY;0.0;HEAD;172.0
STATUS;CYCLETIME;2796;I2CERR;0;PRESENT;23;MODE;0
RAW_IMU;AX;-5.0;AY;-1.0;AZ;254.0;GX;0.0;GY;0.0;GZ;0.0;MAGX;-25.0;MAGY;-76.0;MAGZ;69.0
MOT;0;1000.0;1;1000.0;2;1000.0;3;1000.0;4;0.0;5;0.0;6;0.0;7;0.0;
RC;ROLL;1494.0;PITCH;1502.0;YAW;1514.0;THROTTLE;1061.0;AUX1;1642.0;AUX2;1500.0;AUX3;1500.0;AUX4;1500.0
ALTITUDE;0.0
DEBUG;DEBUG10.0;DEBUG2;0.0;DEBUG3;0.0;DEBUG4;0.0
ATTITUDE;ANGX;0.0;ANGY;0.0;HEAD;172.0
STATUS;CYCLETIME;2740;I2CERR;0;PRESENT;23;MODE;0
RAW_IMU;AX;-5.0;AY;-1.0;AZ;254.0;GX;0.0;GY;0.0;GZ;0.0;MAGX;-25.0;MAGY;-76.0;MAGZ;69.0
MOT;0;1000.0;1;1000.0;2;1000.0;3;1000.0;4;0.0;5;0.0;6;0.0;7;0.0;
RC;ROLL;1494.0;PITCH;1502.0;YAW;1514.0;THROTTLE;1061.0;AUX1;1633.0;AUX2;1500.0;AUX3;1500.0;AUX4;1500.0
ALTITUDE;0.0
DEBUG;DEBUG10.0;DEBUG2;0.0;DEBUG3;0.0;DEBUG4;0.0
ATTITUDE;ANGX;0.0;ANGY;0.0;HEAD;172.0
STATUS;CYCLETIME;2780;I2CERR;0;PRESENT;23;MODE;0
RAW_IMU;AX;-4.0;AY;-1.0;AZ;255.0;GX;0.0;GY;0.0;GZ;0.0;MAGX;-25.0;MAGY;-75.0;MAGZ;69.0
MOT;0;1000.0;1;1000.0;2;1000.0;3;1000.0;4;0.0;5;0.0;6;0.0;7;0.0;
RC;ROLL;1494.0;PITCH;1500.0;YAW;1514.0;THROTTLE;1061.0;AUX1;1624.0;AUX2;1500.0;AUX3;1500.0;AUX4;1500.0
ALTITUDE;0.0
DEBUG;DEBUG10.0;DEBUG2;0.0;DEBUG3;0.0;DEBUG4;0.0
ATTITUDE;ANGX;0.0;ANGY;0.0;HEAD;172.0
STATUS;CYCLETIME;2772;I2CERR;0;PRESENT;23;MODE;0
RAW_IMU;AX;-4.0;AY;0.0;AZ;255.0;GX;0.0;GY;0.0;GZ;0.0;MAGX;-25.0;MAGY;-75.0;MAGZ;69.0
MOT;0;1000.0;1;1000.0;2;1000.0;3;1000.0;4;0.0;5;0.0;6;0.0;7;0.0;
RC;ROLL;1494.0;PITCH;1500.0;YAW;1514.0;THROTTLE;1061.0;AUX1;1617.0;AUX2;1500.0;AUX3;1500.0;AUX4;1500.0
ALTITUDE;0.0
DEBUG;DEBUG10.0;DEBUG2;0.0;DEBUG3;0.0;DEBUG4;0.0
ATTITUDE;ANGX;0.0;ANGY;0.0;HEAD;172.0
STATUS;CYCLETIME;2792;I2CERR;0;PRESENT;23;MODE;0
RAW_IMU;AX;-5.0;AY;-2.0;AZ;253.0;GX;0.0;GY;0.0;GZ;0.0;MAGX;-26.0;MAGY;-76.0;MAGZ;68.0
MOT;0;1000.0;1;1000.0;2;1000.0;3;1000.0;4;0.0;5;0.0;6;0.0;7;0.0;
RC;ROLL;1496.0;PITCH;1500.0;YAW;1514.0;THROTTLE;1063.0;AUX1;1606.0;AUX2;1500.0;AUX3;1500.0;AUX4;1500.0
ALTITUDE;0.0
DEBUG;DEBUG10.0;DEBUG2;0.0;DEBUG3;0.0;DEBUG4;0.0
ATTITUDE;ANGX;0.0;ANGY;0.0;HEAD;172.0
STATUS;CYCLETIME;2840;I2CERR;0;PRESENT;23;MODE;0
RAW_IMU;AX;-4.0;AY;-1.0;AZ;254.0;GX;0.0;GY;0.0;GZ;0.0;MAGX;-26.0;MAGY;-76.0;MAGZ;68.0
MOT;0;1000.0;1;1000.0;2;1000.0;3;1000.0;4;0.0;5;0.0;6;0.0;7;0.0;
RC;ROLL;1496.0;PITCH;1500.0;YAW;1514.0;THROTTLE;1063.0;AUX1;1597.0;AUX2;1500.0;AUX3;1500.0;AUX4;1500.0
ALTITUDE;0.0
DEBUG;DEBUG10.0;DEBUG2;0.0;DEBUG3;0.0;DEBUG4;0.0
ATTITUDE;ANGX;0.0;ANGY;0.0;HEAD;172.0
STATUS;CYCLETIME;2744;I2CERR;0;PRESENT;23;MODE;0
RAW_IMU;AX;-4.0;AY;-1.0;AZ;255.0;GX;0.0;GY;0.0;GZ;0.0;MAGX;-26.0;MAGY;-77.0;MAGZ;69.0
MOT;0;1000.0;1;1000.0;2;1000.0;3;1000.0;4;0.0;5;0.0;6;0.0;7;0.0;
RC;ROLL;1496.0;PITCH;1500.0;YAW;1514.0;THROTTLE;1060.0;AUX1;1590.0;AUX2;1500.0;AUX3;1500.0;AUX4;1500.0
ALTITUDE;0.0
DEBUG;DEBUG10.0;DEBUG2;0.0;DEBUG3;0.0;DEBUG4;0.0
ATTITUDE;ANGX;0.0;ANGY;0.0;HEAD;172.0
STATUS;CYCLETIME;2784;I2CERR;0;PRESENT;23;MODE;0
RAW_IMU;AX;-3.0;AY;-3.0;AZ;254.0;GX;0.0;GY;0.0;GZ;0.0;MAGX;-26.0;MAGY;-77.0;MAGZ;69.0
MOT;0;1000.0;1;1000.0;2;1000.0;3;1000.0;4;0.0;5;0.0;6;0.0;7;0.0;
RC;ROLL;1496.0;PITCH;1500.0;YAW;1516.0;THROTTLE;1060.0;AUX1;1582.0;AUX2;1500.0;AUX3;1500.0;AUX4;1500.0
ALTITUDE;0.0
DEBUG;DEBUG10.0;DEBUG2;0.0;DEBUG3;0.0;DEBUG4;0.0
ATTITUDE;ANGX;0.0;ANGY;0.0;HEAD;172.0
STATUS;CYCLETIME;2788;I2CERR;0;PRESENT;23;MODE;0
RAW_IMU;AX;-4.0;AY;-2.0;AZ;255.0;GX;0.0;GY;0.0;GZ;0.0;MAGX;-24.0;MAGY;-76.0;MAGZ;68.0
MOT;0;1000.0;1;1000.0;2;1000.0;3;1000.0;4;0.0;5;0.0;6;0.0;7;0.0;
RC;ROLL;1496.0;PITCH;1500.0;YAW;1516.0;THROTTLE;1057.0;AUX1;1576.0;AUX2;1500.0;AUX3;1500.0;AUX4;1500.0
ALTITUDE;0.0
DEBUG;DEBUG10.0;DEBUG2;0.0;DEBUG3;0.0;DEBUG4;0.0
ATTITUDE;ANGX;0.0;ANGY;0.0;HEAD;172.0
STATUS;CYCLETIME;2844;I2CERR;0;PRESENT;23;MODE;0
RAW_IMU;AX;-5.0;AY;-2.0;AZ;256.0;GX;0.0;GY;0.0;GZ;0.0;MAGX;-24.0;MAGY;-76.0;MAGZ;68.0
MOT;0;1000.0;1;1000.0;2;1000.0;3;1000.0;4;0.0;5;0.0;6;0.0;7;0.0;
RC;ROLL;1496.0;PITCH;1502.0;YAW;1521.0;THROTTLE;1057.0;AUX1;1567.0;AUX2;1500.0;AUX3;1500.0;AUX4;1500.0
ALTITUDE;0.0
DEBUG;DEBUG10.0;DEBUG2;0.0;DEBUG3;0.0;DEBUG4;0.0
ATTITUDE;ANGX;0.0;ANGY;0.0;HEAD;172.0
STATUS;CYCLETIME;2792;I2CERR;0;PRESENT;23;MODE;0
RAW_IMU;AX;-4.0;AY;0.0;AZ;253.0;GX;0.0;GY;0.0;GZ;0.0;MAGX;-25.0;MAGY;-76.0;MAGZ;69.0
MOT;0;1000.0;1;1000.0;2;1000.0;3;1000.0;4;0.0;5;0.0;6;0.0;7;0.0;
RC;ROLL;1498.0;PITCH;1499.0;YAW;1526.0;THROTTLE;1057.0;AUX1;1556.0;AUX2;1500.0;AUX3;1500.0;AUX4;1500.0
ALTITUDE;0.0
DEBUG;DEBUG10.0;DEBUG2;0.0;DEBUG3;0.0;DEBUG4;0.0
ATTITUDE;ANGX;0.0;ANGY;0.0;HEAD;172.0
STATUS;CYCLETIME;2788;I2CERR;0;PRESENT;23;MODE;0
RAW_IMU;AX;-2.0;AY;-1.0;AZ;252.0;GX;0.0;GY;0.0;GZ;0.0;MAGX;-25.0;MAGY;-76.0;MAGZ;69.0
MOT;0;1000.0;1;1000.0;2;1000.0;3;1000.0;4;0.0;5;0.0;6;0.0;7;0.0;
RC;ROLL;1498.0;PITCH;1499.0;YAW;1538.0;THROTTLE;1062.0;AUX1;1548.0;AUX2;1500.0;AUX3;1500.0;AUX4;1500.0
ALTITUDE;0.0
DEBUG;DEBUG10.0;DEBUG2;0.0;DEBUG3;0.0;DEBUG4;0.0
ATTITUDE;ANGX;0.0;ANGY;0.0;HEAD;172.0
STATUS;CYCLETIME;2816;I2CERR;0;PRESENT;23;MODE;0
RAW_IMU;AX;-4.0;AY;-4.0;AZ;253.0;GX;0.0;GY;0.0;GZ;0.0;MAGX;-25.0;MAGY;-76.0;MAGZ;68.0
MOT;0;1000.0;1;1000.0;2;1000.0;3;1000.0;4;0.0;5;0.0;6;0.0;7;0.0;
RC;ROLL;1498.0;PITCH;1497.0;YAW;1560.0;THROTTLE;1062.0;AUX1;1544.0;AUX2;1500.0;AUX3;1500.0;AUX4;1500.0
ALTITUDE;0.0
DEBUG;DEBUG10.0;DEBUG2;0.0;DEBUG3;0.0;DEBUG4;0.0
ATTITUDE;ANGX;0.0;ANGY;0.0;HEAD;172.0
STATUS;CYCLETIME;2812;I2CERR;0;PRESENT;23;MODE;0
RAW_IMU;AX;-5.0;AY;-3.0;AZ;255.0;GX;0.0;GY;0.0;GZ;0.0;MAGX;-25.0;MAGY;-76.0;MAGZ;68.0
MOT;0;1000.0;1;1000.0;2;1000.0;3;1000.0;4;0.0;5;0.0;6;0.0;7;0.0;
RC;ROLL;1496.0;PITCH;1504.0;YAW;1592.0;THROTTLE;1054.0;AUX1;1544.0;AUX2;1500.0;AUX3;1500.0;AUX4;1500.0
ALTITUDE;0.0
DEBUG;DEBUG10.0;DEBUG2;0.0;DEBUG3;0.0;DEBUG4;0.0
ATTITUDE;ANGX;0.0;ANGY;0.0;HEAD;172.0
STATUS;CYCLETIME;2816;I2CERR;0;PRESENT;23;MODE;0
RAW_IMU;AX;-7.0;AY;-3.0;AZ;253.0;GX;0.0;GY;0.0;GZ;0.0;MAGX;-25.0;MAGY;-75.0;MAGZ;69.0
MOT;0;1000.0;1;1000.0;2;1000.0;3;1000.0;4;0.0;5;0.0;6;0.0;7;0.0;
RC;ROLL;1496.0;PITCH;1502.0;YAW;1620.0;THROTTLE;1052.0;AUX1;1542.0;AUX2;1500.0;AUX3;1500.0;AUX4;1500.0
ALTITUDE;0.0
DEBUG;DEBUG10.0;DEBUG2;0.0;DEBUG3;0.0;DEBUG4;0.0
ATTITUDE;ANGX;0.0;ANGY;0.0;HEAD;172.0
STATUS;CYCLETIME;2808;I2CERR;0;PRESENT;23;MODE;0
RAW_IMU;AX;-4.0;AY;0.0;AZ;252.0;GX;0.0;GY;0.0;GZ;0.0;MAGX;-25.0;MAGY;-75.0;MAGZ;69.0
MOT;0;1000.0;1;1000.0;2;1000.0;3;1000.0;4;0.0;5;0.0;6;0.0;7;0.0;
RC;ROLL;1496.0;PITCH;1502.0;YAW;1651.0;THROTTLE;1052.0;AUX1;1542.0;AUX2;1500.0;AUX3;1500.0;AUX4;1500.0
ALTITUDE;0.0
DEBUG;DEBUG10.0;DEBUG2;0.0;DEBUG3;0.0;DEBUG4;0.0
ATTITUDE;ANGX;0.0;ANGY;0.0;HEAD;172.0
STATUS;CYCLETIME;2772;I2CERR;0;PRESENT;23;MODE;0
RAW_IMU;AX;-5.0;AY;-2.0;AZ;251.0;GX;0.0;GY;0.0;GZ;0.0;MAGX;-25.0;MAGY;-76.0;MAGZ;69.0
MOT;0;1000.0;1;1000.0;2;1000.0;3;1000.0;4;0.0;5;0.0;6;0.0;7;0.0;
RC;ROLL;1496.0;PITCH;1504.0;YAW;1692.0;THROTTLE;1052.0;AUX1;1544.0;AUX2;1500.0;AUX3;1500.0;AUX4;1500.0
ALTITUDE;0.0
DEBUG;DEBUG10.0;DEBUG2;0.0;DEBUG3;0.0;DEBUG4;0.0
ATTITUDE;ANGX;0.0;ANGY;0.0;HEAD;172.0
STATUS;CYCLETIME;2780;I2CERR;0;PRESENT;23;MODE;0
RAW_IMU;AX;-3.0;AY;-1.0;AZ;251.0;GX;0.0;GY;0.0;GZ;0.0;MAGX;-25.0;MAGY;-76.0;MAGZ;69.0
MOT;0;1000.0;1;1000.0;2;1000.0;3;1000.0;4;0.0;5;0.0;6;0.0;7;0.0;
RC;ROLL;1496.0;PITCH;1504.0;YAW;1723.0;THROTTLE;1054.0;AUX1;1544.0;AUX2;1500.0;AUX3;1500.0;AUX4;1500.0
ALTITUDE;0.0
DEBUG;DEBUG10.0;DEBUG2;0.0;DEBUG3;0.0;DEBUG4;0.0
ATTITUDE;ANGX;0.0;ANGY;0.0;HEAD;172.0
STATUS;CYCLETIME;2784;I2CERR;0;PRESENT;23;MODE;0
RAW_IMU;AX;-2.0;AY;-3.0;AZ;249.0;GX;0.0;GY;0.0;GZ;0.0;MAGX;-26.0;MAGY;-76.0;MAGZ;69.0
MOT;0;1000.0;1;1000.0;2;1000.0;3;1000.0;4;0.0;5;0.0;6;0.0;7;0.0;
RC;ROLL;1496.0;PITCH;1504.0;YAW;1759.0;THROTTLE;1052.0;AUX1;1544.0;AUX2;1500.0;AUX3;1500.0;AUX4;1500.0
ALTITUDE;0.0
DEBUG;DEBUG10.0;DEBUG2;0.0;DEBUG3;0.0;DEBUG4;0.0
ATTITUDE;ANGX;0.0;ANGY;0.0;HEAD;172.0
STATUS;CYCLETIME;2800;I2CERR;0;PRESENT;23;MODE;0
RAW_IMU;AX;-6.0;AY;-3.0;AZ;254.0;GX;0.0;GY;0.0;GZ;0.0;MAGX;-26.0;MAGY;-76.0;MAGZ;69.0
MOT;0;1000.0;1;1000.0;2;1000.0;3;1000.0;4;0.0;5;0.0;6;0.0;7;0.0;
RC;ROLL;1496.0;PITCH;1501.0;YAW;1804.0;THROTTLE;1050.0;AUX1;1544.0;AUX2;1500.0;AUX3;1500.0;AUX4;1500.0
ALTITUDE;0.0
DEBUG;DEBUG10.0;DEBUG2;0.0;DEBUG3;0.0;DEBUG4;0.0
ATTITUDE;ANGX;0.0;ANGY;0.0;HEAD;172.0
STATUS;CYCLETIME;2772;I2CERR;0;PRESENT;23;MODE;0
RAW_IMU;AX;-5.0;AY;-2.0;AZ;254.0;GX;0.0;GY;0.0;GZ;0.0;MAGX;-25.0;MAGY;-76.0;MAGZ;69.0
MOT;0;1000.0;1;1000.0;2;1000.0;3;1000.0;4;0.0;5;0.0;6;0.0;7;0.0;
RC;ROLL;1496.0;PITCH;1501.0;YAW;1835.0;THROTTLE;1050.0;AUX1;1544.0;AUX2;1500.0;AUX3;1500.0;AUX4;1500.0
ALTITUDE;0.0
DEBUG;DEBUG10.0;DEBUG2;0.0;DEBUG3;0.0;DEBUG4;0.0
ATTITUDE;ANGX;0.0;ANGY;0.0;HEAD;172.0
STATUS;CYCLETIME;2780;I2CERR;0;PRESENT;23;MODE;0
RAW_IMU;AX;-5.0;AY;-2.0;AZ;253.0;GX;0.0;GY;0.0;GZ;0.0;MAGX;-25.0;MAGY;-76.0;MAGZ;69.0
MOT;0;1000.0;1;1000.0;2;1000.0;3;1000.0;4;0.0;5;0.0;6;0.0;7;0.0;
RC;ROLL;1496.0;PITCH;1501.0;YAW;1868.0;THROTTLE;1050.0;AUX1;1539.0;AUX2;1500.0;AUX3;1500.0;AUX4;1500.0
ALTITUDE;0.0
DEBUG;DEBUG10.0;DEBUG2;0.0;DEBUG3;0.0;DEBUG4;0.0
ATTITUDE;ANGX;0.0;ANGY;0.0;HEAD;172.0
STATUS;CYCLETIME;2784;I2CERR;0;PRESENT;23;MODE;0
RAW_IMU;AX;-3.0;AY;-2.0;AZ;254.0;GX;0.0;GY;0.0;GZ;0.0;MAGX;-25.0;MAGY;-76.0;MAGZ;69.0
MOT;0;1000.0;1;1000.0;2;1000.0;3;1000.0;4;0.0;5;0.0;6;0.0;7;0.0;
RC;ROLL;1496.0;PITCH;1501.0;YAW;1898.0;THROTTLE;1050.0;AUX1;1539.0;AUX2;1500.0;AUX3;1500.0;AUX4;1500.0
ALTITUDE;0.0
DEBUG;DEBUG10.0;DEBUG2;0.0;DEBUG3;0.0;DEBUG4;0.0
ATTITUDE;ANGX;0.0;ANGY;0.0;HEAD;172.0
STATUS;CYCLETIME;2808;I2CERR;0;PRESENT;23;MODE;0
RAW_IMU;AX;-4.0;AY;-2.0;AZ;254.0;GX;0.0;GY;0.0;GZ;0.0;MAGX;-25.0;MAGY;-76.0;MAGZ;70.0
MOT;0;1000.0;1;1000.0;2;1000.0;3;1000.0;4;0.0;5;0.0;6;0.0;7;0.0;
RC;ROLL;1493.0;PITCH;1503.0;YAW;1905.0;THROTTLE;1046.0;AUX1;1544.0;AUX2;1500.0;AUX3;1500.0;AUX4;1500.0
ALTITUDE;0.0
DEBUG;DEBUG10.0;DEBUG2;0.0;DEBUG3;0.0;DEBUG4;0.0
ATTITUDE;ANGX;0.0;ANGY;0.0;HEAD;172.0
STATUS;CYCLETIME;2792;I2CERR;0;PRESENT;23;MODE;0
RAW_IMU;AX;-7.0;AY;-2.0;AZ;255.0;GX;0.0;GY;0.0;GZ;0.0;MAGX;-25.0;MAGY;-76.0;MAGZ;70.0
MOT;0;1000.0;1;1000.0;2;1000.0;3;1000.0;4;0.0;5;0.0;6;0.0;7;0.0;
RC;ROLL;1493.0;PITCH;1503.0;YAW;1905.0;THROTTLE;1046.0;AUX1;1546.0;AUX2;1500.0;AUX3;1500.0;AUX4;1500.0
ALTITUDE;0.0
DEBUG;DEBUG10.0;DEBUG2;0.0;DEBUG3;0.0;DEBUG4;0.0
ATTITUDE;ANGX;0.0;ANGY;0.0;HEAD;172.0
STATUS;CYCLETIME;2784;I2CERR;0;PRESENT;23;MODE;0
RAW_IMU;AX;-7.0;AY;-1.0;AZ;255.0;GX;0.0;GY;0.0;GZ;0.0;MAGX;-25.0;MAGY;-76.0;MAGZ;69.0
MOT;0;1000.0;1;1000.0;2;1000.0;3;1000.0;4;0.0;5;0.0;6;0.0;7;0.0;
RC;ROLL;1493.0;PITCH;1505.0;YAW;1905.0;THROTTLE;1046.0;AUX1;1546.0;AUX2;1500.0;AUX3;1500.0;AUX4;1500.0
ALTITUDE;0.0
DEBUG;DEBUG10.0;DEBUG2;0.0;DEBUG3;0.0;DEBUG4;0.0
ATTITUDE;ANGX;0.0;ANGY;0.0;HEAD;172.0
STATUS;CYCLETIME;2928;I2CERR;0;PRESENT;23;MODE;0
RAW_IMU;AX;-8.0;AY;-2.0;AZ;254.0;GX;0.0;GY;0.0;GZ;0.0;MAGX;-25.0;MAGY;-76.0;MAGZ;69.0
MOT;0;1000.0;1;1000.0;2;1000.0;3;1000.0;4;0.0;5;0.0;6;0.0;7;0.0;
RC;ROLL;1493.0;PITCH;1509.0;YAW;1909.0;THROTTLE;1046.0;AUX1;1546.0;AUX2;1500.0;AUX3;1500.0;AUX4;1500.0
ALTITUDE;0.0
DEBUG;DEBUG10.0;DEBUG2;0.0;DEBUG3;0.0;DEBUG4;0.0
ATTITUDE;ANGX;0.0;ANGY;0.0;HEAD;172.0
STATUS;CYCLETIME;2804;I2CERR;0;PRESENT;23;MODE;0
RAW_IMU;AX;-6.0;AY;-1.0;AZ;255.0;GX;0.0;GY;0.0;GZ;0.0;MAGX;-25.0;MAGY;-77.0;MAGZ;68.0
MOT;0;1000.0;1;1000.0;2;1000.0;3;1000.0;4;0.0;5;0.0;6;0.0;7;0.0;
RC;ROLL;1493.0;PITCH;1507.0;YAW;1911.0;THROTTLE;1046.0;AUX1;1546.0;AUX2;1500.0;AUX3;1500.0;AUX4;1500.0
ALTITUDE;0.0
DEBUG;DEBUG10.0;DEBUG2;0.0;DEBUG3;0.0;DEBUG4;0.0
ATTITUDE;ANGX;0.0;ANGY;0.0;HEAD;172.0
STATUS;CYCLETIME;2848;I2CERR;0;PRESENT;23;MODE;0
RAW_IMU;AX;-6.0;AY;-3.0;AZ;256.0;GX;0.0;GY;0.0;GZ;0.0;MAGX;-25.0;MAGY;-77.0;MAGZ;68.0
MOT;0;1000.0;1;1000.0;2;1000.0;3;1000.0;4;0.0;5;0.0;6;0.0;7;0.0;
RC;ROLL;1493.0;PITCH;1503.0;YAW;1911.0;THROTTLE;1046.0;AUX1;1544.0;AUX2;1500.0;AUX3;1500.0;AUX4;1500.0
ALTITUDE;0.0
DEBUG;DEBUG10.0;DEBUG2;0.0;DEBUG3;0.0;DEBUG4;0.0
ATTITUDE;ANGX;0.0;ANGY;0.0;HEAD;173.0
STATUS;CYCLETIME;2816;I2CERR;0;PRESENT;23;MODE;0
RAW_IMU;AX;-5.0;AY;-5.0;AZ;254.0;GX;0.0;GY;0.0;GZ;0.0;MAGX;-26.0;MAGY;-76.0;MAGZ;69.0
MOT;0;1000.0;1;1000.0;2;1000.0;3;1000.0;4;0.0;5;0.0;6;0.0;7;0.0;
RC;ROLL;1495.0;PITCH;1501.0;YAW;1911.0;THROTTLE;1046.0;AUX1;1541.0;AUX2;1500.0;AUX3;1500.0;AUX4;1500.0
ALTITUDE;0.0
DEBUG;DEBUG10.0;DEBUG2;0.0;DEBUG3;0.0;DEBUG4;0.0
ATTITUDE;ANGX;0.0;ANGY;0.0;HEAD;173.0
STATUS;CYCLETIME;2800;I2CERR;0;PRESENT;23;MODE;0
RAW_IMU;AX;-2.0;AY;-3.0;AZ;256.0;GX;0.0;GY;0.0;GZ;0.0;MAGX;-26.0;MAGY;-76.0;MAGZ;69.0
MOT;0;1000.0;1;1000.0;2;1000.0;3;1000.0;4;0.0;5;0.0;6;0.0;7;0.0;
RC;ROLL;1495.0;PITCH;1507.0;YAW;1905.0;THROTTLE;1043.0;AUX1;1549.0;AUX2;1500.0;AUX3;1500.0;AUX4;1500.0
ALTITUDE;0.0
DEBUG;DEBUG10.0;DEBUG2;0.0;DEBUG3;0.0;DEBUG4;0.0
ATTITUDE;ANGX;0.0;ANGY;0.0;HEAD;172.0
STATUS;CYCLETIME;2740;I2CERR;0;PRESENT;23;MODE;0
RAW_IMU;AX;-5.0;AY;-2.0;AZ;255.0;GX;0.0;GY;0.0;GZ;0.0;MAGX;-24.0;MAGY;-77.0;MAGZ;68.0
MOT;0;1000.0;1;1000.0;2;1000.0;3;1000.0;4;0.0;5;0.0;6;0.0;7;0.0;
RC;ROLL;1495.0;PITCH;1507.0;YAW;1905.0;THROTTLE;1043.0;AUX1;1545.0;AUX2;1500.0;AUX3;1500.0;AUX4;1500.0
ALTITUDE;0.0
DEBUG;DEBUG10.0;DEBUG2;0.0;DEBUG3;0.0;DEBUG4;0.0
ATTITUDE;ANGX;0.0;ANGY;0.0;HEAD;172.0
STATUS;CYCLETIME;2912;I2CERR;0;PRESENT;23;MODE;1
RAW_IMU;AX;-4.0;AY;-3.0;AZ;254.0;GX;0.0;GY;0.0;GZ;0.0;MAGX;-24.0;MAGY;-77.0;MAGZ;68.0
MOT;0;1150.0;1;1150.0;2;1150.0;3;1150.0;4;0.0;5;0.0;6;0.0;7;0.0;
RC;ROLL;1500.0;PITCH;1505.0;YAW;1909.0;THROTTLE;1041.0;AUX1;1542.0;AUX2;1500.0;AUX3;1500.0;AUX4;1500.0
ALTITUDE;0.0
DEBUG;DEBUG10.0;DEBUG2;0.0;DEBUG3;0.0;DEBUG4;0.0
ATTITUDE;ANGX;0.0;ANGY;0.0;HEAD;172.0
STATUS;CYCLETIME;2832;I2CERR;0;PRESENT;23;MODE;1
RAW_IMU;AX;-5.0;AY;-2.0;AZ;254.0;GX;0.0;GY;0.0;GZ;0.0;MAGX;-25.0;MAGY;-78.0;MAGZ;68.0
MOT;0;1150.0;1;1150.0;2;1150.0;3;1150.0;4;0.0;5;0.0;6;0.0;7;0.0;
RC;ROLL;1500.0;PITCH;1505.0;YAW;1909.0;THROTTLE;1041.0;AUX1;1542.0;AUX2;1500.0;AUX3;1500.0;AUX4;1500.0
ALTITUDE;0.0
DEBUG;DEBUG10.0;DEBUG2;0.0;DEBUG3;0.0;DEBUG4;0.0
ATTITUDE;ANGX;0.0;ANGY;0.0;HEAD;172.0
STATUS;CYCLETIME;2792;I2CERR;0;PRESENT;23;MODE;1
RAW_IMU;AX;-4.0;AY;-2.0;AZ;255.0;GX;0.0;GY;0.0;GZ;0.0;MAGX;-25.0;MAGY;-78.0;MAGZ;68.0
MOT;0;1150.0;1;1150.0;2;1150.0;3;1150.0;4;0.0;5;0.0;6;0.0;7;0.0;
RC;ROLL;1500.0;PITCH;1502.0;YAW;1909.0;THROTTLE;1044.0;AUX1;1542.0;AUX2;1500.0;AUX3;1500.0;AUX4;1500.0
ALTITUDE;0.0
DEBUG;DEBUG10.0;DEBUG2;0.0;DEBUG3;0.0;DEBUG4;0.0
ATTITUDE;ANGX;0.0;ANGY;0.0;HEAD;172.0
STATUS;CYCLETIME;2884;I2CERR;0;PRESENT;23;MODE;1
RAW_IMU;AX;-4.0;AY;-1.0;AZ;254.0;GX;0.0;GY;0.0;GZ;0.0;MAGX;-25.0;MAGY;-77.0;MAGZ;68.0
MOT;0;1150.0;1;1150.0;2;1150.0;3;1150.0;4;0.0;5;0.0;6;0.0;7;0.0;
RC;ROLL;1498.0;PITCH;1498.0;YAW;1907.0;THROTTLE;1048.0;AUX1;1542.0;AUX2;1500.0;AUX3;1500.0;AUX4;1500.0
ALTITUDE;0.0
DEBUG;DEBUG10.0;DEBUG2;0.0;DEBUG3;0.0;DEBUG4;0.0
ATTITUDE;ANGX;0.0;ANGY;0.0;HEAD;172.0
STATUS;CYCLETIME;2788;I2CERR;0;PRESENT;23;MODE;1
RAW_IMU;AX;-4.0;AY;-1.0;AZ;255.0;GX;0.0;GY;0.0;GZ;0.0;MAGX;-25.0;MAGY;-77.0;MAGZ;68.0
MOT;0;1150.0;1;1150.0;2;1150.0;3;1150.0;4;0.0;5;0.0;6;0.0;7;0.0;
RC;ROLL;1496.0;PITCH;1498.0;YAW;1907.0;THROTTLE;1045.0;AUX1;1542.0;AUX2;1500.0;AUX3;1500.0;AUX4;1500.0
ALTITUDE;0.0
DEBUG;DEBUG10.0;DEBUG2;0.0;DEBUG3;0.0;DEBUG4;0.0
ATTITUDE;ANGX;0.0;ANGY;0.0;HEAD;172.0
STATUS;CYCLETIME;2852;I2CERR;0;PRESENT;23;MODE;1
RAW_IMU;AX;-4.0;AY;-3.0;AZ;253.0;GX;0.0;GY;0.0;GZ;0.0;MAGX;-25.0;MAGY;-78.0;MAGZ;68.0
MOT;0;1150.0;1;1150.0;2;1150.0;3;1150.0;4;0.0;5;0.0;6;0.0;7;0.0;
RC;ROLL;1496.0;PITCH;1498.0;YAW;1910.0;THROTTLE;1045.0;AUX1;1544.0;AUX2;1500.0;AUX3;1500.0;AUX4;1500.0
ALTITUDE;0.0
DEBUG;DEBUG10.0;DEBUG2;0.0;DEBUG3;0.0;DEBUG4;0.0
ATTITUDE;ANGX;0.0;ANGY;0.0;HEAD;172.0
STATUS;CYCLETIME;2884;I2CERR;0;PRESENT;23;MODE;1
RAW_IMU;AX;-5.0;AY;-3.0;AZ;254.0;GX;0.0;GY;0.0;GZ;0.0;MAGX;-25.0;MAGY;-78.0;MAGZ;68.0
MOT;0;1150.0;1;1150.0;2;1150.0;3;1150.0;4;0.0;5;0.0;6;0.0;7;0.0;
RC;ROLL;1496.0;PITCH;1500.0;YAW;1910.0;THROTTLE;1045.0;AUX1;1544.0;AUX2;1500.0;AUX3;1500.0;AUX4;1500.0
ALTITUDE;0.0
DEBUG;DEBUG10.0;DEBUG2;0.0;DEBUG3;0.0;DEBUG4;0.0
ATTITUDE;ANGX;0.0;ANGY;0.0;HEAD;172.0
STATUS;CYCLETIME;2784;I2CERR;0;PRESENT;23;MODE;1
RAW_IMU;AX;-3.0;AY;-4.0;AZ;254.0;GX;0.0;GY;0.0;GZ;0.0;MAGX;-25.0;MAGY;-77.0;MAGZ;69.0
MOT;0;1150.0;1;1150.0;2;1150.0;3;1150.0;4;0.0;5;0.0;6;0.0;7;0.0;
RC;ROLL;1492.0;PITCH;1504.0;YAW;1910.0;THROTTLE;1045.0;AUX1;1544.0;AUX2;1500.0;AUX3;1500.0;AUX4;1500.0
ALTITUDE;0.0
DEBUG;DEBUG10.0;DEBUG2;0.0;DEBUG3;0.0;DEBUG4;0.0
ATTITUDE;ANGX;0.0;ANGY;0.0;HEAD;172.0
STATUS;CYCLETIME;2780;I2CERR;0;PRESENT;23;MODE;1
RAW_IMU;AX;-4.0;AY;-3.0;AZ;253.0;GX;0.0;GY;0.0;GZ;0.0;MAGX;-25.0;MAGY;-77.0;MAGZ;69.0
MOT;0;1150.0;1;1150.0;2;1150.0;3;1150.0;4;0.0;5;0.0;6;0.0;7;0.0;
RC;ROLL;1492.0;PITCH;1506.0;YAW;1910.0;THROTTLE;1047.0;AUX1;1544.0;AUX2;1500.0;AUX3;1500.0;AUX4;1500.0
ALTITUDE;0.0
DEBUG;DEBUG10.0;DEBUG2;0.0;DEBUG3;0.0;DEBUG4;0.0
ATTITUDE;ANGX;0.0;ANGY;0.0;HEAD;172.0
STATUS;CYCLETIME;2848;I2CERR;0;PRESENT;23;MODE;1
RAW_IMU;AX;-5.0;AY;-3.0;AZ;253.0;GX;0.0;GY;0.0;GZ;0.0;MAGX;-25.0;MAGY;-77.0;MAGZ;70.0
MOT;0;1150.0;1;1150.0;2;1150.0;3;1150.0;4;0.0;5;0.0;6;0.0;7;0.0;
RC;ROLL;1496.0;PITCH;1506.0;YAW;1910.0;THROTTLE;1045.0;AUX1;1544.0;AUX2;1500.0;AUX3;1500.0;AUX4;1500.0
ALTITUDE;0.0
DEBUG;DEBUG10.0;DEBUG2;0.0;DEBUG3;0.0;DEBUG4;0.0
ATTITUDE;ANGX;0.0;ANGY;0.0;HEAD;172.0
STATUS;CYCLETIME;2828;I2CERR;0;PRESENT;23;MODE;1
RAW_IMU;AX;-3.0;AY;-3.0;AZ;254.0;GX;0.0;GY;0.0;GZ;0.0;MAGX;-25.0;MAGY;-77.0;MAGZ;70.0
MOT;0;1150.0;1;1150.0;2;1150.0;3;1150.0;4;0.0;5;0.0;6;0.0;7;0.0;
RC;ROLL;1494.0;PITCH;1506.0;YAW;1910.0;THROTTLE;1045.0;AUX1;1544.0;AUX2;1500.0;AUX3;1500.0;AUX4;1500.0
ALTITUDE;0.0
DEBUG;DEBUG10.0;DEBUG2;0.0;DEBUG3;0.0;DEBUG4;0.0
ATTITUDE;ANGX;0.0;ANGY;0.0;HEAD;172.0
STATUS;CYCLETIME;2796;I2CERR;0;PRESENT;23;MODE;1
RAW_IMU;AX;-5.0;AY;-2.0;AZ;255.0;GX;0.0;GY;0.0;GZ;0.0;MAGX;-26.0;MAGY;-78.0;MAGZ;68.0
MOT;0;1150.0;1;1150.0;2;1150.0;3;1150.0;4;0.0;5;0.0;6;0.0;7;0.0;
RC;ROLL;1491.0;PITCH;1506.0;YAW;1910.0;THROTTLE;1049.0;AUX1;1542.0;AUX2;1500.0;AUX3;1500.0;AUX4;1500.0
ALTITUDE;0.0
DEBUG;DEBUG10.0;DEBUG2;0.0;DEBUG3;0.0;DEBUG4;0.0
ATTITUDE;ANGX;0.0;ANGY;0.0;HEAD;172.0
STATUS;CYCLETIME;2884;I2CERR;0;PRESENT;23;MODE;1
RAW_IMU;AX;-5.0;AY;-3.0;AZ;254.0;GX;0.0;GY;0.0;GZ;0.0;MAGX;-26.0;MAGY;-78.0;MAGZ;68.0
MOT;0;1150.0;1;1150.0;2;1150.0;3;1150.0;4;0.0;5;0.0;6;0.0;7;0.0;
RC;ROLL;1494.0;PITCH;1501.0;YAW;1812.0;THROTTLE;1049.0;AUX1;1539.0;AUX2;1500.0;AUX3;1500.0;AUX4;1500.0
ALTITUDE;0.0
DEBUG;DEBUG10.0;DEBUG2;0.0;DEBUG3;0.0;DEBUG4;0.0
ATTITUDE;ANGX;0.0;ANGY;0.0;HEAD;172.0
STATUS;CYCLETIME;2860;I2CERR;0;PRESENT;23;MODE;1
RAW_IMU;AX;-4.0;AY;-5.0;AZ;254.0;GX;0.0;GY;0.0;GZ;0.0;MAGX;-25.0;MAGY;-77.0;MAGZ;69.0
MOT;0;1150.0;1;1150.0;2;1150.0;3;1150.0;4;0.0;5;0.0;6;0.0;7;0.0;
RC;ROLL;1494.0;PITCH;1501.0;YAW;1706.0;THROTTLE;1049.0;AUX1;1541.0;AUX2;1500.0;AUX3;1500.0;AUX4;1500.0
ALTITUDE;0.0
DEBUG;DEBUG10.0;DEBUG2;0.0;DEBUG3;0.0;DEBUG4;0.0
ATTITUDE;ANGX;0.0;ANGY;0.0;HEAD;172.0
STATUS;CYCLETIME;2872;I2CERR;0;PRESENT;23;MODE;1
RAW_IMU;AX;-5.0;AY;-3.0;AZ;254.0;GX;0.0;GY;0.0;GZ;0.0;MAGX;-25.0;MAGY;-77.0;MAGZ;69.0
MOT;0;1150.0;1;1150.0;2;1150.0;3;1150.0;4;0.0;5;0.0;6;0.0;7;0.0;
RC;ROLL;1496.0;PITCH;1503.0;YAW;1648.0;THROTTLE;1049.0;AUX1;1546.0;AUX2;1500.0;AUX3;1500.0;AUX4;1500.0
ALTITUDE;0.0
DEBUG;DEBUG10.0;DEBUG2;0.0;DEBUG3;0.0;DEBUG4;0.0
ATTITUDE;ANGX;0.0;ANGY;0.0;HEAD;172.0
STATUS;CYCLETIME;3020;I2CERR;0;PRESENT;23;MODE;1
RAW_IMU;AX;-2.0;AY;-3.0;AZ;253.0;GX;0.0;GY;0.0;GZ;0.0;MAGX;-25.0;MAGY;-77.0;MAGZ;69.0
MOT;0;1150.0;1;1150.0;2;1150.0;3;1150.0;4;0.0;5;0.0;6;0.0;7;0.0;
RC;ROLL;1496.0;PITCH;1503.0;YAW;1574.0;THROTTLE;1044.0;AUX1;1548.0;AUX2;1500.0;AUX3;1500.0;AUX4;1500.0
ALTITUDE;0.0
DEBUG;DEBUG10.0;DEBUG2;0.0;DEBUG3;0.0;DEBUG4;0.0
ATTITUDE;ANGX;0.0;ANGY;0.0;HEAD;172.0
STATUS;CYCLETIME;2868;I2CERR;0;PRESENT;23;MODE;1
RAW_IMU;AX;-2.0;AY;-3.0;AZ;254.0;GX;0.0;GY;0.0;GZ;0.0;MAGX;-25.0;MAGY;-77.0;MAGZ;69.0
MOT;0;1150.0;1;1150.0;2;1150.0;3;1150.0;4;0.0;5;0.0;6;0.0;7;0.0;
RC;ROLL;1496.0;PITCH;1503.0;YAW;1535.0;THROTTLE;1046.0;AUX1;1548.0;AUX2;1500.0;AUX3;1500.0;AUX4;1500.0
ALTITUDE;0.0
DEBUG;DEBUG10.0;DEBUG2;0.0;DEBUG3;0.0;DEBUG4;0.0
ATTITUDE;ANGX;0.0;ANGY;0.0;HEAD;172.0
STATUS;CYCLETIME;2900;I2CERR;0;PRESENT;23;MODE;1
RAW_IMU;AX;-5.0;AY;-3.0;AZ;251.0;GX;0.0;GY;0.0;GZ;0.0;MAGX;-25.0;MAGY;-77.0;MAGZ;69.0
MOT;0;1150.0;1;1150.0;2;1150.0;3;1150.0;4;0.0;5;0.0;6;0.0;7;0.0;
RC;ROLL;1494.0;PITCH;1499.0;YAW;1517.0;THROTTLE;1052.0;AUX1;1542.0;AUX2;1500.0;AUX3;1500.0;AUX4;1500.0
ALTITUDE;0.0
DEBUG;DEBUG10.0;DEBUG2;0.0;DEBUG3;0.0;DEBUG4;0.0
ATTITUDE;ANGX;0.0;ANGY;0.0;HEAD;172.0
STATUS;CYCLETIME;2896;I2CERR;0;PRESENT;23;MODE;1
RAW_IMU;AX;-6.0;AY;-1.0;AZ;252.0;GX;0.0;GY;0.0;GZ;0.0;MAGX;-24.0;MAGY;-77.0;MAGZ;68.0
MOT;0;1150.0;1;1150.0;2;1150.0;3;1150.0;4;0.0;5;0.0;6;0.0;7;0.0;
RC;ROLL;1494.0;PITCH;1499.0;YAW;1513.0;THROTTLE;1055.0;AUX1;1542.0;AUX2;1500.0;AUX3;1500.0;AUX4;1500.0
ALTITUDE;0.0
DEBUG;DEBUG10.0;DEBUG2;0.0;DEBUG3;0.0;DEBUG4;0.0
ATTITUDE;ANGX;0.0;ANGY;0.0;HEAD;172.0
STATUS;CYCLETIME;2908;I2CERR;0;PRESENT;23;MODE;1
RAW_IMU;AX;-5.0;AY;-2.0;AZ;255.0;GX;0.0;GY;0.0;GZ;0.0;MAGX;-24.0;MAGY;-77.0;MAGZ;68.0
MOT;0;1150.0;1;1150.0;2;1150.0;3;1150.0;4;0.0;5;0.0;6;0.0;7;0.0;
RC;ROLL;1494.0;PITCH;1499.0;YAW;1511.0;THROTTLE;1055.0;AUX1;1542.0;AUX2;1500.0;AUX3;1500.0;AUX4;1500.0
ALTITUDE;0.0
DEBUG;DEBUG10.0;DEBUG2;0.0;DEBUG3;0.0;DEBUG4;0.0
ATTITUDE;ANGX;0.0;ANGY;0.0;HEAD;172.0
STATUS;CYCLETIME;3032;I2CERR;0;PRESENT;23;MODE;1
RAW_IMU;AX;-5.0;AY;-4.0;AZ;254.0;GX;0.0;GY;0.0;GZ;0.0;MAGX;-24.0;MAGY;-77.0;MAGZ;68.0
MOT;0;1150.0;1;1150.0;2;1150.0;3;1150.0;4;0.0;5;0.0;6;0.0;7;0.0;
RC;ROLL;1492.0;PITCH;1501.0;YAW;1509.0;THROTTLE;1051.0;AUX1;1542.0;AUX2;1500.0;AUX3;1500.0;AUX4;1500.0
ALTITUDE;0.0
DEBUG;DEBUG10.0;DEBUG2;0.0;DEBUG3;0.0;DEBUG4;0.0
ATTITUDE;ANGX;0.0;ANGY;0.0;HEAD;172.0
STATUS;CYCLETIME;2836;I2CERR;0;PRESENT;23;MODE;1
RAW_IMU;AX;-4.0;AY;-2.0;AZ;254.0;GX;0.0;GY;0.0;GZ;0.0;MAGX;-24.0;MAGY;-77.0;MAGZ;68.0
MOT;0;1150.0;1;1150.0;2;1150.0;3;1150.0;4;0.0;5;0.0;6;0.0;7;0.0;
RC;ROLL;1492.0;PITCH;1501.0;YAW;1509.0;THROTTLE;1053.0;AUX1;1542.0;AUX2;1500.0;AUX3;1500.0;AUX4;1500.0
ALTITUDE;0.0
DEBUG;DEBUG10.0;DEBUG2;0.0;DEBUG3;0.0;DEBUG4;0.0
ATTITUDE;ANGX;0.0;ANGY;0.0;HEAD;172.0
STATUS;CYCLETIME;2872;I2CERR;0;PRESENT;23;MODE;1
RAW_IMU;AX;-1.0;AY;-2.0;AZ;252.0;GX;0.0;GY;0.0;GZ;0.0;MAGX;-25.0;MAGY;-78.0;MAGZ;67.0
MOT;0;1150.0;1;1150.0;2;1150.0;3;1150.0;4;0.0;5;0.0;6;0.0;7;0.0;
RC;ROLL;1492.0;PITCH;1504.0;YAW;1509.0;THROTTLE;1051.0;AUX1;1544.0;AUX2;1500.0;AUX3;1500.0;AUX4;1500.0
ALTITUDE;0.0
DEBUG;DEBUG10.0;DEBUG2;0.0;DEBUG3;0.0;DEBUG4;0.0
ATTITUDE;ANGX;0.0;ANGY;0.0;HEAD;172.0
STATUS;CYCLETIME;2888;I2CERR;0;PRESENT;23;MODE;1
RAW_IMU;AX;-3.0;AY;-2.0;AZ;254.0;GX;0.0;GY;0.0;GZ;0.0;MAGX;-25.0;MAGY;-78.0;MAGZ;67.0
MOT;0;1150.0;1;1150.0;2;1150.0;3;1150.0;4;0.0;5;0.0;6;0.0;7;0.0;
RC;ROLL;1499.0;PITCH;1502.0;YAW;1509.0;THROTTLE;1051.0;AUX1;1547.0;AUX2;1500.0;AUX3;1500.0;AUX4;1500.0
ALTITUDE;0.0
DEBUG;DEBUG10.0;DEBUG2;0.0;DEBUG3;0.0;DEBUG4;0.0
ATTITUDE;ANGX;0.0;ANGY;0.0;HEAD;172.0
STATUS;CYCLETIME;2920;I2CERR;0;PRESENT;23;MODE;1
RAW_IMU;AX;-4.0;AY;-2.0;AZ;254.0;GX;0.0;GY;0.0;GZ;0.0;MAGX;-27.0;MAGY;-77.0;MAGZ;68.0
MOT;0;1150.0;1;1150.0;2;1150.0;3;1150.0;4;0.0;5;0.0;6;0.0;7;0.0;
RC;ROLL;1499.0;PITCH;1495.0;YAW;1509.0;THROTTLE;1053.0;AUX1;1547.0;AUX2;1500.0;AUX3;1500.0;AUX4;1500.0
ALTITUDE;0.0
DEBUG;DEBUG10.0;DEBUG2;0.0;DEBUG3;0.0;DEBUG4;0.0
ATTITUDE;ANGX;0.0;ANGY;0.0;HEAD;172.0
STATUS;CYCLETIME;2900;I2CERR;0;PRESENT;23;MODE;1
RAW_IMU;AX;-6.0;AY;-3.0;AZ;255.0;GX;0.0;GY;0.0;GZ;0.0;MAGX;-27.0;MAGY;-77.0;MAGZ;68.0
MOT;0;1150.0;1;1150.0;2;1150.0;3;1150.0;4;0.0;5;0.0;6;0.0;7;0.0;
RC;ROLL;1499.0;PITCH;1495.0;YAW;1512.0;THROTTLE;1053.0;AUX1;1545.0;AUX2;1500.0;AUX3;1500.0;AUX4;1500.0
ALTITUDE;0.0
DEBUG;DEBUG10.0;DEBUG2;0.0;DEBUG3;0.0;DEBUG4;0.0
ATTITUDE;ANGX;0.0;ANGY;0.0;HEAD;172.0
STATUS;CYCLETIME;2840;I2CERR;0;PRESENT;23;MODE;1
RAW_IMU;AX;-4.0;AY;-4.0;AZ;255.0;GX;0.0;GY;0.0;GZ;0.0;MAGX;-24.0;MAGY;-78.0;MAGZ;69.0
MOT;0;1150.0;1;1150.0;2;1150.0;3;1150.0;4;0.0;5;0.0;6;0.0;7;0.0;
RC;ROLL;1495.0;PITCH;1495.0;YAW;1512.0;THROTTLE;1053.0;AUX1;1545.0;AUX2;1500.0;AUX3;1500.0;AUX4;1500.0
ALTITUDE;0.0
DEBUG;DEBUG10.0;DEBUG2;0.0;DEBUG3;0.0;DEBUG4;0.0
ATTITUDE;ANGX;0.0;ANGY;0.0;HEAD;172.0
STATUS;CYCLETIME;2852;I2CERR;0;PRESENT;23;MODE;1
RAW_IMU;AX;-5.0;AY;-5.0;AZ;251.0;GX;0.0;GY;0.0;GZ;0.0;MAGX;-24.0;MAGY;-78.0;MAGZ;69.0
MOT;0;1150.0;1;1150.0;2;1150.0;3;1150.0;4;0.0;5;0.0;6;0.0;7;0.0;
RC;ROLL;1491.0;PITCH;1502.0;YAW;1512.0;THROTTLE;1053.0;AUX1;1545.0;AUX2;1500.0;AUX3;1500.0;AUX4;1500.0
ALTITUDE;0.0
DEBUG;DEBUG10.0;DEBUG2;0.0;DEBUG3;0.0;DEBUG4;0.0
ATTITUDE;ANGX;0.0;ANGY;0.0;HEAD;172.0
STATUS;CYCLETIME;2900;I2CERR;0;PRESENT;23;MODE;1
RAW_IMU;AX;-5.0;AY;-3.0;AZ;254.0;GX;0.0;GY;0.0;GZ;0.0;MAGX;-25.0;MAGY;-78.0;MAGZ;69.0
MOT;0;1150.0;1;1150.0;2;1150.0;3;1150.0;4;0.0;5;0.0;6;0.0;7;0.0;
RC;ROLL;1491.0;PITCH;1504.0;YAW;1512.0;THROTTLE;1053.0;AUX1;1543.0;AUX2;1500.0;AUX3;1500.0;AUX4;1500.0
ALTITUDE;0.0
DEBUG;DEBUG10.0;DEBUG2;0.0;DEBUG3;0.0;DEBUG4;0.0
ATTITUDE;ANGX;0.0;ANGY;0.0;HEAD;172.0
STATUS;CYCLETIME;2940;I2CERR;0;PRESENT;23;MODE;1
RAW_IMU;AX;-4.0;AY;-3.0;AZ;255.0;GX;0.0;GY;0.0;GZ;0.0;MAGX;-25.0;MAGY;-78.0;MAGZ;69.0
MOT;0;1150.0;1;1150.0;2;1150.0;3;1150.0;4;0.0;5;0.0;6;0.0;7;0.0;
RC;ROLL;1495.0;PITCH;1502.0;YAW;1509.0;THROTTLE;1056.0;AUX1;1545.0;AUX2;1500.0;AUX3;1500.0;AUX4;1500.0
ALTITUDE;0.0
DEBUG;DEBUG10.0;DEBUG2;0.0;DEBUG3;0.0;DEBUG4;0.0
ATTITUDE;ANGX;0.0;ANGY;0.0;HEAD;173.0
STATUS;CYCLETIME;2900;I2CERR;0;PRESENT;23;MODE;1
RAW_IMU;AX;-2.0;AY;-2.0;AZ;251.0;GX;0.0;GY;0.0;GZ;0.0;MAGX;-25.0;MAGY;-78.0;MAGZ;69.0
MOT;0;1150.0;1;1150.0;2;1150.0;3;1150.0;4;0.0;5;0.0;6;0.0;7;0.0;
RC;ROLL;1495.0;PITCH;1500.0;YAW;1509.0;THROTTLE;1056.0;AUX1;1545.0;AUX2;1500.0;AUX3;1500.0;AUX4;1500.0
ALTITUDE;0.0
DEBUG;DEBUG10.0;DEBUG2;0.0;DEBUG3;0.0;DEBUG4;0.0
ATTITUDE;ANGX;0.0;ANGY;0.0;HEAD;173.0
STATUS;CYCLETIME;2900;I2CERR;0;PRESENT;23;MODE;1
RAW_IMU;AX;-4.0;AY;-2.0;AZ;253.0;GX;0.0;GY;0.0;GZ;0.0;MAGX;-25.0;MAGY;-77.0;MAGZ;70.0
MOT;0;1150.0;1;1150.0;2;1150.0;3;1150.0;4;0.0;5;0.0;6;0.0;7;0.0;
RC;ROLL;1495.0;PITCH;1502.0;YAW;1509.0;THROTTLE;1054.0;AUX1;1545.0;AUX2;1500.0;AUX3;1500.0;AUX4;1500.0
ALTITUDE;0.0
DEBUG;DEBUG10.0;DEBUG2;0.0;DEBUG3;0.0;DEBUG4;0.0
ATTITUDE;ANGX;0.0;ANGY;0.0;HEAD;173.0
STATUS;CYCLETIME;2912;I2CERR;0;PRESENT;23;MODE;1
RAW_IMU;AX;-6.0;AY;-1.0;AZ;252.0;GX;0.0;GY;0.0;GZ;0.0;MAGX;-25.0;MAGY;-77.0;MAGZ;70.0
MOT;0;1150.0;1;1150.0;2;1150.0;3;1150.0;4;0.0;5;0.0;6;0.0;7;0.0;
RC;ROLL;1495.0;PITCH;1502.0;YAW;1509.0;THROTTLE;1056.0;AUX1;1545.0;AUX2;1500.0;AUX3;1500.0;AUX4;1500.0
ALTITUDE;0.0
DEBUG;DEBUG10.0;DEBUG2;0.0;DEBUG3;0.0;DEBUG4;0.0
ATTITUDE;ANGX;0.0;ANGY;0.0;HEAD;173.0
STATUS;CYCLETIME;2984;I2CERR;0;PRESENT;23;MODE;1
RAW_IMU;AX;-5.0;AY;-1.0;AZ;251.0;GX;0.0;GY;0.0;GZ;0.0;MAGX;-25.0;MAGY;-77.0;MAGZ;69.0
MOT;0;1150.0;1;1150.0;2;1150.0;3;1150.0;4;0.0;5;0.0;6;0.0;7;0.0;
RC;ROLL;1495.0;PITCH;1500.0;YAW;1509.0;THROTTLE;1056.0;AUX1;1545.0;AUX2;1500.0;AUX3;1500.0;AUX4;1500.0
ALTITUDE;0.0
DEBUG;DEBUG10.0;DEBUG2;0.0;DEBUG3;0.0;DEBUG4;0.0
ATTITUDE;ANGX;0.0;ANGY;0.0;HEAD;173.0
STATUS;CYCLETIME;2944;I2CERR;0;PRESENT;23;MODE;1
RAW_IMU;AX;-5.0;AY;-3.0;AZ;252.0;GX;0.0;GY;0.0;GZ;0.0;MAGX;-25.0;MAGY;-77.0;MAGZ;69.0
MOT;0;1150.0;1;1150.0;2;1150.0;3;1150.0;4;0.0;5;0.0;6;0.0;7;0.0;
RC;ROLL;1495.0;PITCH;1500.0;YAW;1509.0;THROTTLE;1056.0;AUX1;1545.0;AUX2;1500.0;AUX3;1500.0;AUX4;1500.0
ALTITUDE;0.0
DEBUG;DEBUG10.0;DEBUG2;0.0;DEBUG3;0.0;DEBUG4;0.0
ATTITUDE;ANGX;0.0;ANGY;0.0;HEAD;173.0
STATUS;CYCLETIME;2912;I2CERR;0;PRESENT;23;MODE;1
RAW_IMU;AX;-6.0;AY;-6.0;AZ;255.0;GX;0.0;GY;0.0;GZ;0.0;MAGX;-25.0;MAGY;-78.0;MAGZ;68.0
MOT;0;1150.0;1;1150.0;2;1150.0;3;1150.0;4;0.0;5;0.0;6;0.0;7;0.0;
RC;ROLL;1495.0;PITCH;1503.0;YAW;1509.0;THROTTLE;1052.0;AUX1;1547.0;AUX2;1500.0;AUX3;1500.0;AUX4;1500.0
ALTITUDE;0.0
DEBUG;DEBUG10.0;DEBUG2;0.0;DEBUG3;0.0;DEBUG4;0.0
ATTITUDE;ANGX;0.0;ANGY;0.0;HEAD;173.0
STATUS;CYCLETIME;2900;I2CERR;0;PRESENT;23;MODE;1
RAW_IMU;AX;-7.0;AY;-4.0;AZ;256.0;GX;0.0;GY;0.0;GZ;0.0;MAGX;-25.0;MAGY;-78.0;MAGZ;68.0
MOT;0;1150.0;1;1150.0;2;1150.0;3;1150.0;4;0.0;5;0.0;6;0.0;7;0.0;
RC;ROLL;1495.0;PITCH;1503.0;YAW;1509.0;THROTTLE;1054.0;AUX1;1547.0;AUX2;1500.0;AUX3;1500.0;AUX4;1500.0
ALTITUDE;0.0
DEBUG;DEBUG10.0;DEBUG2;0.0;DEBUG3;0.0;DEBUG4;0.0
ATTITUDE;ANGX;0.0;ANGY;0.0;HEAD;173.0
STATUS;CYCLETIME;2880;I2CERR;0;PRESENT;23;MODE;1
RAW_IMU;AX;-6.0;AY;-2.0;AZ;253.0;GX;0.0;GY;0.0;GZ;0.0;MAGX;-25.0;MAGY;-77.0;MAGZ;69.0
MOT;0;1150.0;1;1150.0;2;1150.0;3;1150.0;4;0.0;5;0.0;6;0.0;7;0.0;
RC;ROLL;1495.0;PITCH;1505.0;YAW;1512.0;THROTTLE;1054.0;AUX1;1547.0;AUX2;1500.0;AUX3;1500.0;AUX4;1500.0
ALTITUDE;0.0
DEBUG;DEBUG10.0;DEBUG2;0.0;DEBUG3;0.0;DEBUG4;0.0
ATTITUDE;ANGX;0.0;ANGY;0.0;HEAD;173.0
STATUS;CYCLETIME;3028;I2CERR;0;PRESENT;23;MODE;1
RAW_IMU;AX;-6.0;AY;-1.0;AZ;254.0;GX;0.0;GY;0.0;GZ;0.0;MAGX;-25.0;MAGY;-77.0;MAGZ;69.0
MOT;0;1150.0;1;1150.0;2;1150.0;3;1150.0;4;0.0;5;0.0;6;0.0;7;0.0;
RC;ROLL;1495.0;PITCH;1503.0;YAW;1512.0;THROTTLE;1054.0;AUX1;1547.0;AUX2;1500.0;AUX3;1500.0;AUX4;1500.0
ALTITUDE;0.0
DEBUG;DEBUG10.0;DEBUG2;0.0;DEBUG3;0.0;DEBUG4;0.0
ATTITUDE;ANGX;0.0;ANGY;0.0;HEAD;173.0
STATUS;CYCLETIME;2888;I2CERR;0;PRESENT;23;MODE;1
RAW_IMU;AX;-6.0;AY;-2.0;AZ;254.0;GX;0.0;GY;0.0;GZ;0.0;MAGX;-26.0;MAGY;-78.0;MAGZ;68.0
MOT;0;1150.0;1;1150.0;2;1150.0;3;1150.0;4;0.0;5;0.0;6;0.0;7;0.0;
RC;ROLL;1495.0;PITCH;1501.0;YAW;1512.0;THROTTLE;1054.0;AUX1;1547.0;AUX2;1500.0;AUX3;1500.0;AUX4;1500.0
ALTITUDE;0.0
DEBUG;DEBUG10.0;DEBUG2;0.0;DEBUG3;0.0;DEBUG4;0.0
ATTITUDE;ANGX;0.0;ANGY;0.0;HEAD;173.0
STATUS;CYCLETIME;2900;I2CERR;0;PRESENT;23;MODE;1
RAW_IMU;AX;-6.0;AY;-3.0;AZ;254.0;GX;0.0;GY;0.0;GZ;0.0;MAGX;-26.0;MAGY;-78.0;MAGZ;68.0
MOT;0;1150.0;1;1150.0;2;1150.0;3;1150.0;4;0.0;5;0.0;6;0.0;7;0.0;
RC;ROLL;1497.0;PITCH;1501.0;YAW;1512.0;THROTTLE;1054.0;AUX1;1547.0;AUX2;1500.0;AUX3;1500.0;AUX4;1500.0
ALTITUDE;0.0
DEBUG;DEBUG10.0;DEBUG2;0.0;DEBUG3;0.0;DEBUG4;0.0
ATTITUDE;ANGX;0.0;ANGY;0.0;HEAD;173.0
STATUS;CYCLETIME;2904;I2CERR;0;PRESENT;23;MODE;1
RAW_IMU;AX;-4.0;AY;-3.0;AZ;254.0;GX;0.0;GY;0.0;GZ;0.0;MAGX;-26.0;MAGY;-77.0;MAGZ;68.0
MOT;0;1150.0;1;1150.0;2;1150.0;3;1150.0;4;0.0;5;0.0;6;0.0;7;0.0;
RC;ROLL;1497.0;PITCH;1501.0;YAW;1512.0;THROTTLE;1054.0;AUX1;1547.0;AUX2;1500.0;AUX3;1500.0;AUX4;1500.0
ALTITUDE;0.0
DEBUG;DEBUG10.0;DEBUG2;0.0;DEBUG3;0.0;DEBUG4;0.0
ATTITUDE;ANGX;0.0;ANGY;0.0;HEAD;173.0
STATUS;CYCLETIME;2908;I2CERR;0;PRESENT;23;MODE;1
RAW_IMU;AX;-5.0;AY;-4.0;AZ;254.0;GX;0.0;GY;0.0;GZ;0.0;MAGX;-26.0;MAGY;-77.0;MAGZ;68.0
MOT;0;1150.0;1;1150.0;2;1150.0;3;1150.0;4;0.0;5;0.0;6;0.0;7;0.0;
RC;ROLL;1497.0;PITCH;1501.0;YAW;1512.0;THROTTLE;1054.0;AUX1;1547.0;AUX2;1500.0;AUX3;1500.0;AUX4;1500.0
ALTITUDE;0.0
DEBUG;DEBUG10.0;DEBUG2;0.0;DEBUG3;0.0;DEBUG4;0.0
ATTITUDE;ANGX;0.0;ANGY;0.0;HEAD;173.0
STATUS;CYCLETIME;2924;I2CERR;0;PRESENT;23;MODE;1
RAW_IMU;AX;-4.0;AY;-3.0;AZ;253.0;GX;0.0;GY;0.0;GZ;0.0;MAGX;-26.0;MAGY;-77.0;MAGZ;68.0
MOT;0;1150.0;1;1150.0;2;1150.0;3;1150.0;4;0.0;5;0.0;6;0.0;7;0.0;
RC;ROLL;1500.0;PITCH;1499.0;YAW;1512.0;THROTTLE;1054.0;AUX1;1547.0;AUX2;1500.0;AUX3;1500.0;AUX4;1500.0
ALTITUDE;0.0
DEBUG;DEBUG10.0;DEBUG2;0.0;DEBUG3;0.0;DEBUG4;0.0
ATTITUDE;ANGX;0.0;ANGY;0.0;HEAD;173.0
STATUS;CYCLETIME;2888;I2CERR;0;PRESENT;23;MODE;1
RAW_IMU;AX;-3.0;AY;-2.0;AZ;254.0;GX;0.0;GY;0.0;GZ;0.0;MAGX;-25.0;MAGY;-77.0;MAGZ;70.0
MOT;0;1150.0;1;1150.0;2;1150.0;3;1150.0;4;0.0;5;0.0;6;0.0;7;0.0;
RC;ROLL;1493.0;PITCH;1504.0;YAW;1512.0;THROTTLE;1056.0;AUX1;1547.0;AUX2;1500.0;AUX3;1500.0;AUX4;1500.0
ALTITUDE;0.0
DEBUG;DEBUG10.0;DEBUG2;0.0;DEBUG3;0.0;DEBUG4;0.0
ATTITUDE;ANGX;0.0;ANGY;0.0;HEAD;173.0
STATUS;CYCLETIME;2892;I2CERR;0;PRESENT;23;MODE;1
RAW_IMU;AX;-5.0;AY;-1.0;AZ;253.0;GX;0.0;GY;0.0;GZ;0.0;MAGX;-25.0;MAGY;-77.0;MAGZ;70.0
MOT;0;1150.0;1;1150.0;2;1150.0;3;1150.0;4;0.0;5;0.0;6;0.0;7;0.0;
RC;ROLL;1495.0;PITCH;1502.0;YAW;1515.0;THROTTLE;1056.0;AUX1;1544.0;AUX2;1500.0;AUX3;1500.0;AUX4;1500.0
ALTITUDE;0.0
DEBUG;DEBUG10.0;DEBUG2;0.0;DEBUG3;0.0;DEBUG4;0.0
ATTITUDE;ANGX;0.0;ANGY;0.0;HEAD;173.0
STATUS;CYCLETIME;2940;I2CERR;0;PRESENT;23;MODE;1
RAW_IMU;AX;-5.0;AY;1.0;AZ;252.0;GX;0.0;GY;0.0;GZ;0.0;MAGX;-25.0;MAGY;-78.0;MAGZ;69.0
MOT;0;1150.0;1;1150.0;2;1150.0;3;1150.0;4;0.0;5;0.0;6;0.0;7;0.0;
RC;ROLL;1495.0;PITCH;1502.0;YAW;1515.0;THROTTLE;1058.0;AUX1;1544.0;AUX2;1500.0;AUX3;1500.0;AUX4;1500.0
ALTITUDE;0.0
DEBUG;DEBUG10.0;DEBUG2;0.0;DEBUG3;0.0;DEBUG4;0.0
ATTITUDE;ANGX;0.0;ANGY;0.0;HEAD;173.0
STATUS;CYCLETIME;2864;I2CERR;0;PRESENT;23;MODE;1
RAW_IMU;AX;-5.0;AY;-1.0;AZ;253.0;GX;0.0;GY;0.0;GZ;0.0;MAGX;-25.0;MAGY;-78.0;MAGZ;69.0
MOT;0;1150.0;1;1150.0;2;1150.0;3;1150.0;4;0.0;5;0.0;6;0.0;7;0.0;
RC;ROLL;1495.0;PITCH;1504.0;YAW;1512.0;THROTTLE;1058.0;AUX1;1544.0;AUX2;1500.0;AUX3;1500.0;AUX4;1500.0
ALTITUDE;0.0
DEBUG;DEBUG10.0;DEBUG2;0.0;DEBUG3;0.0;DEBUG4;0.0
ATTITUDE;ANGX;0.0;ANGY;0.0;HEAD;173.0
STATUS;CYCLETIME;2908;I2CERR;0;PRESENT;23;MODE;1
RAW_IMU;AX;-7.0;AY;-2.0;AZ;253.0;GX;0.0;GY;0.0;GZ;0.0;MAGX;-24.0;MAGY;-77.0;MAGZ;69.0
MOT;0;1150.0;1;1150.0;2;1150.0;3;1150.0;4;0.0;5;0.0;6;0.0;7;0.0;
RC;ROLL;1495.0;PITCH;1507.0;YAW;1512.0;THROTTLE;1054.0;AUX1;1544.0;AUX2;1500.0;AUX3;1500.0;AUX4;1500.0
ALTITUDE;0.0
DEBUG;DEBUG10.0;DEBUG2;0.0;DEBUG3;0.0;DEBUG4;0.0
ATTITUDE;ANGX;0.0;ANGY;0.0;HEAD;173.0
STATUS;CYCLETIME;2852;I2CERR;0;PRESENT;23;MODE;1
RAW_IMU;AX;-7.0;AY;-2.0;AZ;254.0;GX;0.0;GY;0.0;GZ;0.0;MAGX;-24.0;MAGY;-77.0;MAGZ;69.0
MOT;0;1150.0;1;1150.0;2;1150.0;3;1150.0;4;0.0;5;0.0;6;0.0;7;0.0;
RC;ROLL;1497.0;PITCH;1501.0;YAW;1512.0;THROTTLE;1054.0;AUX1;1544.0;AUX2;1500.0;AUX3;1500.0;AUX4;1500.0
ALTITUDE;0.0
DEBUG;DEBUG10.0;DEBUG2;0.0;DEBUG3;0.0;DEBUG4;0.0
ATTITUDE;ANGX;0.0;ANGY;0.0;HEAD;173.0
STATUS;CYCLETIME;2888;I2CERR;0;PRESENT;23;MODE;1
RAW_IMU;AX;-6.0;AY;-3.0;AZ;253.0;GX;0.0;GY;0.0;GZ;0.0;MAGX;-25.0;MAGY;-78.0;MAGZ;69.0
MOT;0;1150.0;1;1150.0;2;1150.0;3;1150.0;4;0.0;5;0.0;6;0.0;7;0.0;
RC;ROLL;1495.0;PITCH;1501.0;YAW;1509.0;THROTTLE;1057.0;AUX1;1544.0;AUX2;1500.0;AUX3;1500.0;AUX4;1500.0
ALTITUDE;0.0
DEBUG;DEBUG10.0;DEBUG2;0.0;DEBUG3;0.0;DEBUG4;0.0
ATTITUDE;ANGX;0.0;ANGY;0.0;HEAD;173.0
STATUS;CYCLETIME;2840;I2CERR;0;PRESENT;23;MODE;1
RAW_IMU;AX;-4.0;AY;-4.0;AZ;253.0;GX;0.0;GY;0.0;GZ;0.0;MAGX;-25.0;MAGY;-78.0;MAGZ;69.0
MOT;0;1150.0;1;1150.0;2;1150.0;3;1150.0;4;0.0;5;0.0;6;0.0;7;0.0;
RC;ROLL;1495.0;PITCH;1499.0;YAW;1512.0;THROTTLE;1055.0;AUX1;1544.0;AUX2;1500.0;AUX3;1500.0;AUX4;1500.0
ALTITUDE;0.0
DEBUG;DEBUG10.0;DEBUG2;0.0;DEBUG3;0.0;DEBUG4;0.0
ATTITUDE;ANGX;0.0;ANGY;0.0;HEAD;173.0
STATUS;CYCLETIME;2932;I2CERR;0;PRESENT;23;MODE;1
RAW_IMU;AX;-6.0;AY;-2.0;AZ;252.0;GX;0.0;GY;0.0;GZ;0.0;MAGX;-25.0;MAGY;-77.0;MAGZ;69.0
MOT;0;1150.0;1;1150.0;2;1150.0;3;1150.0;4;0.0;5;0.0;6;0.0;7;0.0;
RC;ROLL;1499.0;PITCH;1497.0;YAW;1512.0;THROTTLE;1055.0;AUX1;1544.0;AUX2;1500.0;AUX3;1500.0;AUX4;1500.0
ALTITUDE;0.0
DEBUG;DEBUG10.0;DEBUG2;0.0;DEBUG3;0.0;DEBUG4;0.0
ATTITUDE;ANGX;0.0;ANGY;0.0;HEAD;173.0
STATUS;CYCLETIME;2892;I2CERR;0;PRESENT;23;MODE;1
RAW_IMU;AX;-2.0;AY;-2.0;AZ;251.0;GX;0.0;GY;0.0;GZ;0.0;MAGX;-25.0;MAGY;-77.0;MAGZ;69.0
MOT;0;1150.0;1;1150.0;2;1150.0;3;1150.0;4;0.0;5;0.0;6;0.0;7;0.0;
RC;ROLL;1499.0;PITCH;1497.0;YAW;1510.0;THROTTLE;1059.0;AUX1;1544.0;AUX2;1500.0;AUX3;1500.0;AUX4;1500.0
ALTITUDE;0.0
DEBUG;DEBUG10.0;DEBUG2;0.0;DEBUG3;0.0;DEBUG4;0.0
ATTITUDE;ANGX;0.0;ANGY;0.0;HEAD;173.0
STATUS;CYCLETIME;2896;I2CERR;0;PRESENT;23;MODE;1
RAW_IMU;AX;-3.0;AY;-3.0;AZ;252.0;GX;0.0;GY;0.0;GZ;0.0;MAGX;-25.0;MAGY;-77.0;MAGZ;68.0
MOT;0;1150.0;1;1150.0;2;1150.0;3;1150.0;4;0.0;5;0.0;6;0.0;7;0.0;
RC;ROLL;1496.0;PITCH;1504.0;YAW;1510.0;THROTTLE;1059.0;AUX1;1544.0;AUX2;1500.0;AUX3;1500.0;AUX4;1500.0
ALTITUDE;0.0
DEBUG;DEBUG10.0;DEBUG2;0.0;DEBUG3;0.0;DEBUG4;0.0
ATTITUDE;ANGX;0.0;ANGY;0.0;HEAD;173.0
STATUS;CYCLETIME;2832;I2CERR;0;PRESENT;23;MODE;1
RAW_IMU;AX;-3.0;AY;-4.0;AZ;253.0;GX;0.0;GY;0.0;GZ;0.0;MAGX;-25.0;MAGY;-77.0;MAGZ;68.0
MOT;0;1150.0;1;1150.0;2;1150.0;3;1150.0;4;0.0;5;0.0;6;0.0;7;0.0;
RC;ROLL;1494.0;PITCH;1507.0;YAW;1513.0;THROTTLE;1057.0;AUX1;1544.0;AUX2;1500.0;AUX3;1500.0;AUX4;1500.0
ALTITUDE;0.0
DEBUG;DEBUG10.0;DEBUG2;0.0;DEBUG3;0.0;DEBUG4;0.0
ATTITUDE;ANGX;0.0;ANGY;0.0;HEAD;173.0
STATUS;CYCLETIME;3012;I2CERR;0;PRESENT;23;MODE;1
RAW_IMU;AX;-3.0;AY;-4.0;AZ;253.0;GX;0.0;GY;0.0;GZ;0.0;MAGX;-25.0;MAGY;-77.0;MAGZ;68.0
MOT;0;1150.0;1;1150.0;2;1150.0;3;1150.0;4;0.0;5;0.0;6;0.0;7;0.0;
RC;ROLL;1494.0;PITCH;1507.0;YAW;1513.0;THROTTLE;1055.0;AUX1;1544.0;AUX2;1500.0;AUX3;1500.0;AUX4;1500.0
ALTITUDE;0.0
DEBUG;DEBUG10.0;DEBUG2;0.0;DEBUG3;0.0;DEBUG4;0.0
ATTITUDE;ANGX;0.0;ANGY;0.0;HEAD;173.0
STATUS;CYCLETIME;2940;I2CERR;0;PRESENT;23;MODE;1
RAW_IMU;AX;-3.0;AY;-1.0;AZ;256.0;GX;0.0;GY;0.0;GZ;0.0;MAGX;-25.0;MAGY;-78.0;MAGZ;68.0
MOT;0;1150.0;1;1150.0;2;1150.0;3;1150.0;4;0.0;5;0.0;6;0.0;7;0.0;
RC;ROLL;1494.0;PITCH;1502.0;YAW;1513.0;THROTTLE;1055.0;AUX1;1547.0;AUX2;1500.0;AUX3;1500.0;AUX4;1500.0
ALTITUDE;0.0
DEBUG;DEBUG10.0;DEBUG2;0.0;DEBUG3;0.0;DEBUG4;0.0
ATTITUDE;ANGX;0.0;ANGY;0.0;HEAD;173.0
STATUS;CYCLETIME;2868;I2CERR;0;PRESENT;23;MODE;1
RAW_IMU;AX;-3.0;AY;-4.0;AZ;255.0;GX;0.0;GY;0.0;GZ;0.0;MAGX;-25.0;MAGY;-78.0;MAGZ;68.0
MOT;0;1150.0;1;1150.0;2;1150.0;3;1150.0;4;0.0;5;0.0;6;0.0;7;0.0;
RC;ROLL;1498.0;PITCH;1502.0;YAW;1513.0;THROTTLE;1055.0;AUX1;1547.0;AUX2;1500.0;AUX3;1500.0;AUX4;1500.0
ALTITUDE;0.0
DEBUG;DEBUG10.0;DEBUG2;0.0;DEBUG3;0.0;DEBUG4;0.0
ATTITUDE;ANGX;0.0;ANGY;0.0;HEAD;173.0
STATUS;CYCLETIME;2852;I2CERR;0;PRESENT;23;MODE;1
