IDENT;V;220;TYPE;3
MSP_MOTOR_PINS
STATUS;CYCLETIME;2696;I2CERR;0;PRESENT;23;MODE;0
RAW_IMU;AX;2.0;AY;-1.0;AZ;57.0;GX;0.0;GY;0.0;GZ;0.0;MAGX;9.0;MAGY;-86.0;MAGZ;49.0
ALTITUDE;0.0
DEBUG;DEBUG10.0;DEBUG2;0.0;DEBUG3;0.0;DEBUG4;0.0
ATTITUDE;ANGX;0.0;ANGY;0.0;HEAD;10.0
STATUS;CYCLETIME;2484;I2CERR;0;PRESENT;23;MODE;0
RAW_IMU;AX;11.0;AY;-5.0;AZ;215.0;GX;0.0;GY;0.0;GZ;0.0;MAGX;9.0;MAGY;-86.0;MAGZ;49.0
MOT;0;1000.0;1;1000.0;2;1000.0;3;1000.0;4;0.0;5;0.0;6;0.0;7;0.0;
RC;ROLL;1500.0;PITCH;1500.0;YAW;1500.0;THROTTLE;1500.0;AUX1;1500.0;AUX2;1500.0;AUX3;1500.0;AUX4;1500.0
ALTITUDE;0.0
DEBUG;DEBUG10.0;DEBUG2;0.0;DEBUG3;0.0;DEBUG4;0.0
ATTITUDE;ANGX;0.0;ANGY;0.0;HEAD;10.0
STATUS;CYCLETIME;2692;I2CERR;0;PRESENT;23;MODE;0
RAW_IMU;AX;14.0;AY;-5.0;AZ;245.0;GX;0.0;GY;0.0;GZ;0.0;MAGX;8.0;MAGY;-86.0;MAGZ;49.0
MOT;0;1000.0;1;1000.0;2;1000.0;3;1000.0;4;0.0;5;0.0;6;0.0;7;0.0;
RC;ROLL;1500.0;PITCH;1500.0;YAW;1500.0;THROTTLE;1500.0;AUX1;1500.0;AUX2;1500.0;AUX3;1500.0;AUX4;1500.0
ALTITUDE;0.0
DEBUG;DEBUG10.0;DEBUG2;0.0;DEBUG3;0.0;DEBUG4;0.0
ATTITUDE;ANGX;0.0;ANGY;0.0;HEAD;-163.0
ATTITUDE;ANGX;0.0;ANGY;0.0;HEAD;-163.0
STATUS;CYCLETIME;2784;I2CERR;0;PRESENT;23;MODE;0
RAW_IMU;AX;13.0;AY;-6.0;AZ;255.0;GX;0.0;GY;0.0;GZ;0.0;MAGX;8.0;MAGY;-86.0;MAGZ;49.0
MOT;0;1000.0;1;1000.0;2;1000.0;3;1000.0;4;0.0;5;0.0;6;0.0;7;0.0;
RC;ROLL;1500.0;PITCH;1500.0;YAW;1500.0;THROTTLE;1500.0;AUX1;1500.0;AUX2;1500.0;AUX3;1500.0;AUX4;1500.0
ALTITUDE;0.0
DEBUG;DEBUG10.0;DEBUG2;0.0;DEBUG3;0.0;DEBUG4;0.0
ATTITUDE;ANGX;2.0;ANGY;0.0;HEAD;-165.0
STATUS;CYCLETIME;2864;I2CERR;0;PRESENT;23;MODE;0
RAW_IMU;AX;14.0;AY;-4.0;AZ;255.0;GX;0.0;GY;0.0;GZ;0.0;MAGX;9.0;MAGY;-87.0;MAGZ;49.0
MOT;0;1000.0;1;1000.0;2;1000.0;3;1000.0;4;0.0;5;0.0;6;0.0;7;0.0;
RC;ROLL;1500.0;PITCH;1500.0;YAW;1500.0;THROTTLE;1500.0;AUX1;1500.0;AUX2;1500.0;AUX3;1500.0;AUX4;1500.0
ALTITUDE;0.0
DEBUG;DEBUG10.0;DEBUG2;0.0;DEBUG3;0.0;DEBUG4;0.0
ATTITUDE;ANGX;2.0;ANGY;0.0;HEAD;-165.0
STATUS;CYCLETIME;2768;I2CERR;0;PRESENT;23;MODE;0
RAW_IMU;AX;12.0;AY;-5.0;AZ;255.0;GX;0.0;GY;0.0;GZ;0.0;MAGX;9.0;MAGY;-87.0;MAGZ;49.0
MOT;0;1000.0;1;1000.0;2;1000.0;3;1000.0;4;0.0;5;0.0;6;0.0;7;0.0;
RC;ROLL;1500.0;PITCH;1500.0;YAW;1500.0;THROTTLE;1500.0;AUX1;1500.0;AUX2;1500.0;AUX3;1500.0;AUX4;1500.0
ALTITUDE;0.0
DEBUG;DEBUG10.0;DEBUG2;0.0;DEBUG3;0.0;DEBUG4;0.0
ATTITUDE;ANGX;1.0;ANGY;0.0;HEAD;-164.0
STATUS;CYCLETIME;2868;I2CERR;0;PRESENT;23;MODE;0
RAW_IMU;AX;14.0;AY;-3.0;AZ;254.0;GX;0.0;GY;0.0;GZ;0.0;MAGX;10.0;MAGY;-86.0;MAGZ;49.0
MOT;0;1000.0;1;1000.0;2;1000.0;3;1000.0;4;0.0;5;0.0;6;0.0;7;0.0;
RC;ROLL;1500.0;PITCH;1500.0;YAW;1500.0;THROTTLE;1500.0;AUX1;1500.0;AUX2;1500.0;AUX3;1500.0;AUX4;1500.0
ALTITUDE;0.0
DEBUG;DEBUG10.0;DEBUG2;0.0;DEBUG3;0.0;DEBUG4;0.0
ATTITUDE;ANGX;2.0;ANGY;0.0;HEAD;-165.0
STATUS;CYCLETIME;2864;I2CERR;0;PRESENT;23;MODE;0
RAW_IMU;AX;12.0;AY;-2.0;AZ;253.0;GX;0.0;GY;0.0;GZ;0.0;MAGX;9.0;MAGY;-87.0;MAGZ;48.0
MOT;0;1000.0;1;1000.0;2;1000.0;3;1000.0;4;0.0;5;0.0;6;0.0;7;0.0;
RC;ROLL;1500.0;PITCH;1500.0;YAW;1500.0;THROTTLE;1500.0;AUX1;1500.0;AUX2;1500.0;AUX3;1500.0;AUX4;1500.0
ALTITUDE;0.0
DEBUG;DEBUG10.0;DEBUG2;0.0;DEBUG3;0.0;DEBUG4;0.0
ATTITUDE;ANGX;2.0;ANGY;0.0;HEAD;-164.0
ATTITUDE;ANGX;2.0;ANGY;0.0;HEAD;-165.0
STATUS;CYCLETIME;2864;I2CERR;0;PRESENT;23;MODE;0
RAW_IMU;AX;11.0;AY;-5.0;AZ;254.0;GX;0.0;GY;0.0;GZ;0.0;MAGX;9.0;MAGY;-87.0;MAGZ;48.0
MOT;0;1000.0;1;1000.0;2;1000.0;3;1000.0;4;0.0;5;0.0;6;0.0;7;0.0;
RC;ROLL;1500.0;PITCH;1500.0;YAW;1500.0;THROTTLE;1500.0;AUX1;1500.0;AUX2;1500.0;AUX3;1500.0;AUX4;1500.0
ALTITUDE;0.0
DEBUG;DEBUG10.0;DEBUG2;0.0;DEBUG3;0.0;DEBUG4;0.0
ATTITUDE;ANGX;1.0;ANGY;0.0;HEAD;-164.0
STATUS;CYCLETIME;2952;I2CERR;0;PRESENT;23;MODE;0
RAW_IMU;AX;11.0;AY;-4.0;AZ;254.0;GX;0.0;GY;0.0;GZ;0.0;MAGX;9.0;MAGY;-86.0;MAGZ;50.0
MOT;0;1000.0;1;1000.0;2;1000.0;3;1000.0;4;0.0;5;0.0;6;0.0;7;0.0;
RC;ROLL;1500.0;PITCH;1500.0;YAW;1500.0;THROTTLE;1500.0;AUX1;1500.0;AUX2;1500.0;AUX3;1500.0;AUX4;1500.0
ALTITUDE;0.0
DEBUG;DEBUG10.0;DEBUG2;0.0;DEBUG3;0.0;DEBUG4;0.0
ATTITUDE;ANGX;2.0;ANGY;0.0;HEAD;-165.0
STATUS;CYCLETIME;2844;I2CERR;0;PRESENT;23;MODE;0
RAW_IMU;AX;12.0;AY;-5.0;AZ;254.0;GX;0.0;GY;0.0;GZ;0.0;MAGX;9.0;MAGY;-86.0;MAGZ;50.0
MOT;0;1000.0;1;1000.0;2;1000.0;3;1000.0;4;0.0;5;0.0;6;0.0;7;0.0;
RC;ROLL;1500.0;PITCH;1500.0;YAW;1500.0;THROTTLE;1500.0;AUX1;1500.0;AUX2;1500.0;AUX3;1500.0;AUX4;1500.0
ALTITUDE;0.0
DEBUG;DEBUG10.0;DEBUG2;0.0;DEBUG3;0.0;DEBUG4;0.0
ATTITUDE;ANGX;2.0;ANGY;0.0;HEAD;-164.0
STATUS;CYCLETIME;2840;I2CERR;0;PRESENT;23;MODE;0
RAW_IMU;AX;11.0;AY;-5.0;AZ;254.0;GX;0.0;GY;0.0;GZ;0.0;MAGX;8.0;MAGY;-87.0;MAGZ;49.0
MOT;0;1000.0;1;1000.0;2;1000.0;3;1000.0;4;0.0;5;0.0;6;0.0;7;0.0;
RC;ROLL;1500.0;PITCH;1500.0;YAW;1500.0;THROTTLE;1500.0;AUX1;1500.0;AUX2;1500.0;AUX3;1500.0;AUX4;1500.0
ALTITUDE;0.0
DEBUG;DEBUG10.0;DEBUG2;0.0;DEBUG3;0.0;DEBUG4;0.0
ATTITUDE;ANGX;2.0;ANGY;0.0;HEAD;-165.0
STATUS;CYCLETIME;2848;I2CERR;0;PRESENT;23;MODE;0
RAW_IMU;AX;11.0;AY;-4.0;AZ;252.0;GX;0.0;GY;0.0;GZ;0.0;MAGX;8.0;MAGY;-87.0;MAGZ;49.0
MOT;0;1000.0;1;1000.0;2;1000.0;3;1000.0;4;0.0;5;0.0;6;0.0;7;0.0;
RC;ROLL;1500.0;PITCH;1500.0;YAW;1500.0;THROTTLE;1500.0;AUX1;1500.0;AUX2;1500.0;AUX3;1500.0;AUX4;1500.0
ALTITUDE;0.0
DEBUG;DEBUG10.0;DEBUG2;0.0;DEBUG3;0.0;DEBUG4;0.0
ATTITUDE;ANGX;2.0;ANGY;0.0;HEAD;-164.0
STATUS;CYCLETIME;-22080;I2CERR;0;PRESENT;23;MODE;0
RAW_IMU;AX;11.0;AY;-3.0;AZ;252.0;GX;0.0;GY;0.0;GZ;0.0;MAGX;8.0;MAGY;-87.0;MAGZ;49.0
MOT;0;1000.0;1;1000.0;2;1000.0;3;1000.0;4;0.0;5;0.0;6;0.0;7;0.0;
RC;ROLL;1500.0;PITCH;1500.0;YAW;1500.0;THROTTLE;1500.0;AUX1;1500.0;AUX2;1500.0;AUX3;1500.0;AUX4;1500.0
ALTITUDE;0.0
DEBUG;DEBUG10.0;DEBUG2;0.0;DEBUG3;0.0;DEBUG4;0.0
ATTITUDE;ANGX;2.0;ANGY;0.0;HEAD;-165.0
STATUS;CYCLETIME;2840;I2CERR;0;PRESENT;23;MODE;0
RAW_IMU;AX;10.0;AY;-3.0;AZ;252.0;GX;0.0;GY;0.0;GZ;0.0;MAGX;8.0;MAGY;-86.0;MAGZ;49.0
MOT;0;1000.0;1;1000.0;2;1000.0;3;1000.0;4;0.0;5;0.0;6;0.0;7;0.0;
RC;ROLL;1500.0;PITCH;1500.0;YAW;1500.0;THROTTLE;1500.0;AUX1;1500.0;AUX2;1500.0;AUX3;1500.0;AUX4;1500.0
ALTITUDE;0.0
DEBUG;DEBUG10.0;DEBUG2;0.0;DEBUG3;0.0;DEBUG4;0.0
ATTITUDE;ANGX;2.0;ANGY;0.0;HEAD;-165.0
STATUS;CYCLETIME;2892;I2CERR;0;PRESENT;23;MODE;0
RAW_IMU;AX;12.0;AY;-2.0;AZ;251.0;GX;0.0;GY;0.0;GZ;0.0;MAGX;8.0;MAGY;-86.0;MAGZ;49.0
MOT;0;1000.0;1;1000.0;2;1000.0;3;1000.0;4;0.0;5;0.0;6;0.0;7;0.0;
RC;ROLL;1500.0;PITCH;1500.0;YAW;1500.0;THROTTLE;1500.0;AUX1;1500.0;AUX2;1500.0;AUX3;1500.0;AUX4;1500.0
ALTITUDE;0.0
DEBUG;DEBUG10.0;DEBUG2;0.0;DEBUG3;0.0;DEBUG4;0.0
ATTITUDE;ANGX;2.0;ANGY;0.0;HEAD;-165.0
STATUS;CYCLETIME;2904;I2CERR;0;PRESENT;23;MODE;0
RAW_IMU;AX;14.0;AY;-5.0;AZ;253.0;GX;0.0;GY;0.0;GZ;0.0;MAGX;9.0;MAGY;-86.0;MAGZ;48.0
MOT;0;1000.0;1;1000.0;2;1000.0;3;1000.0;4;0.0;5;0.0;6;0.0;7;0.0;
RC;ROLL;1500.0;PITCH;1500.0;YAW;1500.0;THROTTLE;1500.0;AUX1;1500.0;AUX2;1500.0;AUX3;1500.0;AUX4;1500.0
ALTITUDE;0.0
DEBUG;DEBUG10.0;DEBUG2;0.0;DEBUG3;0.0;DEBUG4;0.0
ATTITUDE;ANGX;2.0;ANGY;0.0;HEAD;-165.0
STATUS;CYCLETIME;2908;I2CERR;0;PRESENT;23;MODE;0
RAW_IMU;AX;14.0;AY;-4.0;AZ;256.0;GX;0.0;GY;0.0;GZ;0.0;MAGX;10.0;MAGY;-86.0;MAGZ;49.0
MOT;0;1000.0;1;1000.0;2;1000.0;3;1000.0;4;0.0;5;0.0;6;0.0;7;0.0;
RC;ROLL;1500.0;PITCH;1500.0;YAW;1500.0;THROTTLE;1500.0;AUX1;1500.0;AUX2;1500.0;AUX3;1500.0;AUX4;1500.0
ALTITUDE;0.0
DEBUG;DEBUG10.0;DEBUG2;0.0;DEBUG3;0.0;DEBUG4;0.0
ATTITUDE;ANGX;2.0;ANGY;0.0;HEAD;-165.0
STATUS;CYCLETIME;2864;I2CERR;0;PRESENT;23;MODE;0
RAW_IMU;AX;13.0;AY;-3.0;AZ;254.0;GX;0.0;GY;0.0;GZ;0.0;MAGX;10.0;MAGY;-86.0;MAGZ;49.0
MOT;0;1000.0;1;1000.0;2;1000.0;3;1000.0;4;0.0;5;0.0;6;0.0;7;0.0;
RC;ROLL;1500.0;PITCH;1500.0;YAW;1500.0;THROTTLE;1500.0;AUX1;1500.0;AUX2;1500.0;AUX3;1500.0;AUX4;1500.0
ALTITUDE;0.0
DEBUG;DEBUG10.0;DEBUG2;0.0;DEBUG3;0.0;DEBUG4;0.0
ATTITUDE;ANGX;2.0;ANGY;0.0;HEAD;-165.0
STATUS;CYCLETIME;2876;I2CERR;0;PRESENT;23;MODE;0
RAW_IMU;AX;12.0;AY;-3.0;AZ;254.0;GX;0.0;GY;0.0;GZ;0.0;MAGX;10.0;MAGY;-86.0;MAGZ;49.0
MOT;0;1000.0;1;1000.0;2;1000.0;3;1000.0;4;0.0;5;0.0;6;0.0;7;0.0;
RC;ROLL;1500.0;PITCH;1500.0;YAW;1500.0;THROTTLE;1500.0;AUX1;1500.0;AUX2;1500.0;AUX3;1500.0;AUX4;1500.0
ALTITUDE;0.0
DEBUG;DEBUG10.0;DEBUG2;0.0;DEBUG3;0.0;DEBUG4;0.0
ATTITUDE;ANGX;2.0;ANGY;0.0;HEAD;-165.0
STATUS;CYCLETIME;2900;I2CERR;0;PRESENT;23;MODE;0
RAW_IMU;AX;13.0;AY;-4.0;AZ;254.0;GX;0.0;GY;0.0;GZ;0.0;MAGX;9.0;MAGY;-86.0;MAGZ;50.0
MOT;0;1000.0;1;1000.0;2;1000.0;3;1000.0;4;0.0;5;0.0;6;0.0;7;0.0;
RC;ROLL;1500.0;PITCH;1500.0;YAW;1500.0;THROTTLE;1500.0;AUX1;1500.0;AUX2;1500.0;AUX3;1500.0;AUX4;1500.0
ALTITUDE;0.0
DEBUG;DEBUG10.0;DEBUG2;0.0;DEBUG3;0.0;DEBUG4;0.0
ATTITUDE;ANGX;2.0;ANGY;0.0;HEAD;-165.0
STATUS;CYCLETIME;2876;I2CERR;0;PRESENT;23;MODE;0
RAW_IMU;AX;13.0;AY;-4.0;AZ;255.0;GX;0.0;GY;0.0;GZ;0.0;MAGX;9.0;MAGY;-86.0;MAGZ;50.0
MOT;0;1000.0;1;1000.0;2;1000.0;3;1000.0;4;0.0;5;0.0;6;0.0;7;0.0;
RC;ROLL;1500.0;PITCH;1500.0;YAW;1500.0;THROTTLE;1500.0;AUX1;1500.0;AUX2;1500.0;AUX3;1500.0;AUX4;1500.0
ALTITUDE;0.0
DEBUG;DEBUG10.0;DEBUG2;0.0;DEBUG3;0.0;DEBUG4;0.0
ATTITUDE;ANGX;2.0;ANGY;0.0;HEAD;-165.0
STATUS;CYCLETIME;2908;I2CERR;0;PRESENT;23;MODE;0
RAW_IMU;AX;14.0;AY;-4.0;AZ;252.0;GX;0.0;GY;0.0;GZ;0.0;MAGX;8.0;MAGY;-86.0;MAGZ;49.0
MOT;0;1000.0;1;1000.0;2;1000.0;3;1000.0;4;0.0;5;0.0;6;0.0;7;0.0;
RC;ROLL;1500.0;PITCH;1500.0;YAW;1500.0;THROTTLE;1500.0;AUX1;1500.0;AUX2;1500.0;AUX3;1500.0;AUX4;1500.0
ALTITUDE;0.0
DEBUG;DEBUG10.0;DEBUG2;0.0;DEBUG3;0.0;DEBUG4;0.0
ATTITUDE;ANGX;2.0;ANGY;0.0;HEAD;-165.0
STATUS;CYCLETIME;2852;I2CERR;0;PRESENT;23;MODE;0
RAW_IMU;AX;13.0;AY;-3.0;AZ;254.0;GX;0.0;GY;0.0;GZ;0.0;MAGX;8.0;MAGY;-86.0;MAGZ;49.0
MOT;0;1000.0;1;1000.0;2;1000.0;3;1000.0;4;0.0;5;0.0;6;0.0;7;0.0;
RC;ROLL;1500.0;PITCH;1500.0;YAW;1500.0;THROTTLE;1500.0;AUX1;1500.0;AUX2;1500.0;AUX3;1500.0;AUX4;1500.0
ALTITUDE;0.0
DEBUG;DEBUG10.0;DEBUG2;0.0;DEBUG3;0.0;DEBUG4;0.0
ATTITUDE;ANGX;2.0;ANGY;0.0;HEAD;-165.0
STATUS;CYCLETIME;2896;I2CERR;0;PRESENT;23;MODE;0
RAW_IMU;AX;13.0;AY;-3.0;AZ;254.0;GX;0.0;GY;0.0;GZ;0.0;MAGX;9.0;MAGY;-88.0;MAGZ;49.0
MOT;0;1000.0;1;1000.0;2;1000.0;3;1000.0;4;0.0;5;0.0;6;0.0;7;0.0;
RC;ROLL;1500.0;PITCH;1500.0;YAW;1500.0;THROTTLE;1500.0;AUX1;1500.0;AUX2;1500.0;AUX3;1500.0;AUX4;1500.0
ALTITUDE;0.0
DEBUG;DEBUG10.0;DEBUG2;0.0;DEBUG3;0.0;DEBUG4;0.0
ATTITUDE;ANGX;2.0;ANGY;0.0;HEAD;-165.0
STATUS;CYCLETIME;2864;I2CERR;0;PRESENT;23;MODE;0
RAW_IMU;AX;14.0;AY;-2.0;AZ;254.0;GX;0.0;GY;0.0;GZ;0.0;MAGX;9.0;MAGY;-88.0;MAGZ;49.0
MOT;0;1000.0;1;1000.0;2;1000.0;3;1000.0;4;0.0;5;0.0;6;0.0;7;0.0;
RC;ROLL;1500.0;PITCH;1500.0;YAW;1500.0;THROTTLE;1500.0;AUX1;1500.0;AUX2;1500.0;AUX3;1500.0;AUX4;1500.0
ALTITUDE;0.0
DEBUG;DEBUG10.0;DEBUG2;0.0;DEBUG3;0.0;DEBUG4;0.0
ATTITUDE;ANGX;2.0;ANGY;0.0;HEAD;-165.0
STATUS;CYCLETIME;2844;I2CERR;0;PRESENT;23;MODE;0
RAW_IMU;AX;13.0;AY;-4.0;AZ;255.0;GX;0.0;GY;0.0;GZ;0.0;MAGX;9.0;MAGY;-86.0;MAGZ;49.0
MOT;0;1000.0;1;1000.0;2;1000.0;3;1000.0;4;0.0;5;0.0;6;0.0;7;0.0;
RC;ROLL;1500.0;PITCH;1500.0;YAW;1500.0;THROTTLE;1500.0;AUX1;1500.0;AUX2;1500.0;AUX3;1500.0;AUX4;1500.0
ALTITUDE;0.0
DEBUG;DEBUG10.0;DEBUG2;0.0;DEBUG3;0.0;DEBUG4;0.0
ATTITUDE;ANGX;2.0;ANGY;0.0;HEAD;-165.0
STATUS;CYCLETIME;2876;I2CERR;0;PRESENT;23;MODE;0
RAW_IMU;AX;12.0;AY;-4.0;AZ;255.0;GX;0.0;GY;0.0;GZ;0.0;MAGX;9.0;MAGY;-86.0;MAGZ;49.0
MOT;0;1000.0;1;1000.0;2;1000.0;3;1000.0;4;0.0;5;0.0;6;0.0;7;0.0;
RC;ROLL;1500.0;PITCH;1500.0;YAW;1500.0;THROTTLE;1500.0;AUX1;1500.0;AUX2;1500.0;AUX3;1500.0;AUX4;1500.0
ALTITUDE;0.0
DEBUG;DEBUG10.0;DEBUG2;0.0;DEBUG3;0.0;DEBUG4;0.0
ATTITUDE;ANGX;2.0;ANGY;0.0;HEAD;-165.0
STATUS;CYCLETIME;2828;I2CERR;0;PRESENT;23;MODE;0
RAW_IMU;AX;11.0;AY;-4.0;AZ;256.0;GX;0.0;GY;0.0;GZ;0.0;MAGX;9.0;MAGY;-86.0;MAGZ;49.0
MOT;0;1000.0;1;1000.0;2;1000.0;3;1000.0;4;0.0;5;0.0;6;0.0;7;0.0;
RC;ROLL;1500.0;PITCH;1500.0;YAW;1500.0;THROTTLE;1500.0;AUX1;1500.0;AUX2;1500.0;AUX3;1500.0;AUX4;1500.0
ALTITUDE;0.0
DEBUG;DEBUG10.0;DEBUG2;0.0;DEBUG3;0.0;DEBUG4;0.0
ATTITUDE;ANGX;2.0;ANGY;0.0;HEAD;-165.0
STATUS;CYCLETIME;2860;I2CERR;0;PRESENT;23;MODE;0
RAW_IMU;AX;11.0;AY;-5.0;AZ;254.0;GX;0.0;GY;0.0;GZ;0.0;MAGX;9.0;MAGY;-87.0;MAGZ;49.0
MOT;0;1000.0;1;1000.0;2;1000.0;3;1000.0;4;0.0;5;0.0;6;0.0;7;0.0;
RC;ROLL;1500.0;PITCH;1500.0;YAW;1500.0;THROTTLE;1500.0;AUX1;1500.0;AUX2;1500.0;AUX3;1500.0;AUX4;1500.0
ALTITUDE;0.0
DEBUG;DEBUG10.0;DEBUG2;0.0;DEBUG3;0.0;DEBUG4;0.0
ATTITUDE;ANGX;2.0;ANGY;0.0;HEAD;-165.0
STATUS;CYCLETIME;2936;I2CERR;0;PRESENT;23;MODE;0
RAW_IMU;AX;14.0;AY;-6.0;AZ;253.0;GX;0.0;GY;0.0;GZ;0.0;MAGX;9.0;MAGY;-87.0;MAGZ;49.0
MOT;0;1000.0;1;1000.0;2;1000.0;3;1000.0;4;0.0;5;0.0;6;0.0;7;0.0;
RC;ROLL;1500.0;PITCH;1500.0;YAW;1500.0;THROTTLE;1500.0;AUX1;1500.0;AUX2;1500.0;AUX3;1500.0;AUX4;1500.0
ALTITUDE;0.0
DEBUG;DEBUG10.0;DEBUG2;0.0;DEBUG3;0.0;DEBUG4;0.0
ATTITUDE;ANGX;2.0;ANGY;0.0;HEAD;-165.0
STATUS;CYCLETIME;2904;I2CERR;0;PRESENT;23;MODE;0
RAW_IMU;AX;12.0;AY;-3.0;AZ;255.0;GX;0.0;GY;0.0;GZ;0.0;MAGX;10.0;MAGY;-86.0;MAGZ;48.0
MOT;0;1000.0;1;1000.0;2;1000.0;3;1000.0;4;0.0;5;0.0;6;0.0;7;0.0;
RC;ROLL;1500.0;PITCH;1500.0;YAW;1500.0;THROTTLE;1500.0;AUX1;1500.0;AUX2;1500.0;AUX3;1500.0;AUX4;1500.0
ALTITUDE;0.0
DEBUG;DEBUG10.0;DEBUG2;0.0;DEBUG3;0.0;DEBUG4;0.0
ATTITUDE;ANGX;2.0;ANGY;0.0;HEAD;-165.0
STATUS;CYCLETIME;2868;I2CERR;0;PRESENT;23;MODE;0
RAW_IMU;AX;14.0;AY;-5.0;AZ;253.0;GX;0.0;GY;0.0;GZ;0.0;MAGX;10.0;MAGY;-86.0;MAGZ;48.0
MOT;0;1000.0;1;1000.0;2;1000.0;3;1000.0;4;0.0;5;0.0;6;0.0;7;0.0;
RC;ROLL;1500.0;PITCH;1500.0;YAW;1500.0;THROTTLE;1500.0;AUX1;1500.0;AUX2;1500.0;AUX3;1500.0;AUX4;1500.0
ALTITUDE;0.0
DEBUG;DEBUG10.0;DEBUG2;0.0;DEBUG3;0.0;DEBUG4;0.0
ATTITUDE;ANGX;2.0;ANGY;0.0;HEAD;-164.0
STATUS;CYCLETIME;2884;I2CERR;0;PRESENT;23;MODE;0
RAW_IMU;AX;11.0;AY;-7.0;AZ;254.0;GX;0.0;GY;0.0;GZ;0.0;MAGX;8.0;MAGY;-86.0;MAGZ;49.0
MOT;0;1000.0;1;1000.0;2;1000.0;3;1000.0;4;0.0;5;0.0;6;0.0;7;0.0;
RC;ROLL;1500.0;PITCH;1500.0;YAW;1500.0;THROTTLE;1500.0;AUX1;1500.0;AUX2;1500.0;AUX3;1500.0;AUX4;1500.0
ALTITUDE;0.0
DEBUG;DEBUG10.0;DEBUG2;0.0;DEBUG3;0.0;DEBUG4;0.0
ATTITUDE;ANGX;2.0;ANGY;0.0;HEAD;-164.0
STATUS;CYCLETIME;2848;I2CERR;0;PRESENT;23;MODE;0
RAW_IMU;AX;14.0;AY;-5.0;AZ;255.0;GX;0.0;GY;0.0;GZ;0.0;MAGX;8.0;MAGY;-86.0;MAGZ;49.0
MOT;0;1000.0;1;1000.0;2;1000.0;3;1000.0;4;0.0;5;0.0;6;0.0;7;0.0;
RC;ROLL;1500.0;PITCH;1500.0;YAW;1500.0;THROTTLE;1500.0;AUX1;1500.0;AUX2;1500.0;AUX3;1500.0;AUX4;1500.0
ALTITUDE;0.0
DEBUG;DEBUG10.0;DEBUG2;0.0;DEBUG3;0.0;DEBUG4;0.0
ATTITUDE;ANGX;2.0;ANGY;0.0;HEAD;-165.0
STATUS;CYCLETIME;2976;I2CERR;0;PRESENT;23;MODE;0
RAW_IMU;AX;16.0;AY;-7.0;AZ;252.0;GX;0.0;GY;0.0;GZ;0.0;MAGX;10.0;MAGY;-87.0;MAGZ;50.0
MOT;0;1000.0;1;1000.0;2;1000.0;3;1000.0;4;0.0;5;0.0;6;0.0;7;0.0;
RC;ROLL;1500.0;PITCH;1500.0;YAW;1500.0;THROTTLE;1500.0;AUX1;1500.0;AUX2;1500.0;AUX3;1500.0;AUX4;1500.0
ALTITUDE;0.0
DEBUG;DEBUG10.0;DEBUG2;0.0;DEBUG3;0.0;DEBUG4;0.0
ATTITUDE;ANGX;2.0;ANGY;0.0;HEAD;-165.0
STATUS;CYCLETIME;2864;I2CERR;0;PRESENT;23;MODE;0
RAW_IMU;AX;14.0;AY;-4.0;AZ;254.0;GX;0.0;GY;0.0;GZ;0.0;MAGX;10.0;MAGY;-87.0;MAGZ;50.0
MOT;0;1000.0;1;1000.0;2;1000.0;3;1000.0;4;0.0;5;0.0;6;0.0;7;0.0;
RC;ROLL;1500.0;PITCH;1500.0;YAW;1500.0;THROTTLE;1500.0;AUX1;1500.0;AUX2;1500.0;AUX3;1500.0;AUX4;1500.0
ALTITUDE;0.0
DEBUG;DEBUG10.0;DEBUG2;0.0;DEBUG3;0.0;DEBUG4;0.0
ATTITUDE;ANGX;2.0;ANGY;0.0;HEAD;-164.0
STATUS;CYCLETIME;2876;I2CERR;0;PRESENT;23;MODE;0
RAW_IMU;AX;13.0;AY;-5.0;AZ;253.0;GX;0.0;GY;0.0;GZ;0.0;MAGX;9.0;MAGY;-87.0;MAGZ;50.0
MOT;0;1000.0;1;1000.0;2;1000.0;3;1000.0;4;0.0;5;0.0;6;0.0;7;0.0;
RC;ROLL;1500.0;PITCH;1500.0;YAW;1500.0;THROTTLE;1500.0;AUX1;1500.0;AUX2;1500.0;AUX3;1500.0;AUX4;1500.0
ALTITUDE;0.0
DEBUG;DEBUG10.0;DEBUG2;0.0;DEBUG3;0.0;DEBUG4;0.0
ATTITUDE;ANGX;2.0;ANGY;0.0;HEAD;-164.0
STATUS;CYCLETIME;2864;I2CERR;0;PRESENT;23;MODE;0
RAW_IMU;AX;13.0;AY;-4.0;AZ;249.0;GX;0.0;GY;0.0;GZ;0.0;MAGX;9.0;MAGY;-87.0;MAGZ;50.0
MOT;0;1000.0;1;1000.0;2;1000.0;3;1000.0;4;0.0;5;0.0;6;0.0;7;0.0;
RC;ROLL;1500.0;PITCH;1500.0;YAW;1500.0;THROTTLE;1500.0;AUX1;1500.0;AUX2;1500.0;AUX3;1500.0;AUX4;1500.0
ALTITUDE;0.0
DEBUG;DEBUG10.0;DEBUG2;0.0;DEBUG3;0.0;DEBUG4;0.0
ATTITUDE;ANGX;2.0;ANGY;0.0;HEAD;-165.0
STATUS;CYCLETIME;2892;I2CERR;0;PRESENT;23;MODE;0
RAW_IMU;AX;13.0;AY;-3.0;AZ;253.0;GX;0.0;GY;0.0;GZ;0.0;MAGX;9.0;MAGY;-88.0;MAGZ;49.0
MOT;0;1000.0;1;1000.0;2;1000.0;3;1000.0;4;0.0;5;0.0;6;0.0;7;0.0;
RC;ROLL;1500.0;PITCH;1500.0;YAW;1500.0;THROTTLE;1500.0;AUX1;1500.0;AUX2;1500.0;AUX3;1500.0;AUX4;1500.0
ALTITUDE;0.0
DEBUG;DEBUG10.0;DEBUG2;0.0;DEBUG3;0.0;DEBUG4;0.0
ATTITUDE;ANGX;2.0;ANGY;0.0;HEAD;-165.0
STATUS;CYCLETIME;2976;I2CERR;0;PRESENT;23;MODE;0
RAW_IMU;AX;13.0;AY;-3.0;AZ;251.0;GX;0.0;GY;0.0;GZ;0.0;MAGX;9.0;MAGY;-88.0;MAGZ;49.0
MOT;0;1000.0;1;1000.0;2;1000.0;3;1000.0;4;0.0;5;0.0;6;0.0;7;0.0;
RC;ROLL;1500.0;PITCH;1500.0;YAW;1500.0;THROTTLE;1500.0;AUX1;1500.0;AUX2;1500.0;AUX3;1500.0;AUX4;1500.0
ALTITUDE;0.0
DEBUG;DEBUG10.0;DEBUG2;0.0;DEBUG3;0.0;DEBUG4;0.0
ATTITUDE;ANGX;2.0;ANGY;0.0;HEAD;-165.0
STATUS;CYCLETIME;2884;I2CERR;0;PRESENT;23;MODE;0
RAW_IMU;AX;12.0;AY;-3.0;AZ;253.0;GX;0.0;GY;0.0;GZ;0.0;MAGX;9.0;MAGY;-86.0;MAGZ;49.0
MOT;0;1000.0;1;1000.0;2;1000.0;3;1000.0;4;0.0;5;0.0;6;0.0;7;0.0;
RC;ROLL;1500.0;PITCH;1500.0;YAW;1500.0;THROTTLE;1500.0;AUX1;1500.0;AUX2;1500.0;AUX3;1500.0;AUX4;1500.0
ALTITUDE;0.0
DEBUG;DEBUG10.0;DEBUG2;0.0;DEBUG3;0.0;DEBUG4;0.0
ATTITUDE;ANGX;2.0;ANGY;0.0;HEAD;-165.0
STATUS;CYCLETIME;2900;I2CERR;0;PRESENT;23;MODE;0
RAW_IMU;AX;13.0;AY;-3.0;AZ;254.0;GX;0.0;GY;0.0;GZ;0.0;MAGX;9.0;MAGY;-86.0;MAGZ;49.0
MOT;0;1000.0;1;1000.0;2;1000.0;3;1000.0;4;0.0;5;0.0;6;0.0;7;0.0;
RC;ROLL;1500.0;PITCH;1500.0;YAW;1500.0;THROTTLE;1500.0;AUX1;1500.0;AUX2;1500.0;AUX3;1500.0;AUX4;1500.0
ALTITUDE;0.0
DEBUG;DEBUG10.0;DEBUG2;0.0;DEBUG3;0.0;DEBUG4;0.0
ATTITUDE;ANGX;2.0;ANGY;0.0;HEAD;-165.0
STATUS;CYCLETIME;2864;I2CERR;0;PRESENT;23;MODE;0
RAW_IMU;AX;13.0;AY;-2.0;AZ;255.0;GX;0.0;GY;0.0;GZ;0.0;MAGX;9.0;MAGY;-86.0;MAGZ;49.0
MOT;0;1000.0;1;1000.0;2;1000.0;3;1000.0;4;0.0;5;0.0;6;0.0;7;0.0;
RC;ROLL;1500.0;PITCH;1500.0;YAW;1500.0;THROTTLE;1500.0;AUX1;1500.0;AUX2;1500.0;AUX3;1500.0;AUX4;1500.0
ALTITUDE;0.0
DEBUG;DEBUG10.0;DEBUG2;0.0;DEBUG3;0.0;DEBUG4;0.0
ATTITUDE;ANGX;2.0;ANGY;0.0;HEAD;-164.0
STATUS;CYCLETIME;2896;I2CERR;0;PRESENT;23;MODE;0
RAW_IMU;AX;10.0;AY;-2.0;AZ;257.0;GX;0.0;GY;0.0;GZ;0.0;MAGX;10.0;MAGY;-87.0;MAGZ;49.0
MOT;0;1000.0;1;1000.0;2;1000.0;3;1000.0;4;0.0;5;0.0;6;0.0;7;0.0;
RC;ROLL;1500.0;PITCH;1500.0;YAW;1500.0;THROTTLE;1500.0;AUX1;1500.0;AUX2;1500.0;AUX3;1500.0;AUX4;1500.0
ALTITUDE;0.0
DEBUG;DEBUG10.0;DEBUG2;0.0;DEBUG3;0.0;DEBUG4;0.0
ATTITUDE;ANGX;2.0;ANGY;0.0;HEAD;-164.0
STATUS;CYCLETIME;2896;I2CERR;0;PRESENT;23;MODE;0
RAW_IMU;AX;12.0;AY;-2.0;AZ;255.0;GX;0.0;GY;0.0;GZ;0.0;MAGX;10.0;MAGY;-87.0;MAGZ;49.0
MOT;0;1000.0;1;1000.0;2;1000.0;3;1000.0;4;0.0;5;0.0;6;0.0;7;0.0;
RC;ROLL;1500.0;PITCH;1500.0;YAW;1500.0;THROTTLE;1500.0;AUX1;1500.0;AUX2;1500.0;AUX3;1500.0;AUX4;1500.0
ALTITUDE;0.0
DEBUG;DEBUG10.0;DEBUG2;0.0;DEBUG3;0.0;DEBUG4;0.0
ATTITUDE;ANGX;2.0;ANGY;0.0;HEAD;-165.0
STATUS;CYCLETIME;2904;I2CERR;0;PRESENT;23;MODE;0
RAW_IMU;AX;13.0;AY;-2.0;AZ;255.0;GX;0.0;GY;0.0;GZ;0.0;MAGX;9.0;MAGY;-87.0;MAGZ;49.0
MOT;0;1000.0;1;1000.0;2;1000.0;3;1000.0;4;0.0;5;0.0;6;0.0;7;0.0;
RC;ROLL;1500.0;PITCH;1500.0;YAW;1500.0;THROTTLE;1500.0;AUX1;1500.0;AUX2;1500.0;AUX3;1500.0;AUX4;1500.0
ALTITUDE;0.0
DEBUG;DEBUG10.0;DEBUG2;0.0;DEBUG3;0.0;DEBUG4;0.0
ATTITUDE;ANGX;2.0;ANGY;0.0;HEAD;-164.0
STATUS;CYCLETIME;2880;I2CERR;0;PRESENT;23;MODE;0
RAW_IMU;AX;13.0;AY;-1.0;AZ;253.0;GX;0.0;GY;0.0;GZ;0.0;MAGX;9.0;MAGY;-87.0;MAGZ;49.0
MOT;0;1000.0;1;1000.0;2;1000.0;3;1000.0;4;0.0;5;0.0;6;0.0;7;0.0;
RC;ROLL;1500.0;PITCH;1500.0;YAW;1500.0;THROTTLE;1500.0;AUX1;1500.0;AUX2;1500.0;AUX3;1500.0;AUX4;1500.0
ALTITUDE;0.0
DEBUG;DEBUG10.0;DEBUG2;0.0;DEBUG3;0.0;DEBUG4;0.0
ATTITUDE;ANGX;2.0;ANGY;0.0;HEAD;-164.0
STATUS;CYCLETIME;2836;I2CERR;0;PRESENT;23;MODE;0
RAW_IMU;AX;12.0;AY;-3.0;AZ;252.0;GX;0.0;GY;0.0;GZ;0.0;MAGX;9.0;MAGY;-87.0;MAGZ;49.0
MOT;0;1000.0;1;1000.0;2;1000.0;3;1000.0;4;0.0;5;0.0;6;0.0;7;0.0;
RC;ROLL;1500.0;PITCH;1500.0;YAW;1500.0;THROTTLE;1500.0;AUX1;1500.0;AUX2;1500.0;AUX3;1500.0;AUX4;1500.0
ALTITUDE;0.0
DEBUG;DEBUG10.0;DEBUG2;0.0;DEBUG3;0.0;DEBUG4;0.0
ATTITUDE;ANGX;2.0;ANGY;0.0;HEAD;-164.0
STATUS;CYCLETIME;2880;I2CERR;0;PRESENT;23;MODE;0
RAW_IMU;AX;13.0;AY;-4.0;AZ;251.0;GX;0.0;GY;0.0;GZ;0.0;MAGX;9.0;MAGY;-87.0;MAGZ;49.0
MOT;0;1000.0;1;1000.0;2;1000.0;3;1000.0;4;0.0;5;0.0;6;0.0;7;0.0;
RC;ROLL;1500.0;PITCH;1500.0;YAW;1500.0;THROTTLE;1500.0;AUX1;1500.0;AUX2;1500.0;AUX3;1500.0;AUX4;1500.0
ALTITUDE;0.0
DEBUG;DEBUG10.0;DEBUG2;0.0;DEBUG3;0.0;DEBUG4;0.0
ATTITUDE;ANGX;2.0;ANGY;0.0;HEAD;-164.0
STATUS;CYCLETIME;2904;I2CERR;0;PRESENT;23;MODE;0
RAW_IMU;AX;14.0;AY;-3.0;AZ;252.0;GX;0.0;GY;0.0;GZ;0.0;MAGX;9.0;MAGY;-87.0;MAGZ;49.0
MOT;0;1000.0;1;1000.0;2;1000.0;3;1000.0;4;0.0;5;0.0;6;0.0;7;0.0;
RC;ROLL;1500.0;PITCH;1500.0;YAW;1500.0;THROTTLE;1500.0;AUX1;1500.0;AUX2;1500.0;AUX3;1500.0;AUX4;1500.0
ALTITUDE;0.0
DEBUG;DEBUG10.0;DEBUG2;0.0;DEBUG3;0.0;DEBUG4;0.0
ATTITUDE;ANGX;2.0;ANGY;0.0;HEAD;-164.0
STATUS;CYCLETIME;2840;I2CERR;0;PRESENT;23;MODE;0
RAW_IMU;AX;12.0;AY;-3.0;AZ;252.0;GX;0.0;GY;0.0;GZ;0.0;MAGX;9.0;MAGY;-87.0;MAGZ;49.0
MOT;0;1000.0;1;1000.0;2;1000.0;3;1000.0;4;0.0;5;0.0;6;0.0;7;0.0;
RC;ROLL;1500.0;PITCH;1500.0;YAW;1500.0;THROTTLE;1500.0;AUX1;1500.0;AUX2;1500.0;AUX3;1500.0;AUX4;1500.0
ALTITUDE;0.0
DEBUG;DEBUG10.0;DEBUG2;0.0;DEBUG3;0.0;DEBUG4;0.0
ATTITUDE;ANGX;2.0;ANGY;0.0;HEAD;-164.0
STATUS;CYCLETIME;2884;I2CERR;0;PRESENT;23;MODE;0
RAW_IMU;AX;10.0;AY;-3.0;AZ;254.0;GX;0.0;GY;0.0;GZ;0.0;MAGX;9.0;MAGY;-87.0;MAGZ;49.0
MOT;0;1000.0;1;1000.0;2;1000.0;3;1000.0;4;0.0;5;0.0;6;0.0;7;0.0;
RC;ROLL;1500.0;PITCH;1500.0;YAW;1500.0;THROTTLE;1500.0;AUX1;1500.0;AUX2;1500.0;AUX3;1500.0;AUX4;1500.0
ALTITUDE;0.0
DEBUG;DEBUG10.0;DEBUG2;0.0;DEBUG3;0.0;DEBUG4;0.0
ATTITUDE;ANGX;2.0;ANGY;0.0;HEAD;-164.0
ATTITUDE;ANGX;2.0;ANGY;0.0;HEAD;-164.0
STATUS;CYCLETIME;2856;I2CERR;0;PRESENT;23;MODE;0
RAW_IMU;AX;11.0;AY;-5.0;AZ;252.0;GX;0.0;GY;0.0;GZ;0.0;MAGX;9.0;MAGY;-88.0;MAGZ;49.0
MOT;0;1000.0;1;1000.0;2;1000.0;3;1000.0;4;0.0;5;0.0;6;0.0;7;0.0;
RC;ROLL;1500.0;PITCH;1500.0;YAW;1500.0;THROTTLE;1500.0;AUX1;1500.0;AUX2;1500.0;AUX3;1500.0;AUX4;1500.0
ALTITUDE;0.0
DEBUG;DEBUG10.0;DEBUG2;0.0;DEBUG3;0.0;DEBUG4;0.0
ATTITUDE;ANGX;2.0;ANGY;0.0;HEAD;-164.0
STATUS;CYCLETIME;2972;I2CERR;0;PRESENT;23;MODE;0
RAW_IMU;AX;12.0;AY;-4.0;AZ;252.0;GX;0.0;GY;0.0;GZ;0.0;MAGX;9.0;MAGY;-88.0;MAGZ;49.0
MOT;0;1000.0;1;1000.0;2;1000.0;3;1000.0;4;0.0;5;0.0;6;0.0;7;0.0;
RC;ROLL;1500.0;PITCH;1500.0;YAW;1500.0;THROTTLE;1500.0;AUX1;1500.0;AUX2;1500.0;AUX3;1500.0;AUX4;1500.0
ALTITUDE;0.0
DEBUG;DEBUG10.0;DEBUG2;0.0;DEBUG3;0.0;DEBUG4;0.0
ATTITUDE;ANGX;2.0;ANGY;0.0;HEAD;-164.0
STATUS;CYCLETIME;2880;I2CERR;0;PRESENT;23;MODE;0
RAW_IMU;AX;12.0;AY;-2.0;AZ;255.0;GX;0.0;GY;0.0;GZ;0.0;MAGX;9.0;MAGY;-88.0;MAGZ;49.0
MOT;0;1000.0;1;1000.0;2;1000.0;3;1000.0;4;0.0;5;0.0;6;0.0;7;0.0;
RC;ROLL;1500.0;PITCH;1500.0;YAW;1500.0;THROTTLE;1500.0;AUX1;1500.0;AUX2;1500.0;AUX3;1500.0;AUX4;1500.0
ALTITUDE;0.0
DEBUG;DEBUG10.0;DEBUG2;0.0;DEBUG3;0.0;DEBUG4;0.0
ATTITUDE;ANGX;2.0;ANGY;0.0;HEAD;-164.0
STATUS;CYCLETIME;2872;I2CERR;0;PRESENT;23;MODE;0
RAW_IMU;AX;14.0;AY;-1.0;AZ;254.0;GX;0.0;GY;0.0;GZ;0.0;MAGX;10.0;MAGY;-87.0;MAGZ;48.0
MOT;0;1000.0;1;1000.0;2;1000.0;3;1000.0;4;0.0;5;0.0;6;0.0;7;0.0;
RC;ROLL;1500.0;PITCH;1500.0;YAW;1500.0;THROTTLE;1500.0;AUX1;1500.0;AUX2;1500.0;AUX3;1500.0;AUX4;1500.0
ALTITUDE;0.0
DEBUG;DEBUG10.0;DEBUG2;0.0;DEBUG3;0.0;DEBUG4;0.0
ATTITUDE;ANGX;2.0;ANGY;0.0;HEAD;-164.0
STATUS;CYCLETIME;2896;I2CERR;0;PRESENT;23;MODE;0
RAW_IMU;AX;14.0;AY;-3.0;AZ;254.0;GX;0.0;GY;0.0;GZ;0.0;MAGX;10.0;MAGY;-87.0;MAGZ;48.0
MOT;0;1000.0;1;1000.0;2;1000.0;3;1000.0;4;0.0;5;0.0;6;0.0;7;0.0;
RC;ROLL;1500.0;PITCH;1500.0;YAW;1500.0;THROTTLE;1500.0;AUX1;1500.0;AUX2;1500.0;AUX3;1500.0;AUX4;1500.0
ALTITUDE;0.0
DEBUG;DEBUG10.0;DEBUG2;0.0;DEBUG3;0.0;DEBUG4;0.0
ATTITUDE;ANGX;2.0;ANGY;0.0;HEAD;-164.0
STATUS;CYCLETIME;2836;I2CERR;0;PRESENT;23;MODE;0
RAW_IMU;AX;14.0;AY;-3.0;AZ;253.0;GX;0.0;GY;0.0;GZ;0.0;MAGX;8.0;MAGY;-87.0;MAGZ;49.0
MOT;0;1000.0;1;1000.0;2;1000.0;3;1000.0;4;0.0;5;0.0;6;0.0;7;0.0;
RC;ROLL;1500.0;PITCH;1500.0;YAW;1500.0;THROTTLE;1500.0;AUX1;1500.0;AUX2;1500.0;AUX3;1500.0;AUX4;1500.0
ALTITUDE;0.0
DEBUG;DEBUG10.0;DEBUG2;0.0;DEBUG3;0.0;DEBUG4;0.0
ATTITUDE;ANGX;2.0;ANGY;0.0;HEAD;-164.0
STATUS;CYCLETIME;2960;I2CERR;0;PRESENT;23;MODE;0
RAW_IMU;AX;12.0;AY;-4.0;AZ;255.0;GX;0.0;GY;0.0;GZ;0.0;MAGX;8.0;MAGY;-87.0;MAGZ;49.0
MOT;0;1000.0;1;1000.0;2;1000.0;3;1000.0;4;0.0;5;0.0;6;0.0;7;0.0;
RC;ROLL;1500.0;PITCH;1500.0;YAW;1500.0;THROTTLE;1500.0;AUX1;1500.0;AUX2;1500.0;AUX3;1500.0;AUX4;1500.0
ALTITUDE;0.0
DEBUG;DEBUG10.0;DEBUG2;0.0;DEBUG3;0.0;DEBUG4;0.0
ATTITUDE;ANGX;2.0;ANGY;0.0;HEAD;-164.0
STATUS;CYCLETIME;2876;I2CERR;0;PRESENT;23;MODE;0
RAW_IMU;AX;10.0;AY;-4.0;AZ;255.0;GX;0.0;GY;0.0;GZ;0.0;MAGX;9.0;MAGY;-87.0;MAGZ;49.0
MOT;0;1000.0;1;1000.0;2;1000.0;3;1000.0;4;0.0;5;0.0;6;0.0;7;0.0;
RC;ROLL;1500.0;PITCH;1500.0;YAW;1500.0;THROTTLE;1500.0;AUX1;1500.0;AUX2;1500.0;AUX3;1500.0;AUX4;1500.0
ALTITUDE;0.0
DEBUG;DEBUG10.0;DEBUG2;0.0;DEBUG3;0.0;DEBUG4;0.0
ATTITUDE;ANGX;2.0;ANGY;0.0;HEAD;-164.0
STATUS;CYCLETIME;2900;I2CERR;0;PRESENT;23;MODE;0
RAW_IMU;AX;11.0;AY;-5.0;AZ;255.0;GX;0.0;GY;0.0;GZ;0.0;MAGX;9.0;MAGY;-87.0;MAGZ;49.0
MOT;0;1000.0;1;1000.0;2;1000.0;3;1000.0;4;0.0;5;0.0;6;0.0;7;0.0;
RC;ROLL;1500.0;PITCH;1500.0;YAW;1500.0;THROTTLE;1500.0;AUX1;1500.0;AUX2;1500.0;AUX3;1500.0;AUX4;1500.0
ALTITUDE;0.0
DEBUG;DEBUG10.0;DEBUG2;0.0;DEBUG3;0.0;DEBUG4;0.0
ATTITUDE;ANGX;2.0;ANGY;0.0;HEAD;-164.0
STATUS;CYCLETIME;2840;I2CERR;0;PRESENT;23;MODE;0
RAW_IMU;AX;11.0;AY;-6.0;AZ;253.0;GX;0.0;GY;0.0;GZ;0.0;MAGX;9.0;MAGY;-86.0;MAGZ;50.0
MOT;0;1000.0;1;1000.0;2;1000.0;3;1000.0;4;0.0;5;0.0;6;0.0;7;0.0;
RC;ROLL;1500.0;PITCH;1500.0;YAW;1500.0;THROTTLE;1500.0;AUX1;1500.0;AUX2;1500.0;AUX3;1500.0;AUX4;1500.0
ALTITUDE;0.0
DEBUG;DEBUG10.0;DEBUG2;0.0;DEBUG3;0.0;DEBUG4;0.0
ATTITUDE;ANGX;2.0;ANGY;0.0;HEAD;-164.0
STATUS;CYCLETIME;2840;I2CERR;0;PRESENT;23;MODE;0
RAW_IMU;AX;13.0;AY;-4.0;AZ;256.0;GX;0.0;GY;0.0;GZ;0.0;MAGX;9.0;MAGY;-86.0;MAGZ;50.0
MOT;0;1000.0;1;1000.0;2;1000.0;3;1000.0;4;0.0;5;0.0;6;0.0;7;0.0;
RC;ROLL;1500.0;PITCH;1500.0;YAW;1500.0;THROTTLE;1500.0;AUX1;1500.0;AUX2;1500.0;AUX3;1500.0;AUX4;1500.0
ALTITUDE;0.0
DEBUG;DEBUG10.0;DEBUG2;0.0;DEBUG3;0.0;DEBUG4;0.0
ATTITUDE;ANGX;2.0;ANGY;0.0;HEAD;-164.0
STATUS;CYCLETIME;2900;I2CERR;0;PRESENT;23;MODE;0
RAW_IMU;AX;14.0;AY;-5.0;AZ;255.0;GX;0.0;GY;0.0;GZ;0.0;MAGX;10.0;MAGY;-87.0;MAGZ;48.0
MOT;0;1000.0;1;1000.0;2;1000.0;3;1000.0;4;0.0;5;0.0;6;0.0;7;0.0;
RC;ROLL;1500.0;PITCH;1500.0;YAW;1500.0;THROTTLE;1500.0;AUX1;1500.0;AUX2;1500.0;AUX3;1500.0;AUX4;1500.0
ALTITUDE;0.0
DEBUG;DEBUG10.0;DEBUG2;0.0;DEBUG3;0.0;DEBUG4;0.0
ATTITUDE;ANGX;2.0;ANGY;0.0;HEAD;-164.0
STATUS;CYCLETIME;2880;I2CERR;0;PRESENT;23;MODE;0
RAW_IMU;AX;13.0;AY;-6.0;AZ;252.0;GX;0.0;GY;0.0;GZ;0.0;MAGX;10.0;MAGY;-87.0;MAGZ;48.0
MOT;0;1000.0;1;1000.0;2;1000.0;3;1000.0;4;0.0;5;0.0;6;0.0;7;0.0;
RC;ROLL;1500.0;PITCH;1500.0;YAW;1500.0;THROTTLE;1500.0;AUX1;1500.0;AUX2;1500.0;AUX3;1500.0;AUX4;1500.0
ALTITUDE;0.0
DEBUG;DEBUG10.0;DEBUG2;0.0;DEBUG3;0.0;DEBUG4;0.0
ATTITUDE;ANGX;2.0;ANGY;0.0;HEAD;-164.0
STATUS;CYCLETIME;2908;I2CERR;0;PRESENT;23;MODE;0
RAW_IMU;AX;12.0;AY;-4.0;AZ;251.0;GX;0.0;GY;0.0;GZ;0.0;MAGX;9.0;MAGY;-87.0;MAGZ;49.0
MOT;0;1000.0;1;1000.0;2;1000.0;3;1000.0;4;0.0;5;0.0;6;0.0;7;0.0;
RC;ROLL;1500.0;PITCH;1500.0;YAW;1500.0;THROTTLE;1500.0;AUX1;1500.0;AUX2;1500.0;AUX3;1500.0;AUX4;1500.0
ALTITUDE;0.0
DEBUG;DEBUG10.0;DEBUG2;0.0;DEBUG3;0.0;DEBUG4;0.0
ATTITUDE;ANGX;2.0;ANGY;0.0;HEAD;-164.0
STATUS;CYCLETIME;2896;I2CERR;0;PRESENT;23;MODE;0
RAW_IMU;AX;12.0;AY;-6.0;AZ;252.0;GX;0.0;GY;0.0;GZ;0.0;MAGX;9.0;MAGY;-87.0;MAGZ;49.0
MOT;0;1000.0;1;1000.0;2;1000.0;3;1000.0;4;0.0;5;0.0;6;0.0;7;0.0;
RC;ROLL;1500.0;PITCH;1500.0;YAW;1500.0;THROTTLE;1500.0;AUX1;1500.0;AUX2;1500.0;AUX3;1500.0;AUX4;1500.0
ALTITUDE;0.0
DEBUG;DEBUG10.0;DEBUG2;0.0;DEBUG3;0.0;DEBUG4;0.0
ATTITUDE;ANGX;2.0;ANGY;0.0;HEAD;-164.0
STATUS;CYCLETIME;2840;I2CERR;0;PRESENT;23;MODE;0
RAW_IMU;AX;12.0;AY;-4.0;AZ;253.0;GX;0.0;GY;0.0;GZ;0.0;MAGX;9.0;MAGY;-87.0;MAGZ;49.0
MOT;0;1000.0;1;1000.0;2;1000.0;3;1000.0;4;0.0;5;0.0;6;0.0;7;0.0;
RC;ROLL;1500.0;PITCH;1500.0;YAW;1500.0;THROTTLE;1500.0;AUX1;1500.0;AUX2;1500.0;AUX3;1500.0;AUX4;1500.0
ALTITUDE;0.0
DEBUG;DEBUG10.0;DEBUG2;0.0;DEBUG3;0.0;DEBUG4;0.0
ATTITUDE;ANGX;2.0;ANGY;0.0;HEAD;-164.0
STATUS;CYCLETIME;2948;I2CERR;0;PRESENT;23;MODE;0
RAW_IMU;AX;10.0;AY;-2.0;AZ;256.0;GX;0.0;GY;0.0;GZ;0.0;MAGX;9.0;MAGY;-87.0;MAGZ;49.0
MOT;0;1000.0;1;1000.0;2;1000.0;3;1000.0;4;0.0;5;0.0;6;0.0;7;0.0;
RC;ROLL;1500.0;PITCH;1500.0;YAW;1500.0;THROTTLE;1500.0;AUX1;1500.0;AUX2;1500.0;AUX3;1500.0;AUX4;1500.0
ALTITUDE;0.0
DEBUG;DEBUG10.0;DEBUG2;0.0;DEBUG3;0.0;DEBUG4;0.0
ATTITUDE;ANGX;2.0;ANGY;0.0;HEAD;-164.0
STATUS;CYCLETIME;2844;I2CERR;0;PRESENT;23;MODE;0
RAW_IMU;AX;12.0;AY;-1.0;AZ;253.0;GX;0.0;GY;0.0;GZ;0.0;MAGX;9.0;MAGY;-87.0;MAGZ;49.0
MOT;0;1000.0;1;1000.0;2;1000.0;3;1000.0;4;0.0;5;0.0;6;0.0;7;0.0;
RC;ROLL;1500.0;PITCH;1500.0;YAW;1500.0;THROTTLE;1500.0;AUX1;1500.0;AUX2;1500.0;AUX3;1500.0;AUX4;1500.0
ALTITUDE;0.0
DEBUG;DEBUG10.0;DEBUG2;0.0;DEBUG3;0.0;DEBUG4;0.0
ATTITUDE;ANGX;2.0;ANGY;0.0;HEAD;-164.0
STATUS;CYCLETIME;2896;I2CERR;0;PRESENT;23;MODE;0
RAW_IMU;AX;11.0;AY;-3.0;AZ;253.0;GX;0.0;GY;0.0;GZ;0.0;MAGX;8.0;MAGY;-86.0;MAGZ;49.0
MOT;0;1000.0;1;1000.0;2;1000.0;3;1000.0;4;0.0;5;0.0;6;0.0;7;0.0;
RC;ROLL;1500.0;PITCH;1500.0;YAW;1500.0;THROTTLE;1500.0;AUX1;1500.0;AUX2;1500.0;AUX3;1500.0;AUX4;1500.0
ALTITUDE;0.0
DEBUG;DEBUG10.0;DEBUG2;0.0;DEBUG3;0.0;DEBUG4;0.0
ATTITUDE;ANGX;2.0;ANGY;0.0;HEAD;-164.0
STATUS;CYCLETIME;2944;I2CERR;0;PRESENT;23;MODE;0
RAW_IMU;AX;12.0;AY;-3.0;AZ;254.0;GX;0.0;GY;0.0;GZ;0.0;MAGX;8.0;MAGY;-86.0;MAGZ;49.0
MOT;0;1000.0;1;1000.0;2;1000.0;3;1000.0;4;0.0;5;0.0;6;0.0;7;0.0;
RC;ROLL;1500.0;PITCH;1500.0;YAW;1500.0;THROTTLE;1500.0;AUX1;1500.0;AUX2;1500.0;AUX3;1500.0;AUX4;1500.0
ALTITUDE;0.0
DEBUG;DEBUG10.0;DEBUG2;0.0;DEBUG3;0.0;DEBUG4;0.0
ATTITUDE;ANGX;2.0;ANGY;0.0;HEAD;-164.0
STATUS;CYCLETIME;2872;I2CERR;0;PRESENT;23;MODE;0
RAW_IMU;AX;12.0;AY;-3.0;AZ;255.0;GX;0.0;GY;0.0;GZ;0.0;MAGX;9.0;MAGY;-86.0;MAGZ;49.0
MOT;0;1000.0;1;1000.0;2;1000.0;3;1000.0;4;0.0;5;0.0;6;0.0;7;0.0;
RC;ROLL;1500.0;PITCH;1500.0;YAW;1500.0;THROTTLE;1500.0;AUX1;1500.0;AUX2;1500.0;AUX3;1500.0;AUX4;1500.0
ALTITUDE;0.0
DEBUG;DEBUG10.0;DEBUG2;0.0;DEBUG3;0.0;DEBUG4;0.0
ATTITUDE;ANGX;2.0;ANGY;0.0;HEAD;-165.0
STATUS;CYCLETIME;2840;I2CERR;0;PRESENT;23;MODE;0
RAW_IMU;AX;11.0;AY;-5.0;AZ;253.0;GX;0.0;GY;0.0;GZ;0.0;MAGX;9.0;MAGY;-86.0;MAGZ;49.0
MOT;0;1000.0;1;1000.0;2;1000.0;3;1000.0;4;0.0;5;0.0;6;0.0;7;0.0;
RC;ROLL;1500.0;PITCH;1500.0;YAW;1500.0;THROTTLE;1500.0;AUX1;1500.0;AUX2;1500.0;AUX3;1500.0;AUX4;1500.0
ALTITUDE;0.0
DEBUG;DEBUG10.0;DEBUG2;0.0;DEBUG3;0.0;DEBUG4;0.0
ATTITUDE;ANGX;2.0;ANGY;0.0;HEAD;-165.0
STATUS;CYCLETIME;2912;I2CERR;0;PRESENT;23;MODE;0
RAW_IMU;AX;12.0;AY;-6.0;AZ;253.0;GX;0.0;GY;0.0;GZ;0.0;MAGX;10.0;MAGY;-87.0;MAGZ;48.0
MOT;0;1000.0;1;1000.0;2;1000.0;3;1000.0;4;0.0;5;0.0;6;0.0;7;0.0;
RC;ROLL;1500.0;PITCH;1500.0;YAW;1500.0;THROTTLE;1500.0;AUX1;1500.0;AUX2;1500.0;AUX3;1500.0;AUX4;1500.0
ALTITUDE;0.0
DEBUG;DEBUG10.0;DEBUG2;0.0;DEBUG3;0.0;DEBUG4;0.0
ATTITUDE;ANGX;2.0;ANGY;0.0;HEAD;-164.0
STATUS;CYCLETIME;2860;I2CERR;0;PRESENT;23;MODE;0
RAW_IMU;AX;12.0;AY;-6.0;AZ;255.0;GX;0.0;GY;0.0;GZ;0.0;MAGX;10.0;MAGY;-87.0;MAGZ;48.0
MOT;0;1000.0;1;1000.0;2;1000.0;3;1000.0;4;0.0;5;0.0;6;0.0;7;0.0;
RC;ROLL;1500.0;PITCH;1500.0;YAW;1500.0;THROTTLE;1500.0;AUX1;1500.0;AUX2;1500.0;AUX3;1500.0;AUX4;1500.0
ALTITUDE;0.0
DEBUG;DEBUG10.0;DEBUG2;0.0;DEBUG3;0.0;DEBUG4;0.0
ATTITUDE;ANGX;2.0;ANGY;0.0;HEAD;-164.0
STATUS;CYCLETIME;3044;I2CERR;0;PRESENT;23;MODE;0
RAW_IMU;AX;12.0;AY;-6.0;AZ;255.0;GX;0.0;GY;0.0;GZ;0.0;MAGX;8.0;MAGY;-86.0;MAGZ;49.0
MOT;0;1000.0;1;1000.0;2;1000.0;3;1000.0;4;0.0;5;0.0;6;0.0;7;0.0;
RC;ROLL;1500.0;PITCH;1500.0;YAW;1505.0;THROTTLE;1286.0;AUX1;1515.0;AUX2;1500.0;AUX3;1500.0;AUX4;1500.0
ALTITUDE;0.0
DEBUG;DEBUG10.0;DEBUG2;0.0;DEBUG3;0.0;DEBUG4;0.0
ATTITUDE;ANGX;2.0;ANGY;0.0;HEAD;-164.0
STATUS;CYCLETIME;2980;I2CERR;0;PRESENT;23;MODE;0
RAW_IMU;AX;11.0;AY;-4.0;AZ;256.0;GX;0.0;GY;0.0;GZ;0.0;MAGX;8.0;MAGY;-86.0;MAGZ;49.0
MOT;0;1000.0;1;1000.0;2;1000.0;3;1000.0;4;0.0;5;0.0;6;0.0;7;0.0;
RC;ROLL;1500.0;PITCH;1500.0;YAW;1509.0;THROTTLE;1067.0;AUX1;1530.0;AUX2;1500.0;AUX3;1500.0;AUX4;1500.0
ALTITUDE;0.0
DEBUG;DEBUG10.0;DEBUG2;0.0;DEBUG3;0.0;DEBUG4;0.0
ATTITUDE;ANGX;2.0;ANGY;0.0;HEAD;-164.0
STATUS;CYCLETIME;2836;I2CERR;0;PRESENT;23;MODE;0
RAW_IMU;AX;12.0;AY;-5.0;AZ;254.0;GX;0.0;GY;0.0;GZ;0.0;MAGX;10.0;MAGY;-87.0;MAGZ;49.0
MOT;0;1000.0;1;1000.0;2;1000.0;3;1000.0;4;0.0;5;0.0;6;0.0;7;0.0;
RC;ROLL;1500.0;PITCH;1500.0;YAW;1509.0;THROTTLE;1067.0;AUX1;1533.0;AUX2;1500.0;AUX3;1500.0;AUX4;1500.0
ALTITUDE;0.0
DEBUG;DEBUG10.0;DEBUG2;0.0;DEBUG3;0.0;DEBUG4;0.0
ATTITUDE;ANGX;2.0;ANGY;0.0;HEAD;-164.0
STATUS;CYCLETIME;2872;I2CERR;0;PRESENT;23;MODE;0
RAW_IMU;AX;14.0;AY;-4.0;AZ;253.0;GX;0.0;GY;0.0;GZ;0.0;MAGX;10.0;MAGY;-87.0;MAGZ;49.0
MOT;0;1000.0;1;1000.0;2;1000.0;3;1000.0;4;0.0;5;0.0;6;0.0;7;0.0;
RC;ROLL;1496.0;PITCH;1503.0;YAW;1509.0;THROTTLE;1067.0;AUX1;1535.0;AUX2;1500.0;AUX3;1500.0;AUX4;1500.0
ALTITUDE;0.0
DEBUG;DEBUG10.0;DEBUG2;0.0;DEBUG3;0.0;DEBUG4;0.0
ATTITUDE;ANGX;2.0;ANGY;0.0;HEAD;-164.0
STATUS;CYCLETIME;3176;I2CERR;0;PRESENT;23;MODE;0
RAW_IMU;AX;13.0;AY;-4.0;AZ;252.0;GX;0.0;GY;0.0;GZ;0.0;MAGX;10.0;MAGY;-86.0;MAGZ;48.0
MOT;0;1000.0;1;1000.0;2;1000.0;3;1000.0;4;0.0;5;0.0;6;0.0;7;0.0;
RC;ROLL;1496.0;PITCH;1503.0;YAW;1509.0;THROTTLE;1067.0;AUX1;1535.0;AUX2;1500.0;AUX3;1500.0;AUX4;1500.0
ALTITUDE;0.0
DEBUG;DEBUG10.0;DEBUG2;0.0;DEBUG3;0.0;DEBUG4;0.0
ATTITUDE;ANGX;2.0;ANGY;0.0;HEAD;-164.0
STATUS;CYCLETIME;3032;I2CERR;0;PRESENT;23;MODE;0
RAW_IMU;AX;11.0;AY;-6.0;AZ;252.0;GX;0.0;GY;0.0;GZ;0.0;MAGX;10.0;MAGY;-86.0;MAGZ;48.0
MOT;0;1000.0;1;1000.0;2;1000.0;3;1000.0;4;0.0;5;0.0;6;0.0;7;0.0;
RC;ROLL;1496.0;PITCH;1503.0;YAW;1509.0;THROTTLE;1065.0;AUX1;1535.0;AUX2;1500.0;AUX3;1500.0;AUX4;1500.0
ALTITUDE;0.0
DEBUG;DEBUG10.0;DEBUG2;0.0;DEBUG3;0.0;DEBUG4;0.0
ATTITUDE;ANGX;2.0;ANGY;0.0;HEAD;-164.0
STATUS;CYCLETIME;2880;I2CERR;0;PRESENT;23;MODE;0
RAW_IMU;AX;12.0;AY;-4.0;AZ;253.0;GX;0.0;GY;0.0;GZ;0.0;MAGX;10.0;MAGY;-86.0;MAGZ;48.0
MOT;0;1000.0;1;1000.0;2;1000.0;3;1000.0;4;0.0;5;0.0;6;0.0;7;0.0;
RC;ROLL;1496.0;PITCH;1503.0;YAW;1509.0;THROTTLE;1065.0;AUX1;1535.0;AUX2;1500.0;AUX3;1500.0;AUX4;1500.0
ALTITUDE;0.0
DEBUG;DEBUG10.0;DEBUG2;0.0;DEBUG3;0.0;DEBUG4;0.0
ATTITUDE;ANGX;2.0;ANGY;0.0;HEAD;-164.0
STATUS;CYCLETIME;2864;I2CERR;0;PRESENT;23;MODE;0
RAW_IMU;AX;13.0;AY;-2.0;AZ;253.0;GX;0.0;GY;0.0;GZ;0.0;MAGX;9.0;MAGY;-86.0;MAGZ;49.0
MOT;0;1000.0;1;1000.0;2;1000.0;3;1000.0;4;0.0;5;0.0;6;0.0;7;0.0;
RC;ROLL;1496.0;PITCH;1503.0;YAW;1509.0;THROTTLE;1065.0;AUX1;1535.0;AUX2;1500.0;AUX3;1500.0;AUX4;1500.0
ALTITUDE;0.0
DEBUG;DEBUG10.0;DEBUG2;0.0;DEBUG3;0.0;DEBUG4;0.0
ATTITUDE;ANGX;2.0;ANGY;0.0;HEAD;-164.0
STATUS;CYCLETIME;2852;I2CERR;0;PRESENT;23;MODE;0
RAW_IMU;AX;10.0;AY;-4.0;AZ;253.0;GX;0.0;GY;0.0;GZ;0.0;MAGX;9.0;MAGY;-86.0;MAGZ;49.0
MOT;0;1000.0;1;1000.0;2;1000.0;3;1000.0;4;0.0;5;0.0;6;0.0;7;0.0;
RC;ROLL;1496.0;PITCH;1503.0;YAW;1509.0;THROTTLE;1065.0;AUX1;1535.0;AUX2;1500.0;AUX3;1500.0;AUX4;1500.0
ALTITUDE;0.0
DEBUG;DEBUG10.0;DEBUG2;0.0;DEBUG3;0.0;DEBUG4;0.0
ATTITUDE;ANGX;2.0;ANGY;0.0;HEAD;-164.0
STATUS;CYCLETIME;2872;I2CERR;0;PRESENT;23;MODE;0
RAW_IMU;AX;13.0;AY;-2.0;AZ;253.0;GX;0.0;GY;0.0;GZ;0.0;MAGX;8.0;MAGY;-87.0;MAGZ;49.0
MOT;0;1000.0;1;1000.0;2;1000.0;3;1000.0;4;0.0;5;0.0;6;0.0;7;0.0;
RC;ROLL;1496.0;PITCH;1503.0;YAW;1511.0;THROTTLE;1065.0;AUX1;1535.0;AUX2;1500.0;AUX3;1500.0;AUX4;1500.0
ALTITUDE;0.0
DEBUG;DEBUG10.0;DEBUG2;0.0;DEBUG3;0.0;DEBUG4;0.0
ATTITUDE;ANGX;2.0;ANGY;0.0;HEAD;-164.0
STATUS;CYCLETIME;2940;I2CERR;0;PRESENT;23;MODE;0
RAW_IMU;AX;12.0;AY;-5.0;AZ;253.0;GX;0.0;GY;0.0;GZ;0.0;MAGX;8.0;MAGY;-87.0;MAGZ;49.0
MOT;0;1000.0;1;1000.0;2;1000.0;3;1000.0;4;0.0;5;0.0;6;0.0;7;0.0;
RC;ROLL;1496.0;PITCH;1505.0;YAW;1511.0;THROTTLE;1065.0;AUX1;1535.0;AUX2;1500.0;AUX3;1500.0;AUX4;1500.0
ALTITUDE;0.0
DEBUG;DEBUG10.0;DEBUG2;0.0;DEBUG3;0.0;DEBUG4;0.0
ATTITUDE;ANGX;2.0;ANGY;0.0;HEAD;-164.0
STATUS;CYCLETIME;2888;I2CERR;0;PRESENT;23;MODE;0
RAW_IMU;AX;14.0;AY;-6.0;AZ;253.0;GX;0.0;GY;0.0;GZ;0.0;MAGX;8.0;MAGY;-86.0;MAGZ;49.0
MOT;0;1000.0;1;1000.0;2;1000.0;3;1000.0;4;0.0;5;0.0;6;0.0;7;0.0;
RC;ROLL;1496.0;PITCH;1505.0;YAW;1511.0;THROTTLE;1063.0;AUX1;1535.0;AUX2;1500.0;AUX3;1500.0;AUX4;1500.0
ALTITUDE;0.0
DEBUG;DEBUG10.0;DEBUG2;0.0;DEBUG3;0.0;DEBUG4;0.0
ATTITUDE;ANGX;2.0;ANGY;0.0;HEAD;-164.0
STATUS;CYCLETIME;2840;I2CERR;0;PRESENT;23;MODE;0
RAW_IMU;AX;11.0;AY;-7.0;AZ;253.0;GX;0.0;GY;0.0;GZ;0.0;MAGX;8.0;MAGY;-86.0;MAGZ;49.0
MOT;0;1000.0;1;1000.0;2;1000.0;3;1000.0;4;0.0;5;0.0;6;0.0;7;0.0;
RC;ROLL;1496.0;PITCH;1505.0;YAW;1511.0;THROTTLE;1063.0;AUX1;1535.0;AUX2;1500.0;AUX3;1500.0;AUX4;1500.0
ALTITUDE;0.0
DEBUG;DEBUG10.0;DEBUG2;0.0;DEBUG3;0.0;DEBUG4;0.0
ATTITUDE;ANGX;2.0;ANGY;0.0;HEAD;-164.0
STATUS;CYCLETIME;2884;I2CERR;0;PRESENT;23;MODE;0
RAW_IMU;AX;13.0;AY;-5.0;AZ;252.0;GX;0.0;GY;0.0;GZ;0.0;MAGX;9.0;MAGY;-87.0;MAGZ;49.0
MOT;0;1000.0;1;1000.0;2;1000.0;3;1000.0;4;0.0;5;0.0;6;0.0;7;0.0;
RC;ROLL;1496.0;PITCH;1505.0;YAW;1511.0;THROTTLE;1063.0;AUX1;1535.0;AUX2;1500.0;AUX3;1500.0;AUX4;1500.0
ALTITUDE;0.0
DEBUG;DEBUG10.0;DEBUG2;0.0;DEBUG3;0.0;DEBUG4;0.0
ATTITUDE;ANGX;2.0;ANGY;0.0;HEAD;-164.0
STATUS;CYCLETIME;2908;I2CERR;0;PRESENT;23;MODE;0
RAW_IMU;AX;13.0;AY;-5.0;AZ;253.0;GX;0.0;GY;0.0;GZ;0.0;MAGX;9.0;MAGY;-87.0;MAGZ;49.0
MOT;0;1000.0;1;1000.0;2;1000.0;3;1000.0;4;0.0;5;0.0;6;0.0;7;0.0;
RC;ROLL;1496.0;PITCH;1503.0;YAW;1511.0;THROTTLE;1063.0;AUX1;1535.0;AUX2;1500.0;AUX3;1500.0;AUX4;1500.0
ALTITUDE;0.0
DEBUG;DEBUG10.0;DEBUG2;0.0;DEBUG3;0.0;DEBUG4;0.0
ATTITUDE;ANGX;2.0;ANGY;0.0;HEAD;-164.0
STATUS;CYCLETIME;2852;I2CERR;0;PRESENT;23;MODE;0
RAW_IMU;AX;12.0;AY;-5.0;AZ;254.0;GX;0.0;GY;0.0;GZ;0.0;MAGX;10.0;MAGY;-87.0;MAGZ;48.0
MOT;0;1000.0;1;1000.0;2;1000.0;3;1000.0;4;0.0;5;0.0;6;0.0;7;0.0;
RC;ROLL;1496.0;PITCH;1503.0;YAW;1511.0;THROTTLE;1063.0;AUX1;1535.0;AUX2;1500.0;AUX3;1500.0;AUX4;1500.0
ALTITUDE;0.0
DEBUG;DEBUG10.0;DEBUG2;0.0;DEBUG3;0.0;DEBUG4;0.0
ATTITUDE;ANGX;2.0;ANGY;0.0;HEAD;-164.0
STATUS;CYCLETIME;2900;I2CERR;0;PRESENT;23;MODE;0
RAW_IMU;AX;12.0;AY;-3.0;AZ;254.0;GX;0.0;GY;0.0;GZ;0.0;MAGX;10.0;MAGY;-87.0;MAGZ;48.0
MOT;0;1000.0;1;1000.0;2;1000.0;3;1000.0;4;0.0;5;0.0;6;0.0;7;0.0;
RC;ROLL;1496.0;PITCH;1503.0;YAW;1511.0;THROTTLE;1063.0;AUX1;1535.0;AUX2;1500.0;AUX3;1500.0;AUX4;1500.0
ALTITUDE;0.0
DEBUG;DEBUG10.0;DEBUG2;0.0;DEBUG3;0.0;DEBUG4;0.0
ATTITUDE;ANGX;2.0;ANGY;0.0;HEAD;-164.0
STATUS;CYCLETIME;3184;I2CERR;0;PRESENT;23;MODE;0
RAW_IMU;AX;13.0;AY;-3.0;AZ;254.0;GX;0.0;GY;0.0;GZ;0.0;MAGX;9.0;MAGY;-87.0;MAGZ;49.0
MOT;0;1000.0;1;1000.0;2;1000.0;3;1000.0;4;0.0;5;0.0;6;0.0;7;0.0;
RC;ROLL;1496.0;PITCH;1503.0;YAW;1511.0;THROTTLE;1063.0;AUX1;1535.0;AUX2;1500.0;AUX3;1500.0;AUX4;1500.0
ALTITUDE;0.0
DEBUG;DEBUG10.0;DEBUG2;0.0;DEBUG3;0.0;DEBUG4;0.0
ATTITUDE;ANGX;2.0;ANGY;0.0;HEAD;-164.0
STATUS;CYCLETIME;2956;I2CERR;0;PRESENT;23;MODE;0
RAW_IMU;AX;12.0;AY;-2.0;AZ;252.0;GX;0.0;GY;0.0;GZ;0.0;MAGX;9.0;MAGY;-87.0;MAGZ;49.0
MOT;0;1000.0;1;1000.0;2;1000.0;3;1000.0;4;0.0;5;0.0;6;0.0;7;0.0;
RC;ROLL;1496.0;PITCH;1503.0;YAW;1511.0;THROTTLE;1063.0;AUX1;1535.0;AUX2;1500.0;AUX3;1500.0;AUX4;1500.0
ALTITUDE;0.0
DEBUG;DEBUG10.0;DEBUG2;0.0;DEBUG3;0.0;DEBUG4;0.0
ATTITUDE;ANGX;2.0;ANGY;0.0;HEAD;-164.0
STATUS;CYCLETIME;2864;I2CERR;0;PRESENT;23;MODE;0
RAW_IMU;AX;11.0;AY;-4.0;AZ;251.0;GX;0.0;GY;0.0;GZ;0.0;MAGX;9.0;MAGY;-87.0;MAGZ;49.0
MOT;0;1000.0;1;1000.0;2;1000.0;3;1000.0;4;0.0;5;0.0;6;0.0;7;0.0;
RC;ROLL;1496.0;PITCH;1503.0;YAW;1511.0;THROTTLE;1063.0;AUX1;1535.0;AUX2;1500.0;AUX3;1500.0;AUX4;1500.0
ALTITUDE;0.0
DEBUG;DEBUG10.0;DEBUG2;0.0;DEBUG3;0.0;DEBUG4;0.0
ATTITUDE;ANGX;2.0;ANGY;0.0;HEAD;-164.0
STATUS;CYCLETIME;2948;I2CERR;0;PRESENT;23;MODE;0
RAW_IMU;AX;13.0;AY;-2.0;AZ;252.0;GX;0.0;GY;0.0;GZ;0.0;MAGX;9.0;MAGY;-86.0;MAGZ;49.0
MOT;0;1000.0;1;1000.0;2;1000.0;3;1000.0;4;0.0;5;0.0;6;0.0;7;0.0;
RC;ROLL;1496.0;PITCH;1503.0;YAW;1511.0;THROTTLE;1063.0;AUX1;1535.0;AUX2;1500.0;AUX3;1500.0;AUX4;1500.0
ALTITUDE;0.0
DEBUG;DEBUG10.0;DEBUG2;0.0;DEBUG3;0.0;DEBUG4;0.0
ATTITUDE;ANGX;2.0;ANGY;0.0;HEAD;-164.0
STATUS;CYCLETIME;2992;I2CERR;0;PRESENT;23;MODE;0
RAW_IMU;AX;14.0;AY;-4.0;AZ;253.0;GX;0.0;GY;0.0;GZ;0.0;MAGX;9.0;MAGY;-86.0;MAGZ;49.0
MOT;0;1000.0;1;1000.0;2;1000.0;3;1000.0;4;0.0;5;0.0;6;0.0;7;0.0;
RC;ROLL;1496.0;PITCH;1501.0;YAW;1551.0;THROTTLE;1063.0;AUX1;1535.0;AUX2;1500.0;AUX3;1500.0;AUX4;1500.0
ALTITUDE;0.0
DEBUG;DEBUG10.0;DEBUG2;0.0;DEBUG3;0.0;DEBUG4;0.0
ATTITUDE;ANGX;2.0;ANGY;0.0;HEAD;-164.0
STATUS;CYCLETIME;2908;I2CERR;0;PRESENT;23;MODE;0
RAW_IMU;AX;13.0;AY;-5.0;AZ;252.0;GX;0.0;GY;0.0;GZ;0.0;MAGX;9.0;MAGY;-86.0;MAGZ;50.0
MOT;0;1000.0;1;1000.0;2;1000.0;3;1000.0;4;0.0;5;0.0;6;0.0;7;0.0;
RC;ROLL;1496.0;PITCH;1501.0;YAW;1588.0;THROTTLE;1061.0;AUX1;1535.0;AUX2;1500.0;AUX3;1500.0;AUX4;1500.0
ALTITUDE;0.0
DEBUG;DEBUG10.0;DEBUG2;0.0;DEBUG3;0.0;DEBUG4;0.0
ATTITUDE;ANGX;2.0;ANGY;0.0;HEAD;-165.0
STATUS;CYCLETIME;2880;I2CERR;0;PRESENT;23;MODE;0
RAW_IMU;AX;11.0;AY;-6.0;AZ;252.0;GX;0.0;GY;0.0;GZ;0.0;MAGX;9.0;MAGY;-86.0;MAGZ;50.0
MOT;0;1000.0;1;1000.0;2;1000.0;3;1000.0;4;0.0;5;0.0;6;0.0;7;0.0;
RC;ROLL;1496.0;PITCH;1503.0;YAW;1654.0;THROTTLE;1059.0;AUX1;1535.0;AUX2;1500.0;AUX3;1500.0;AUX4;1500.0
ALTITUDE;0.0
DEBUG;DEBUG10.0;DEBUG2;0.0;DEBUG3;0.0;DEBUG4;0.0
ATTITUDE;ANGX;2.0;ANGY;0.0;HEAD;-165.0
STATUS;CYCLETIME;2860;I2CERR;0;PRESENT;23;MODE;0
RAW_IMU;AX;9.0;AY;-4.0;AZ;254.0;GX;0.0;GY;0.0;GZ;0.0;MAGX;9.0;MAGY;-86.0;MAGZ;49.0
MOT;0;1000.0;1;1000.0;2;1000.0;3;1000.0;4;0.0;5;0.0;6;0.0;7;0.0;
RC;ROLL;1496.0;PITCH;1503.0;YAW;1758.0;THROTTLE;1059.0;AUX1;1535.0;AUX2;1500.0;AUX3;1500.0;AUX4;1500.0
ALTITUDE;0.0
DEBUG;DEBUG10.0;DEBUG2;0.0;DEBUG3;0.0;DEBUG4;0.0
ATTITUDE;ANGX;2.0;ANGY;0.0;HEAD;-164.0
STATUS;CYCLETIME;2872;I2CERR;0;PRESENT;23;MODE;0
RAW_IMU;AX;12.0;AY;-4.0;AZ;254.0;GX;0.0;GY;0.0;GZ;0.0;MAGX;9.0;MAGY;-86.0;MAGZ;49.0
MOT;0;1000.0;1;1000.0;2;1000.0;3;1000.0;4;0.0;5;0.0;6;0.0;7;0.0;
RC;ROLL;1496.0;PITCH;1503.0;YAW;1846.0;THROTTLE;1059.0;AUX1;1535.0;AUX2;1500.0;AUX3;1500.0;AUX4;1500.0
ALTITUDE;0.0
DEBUG;DEBUG10.0;DEBUG2;0.0;DEBUG3;0.0;DEBUG4;0.0
ATTITUDE;ANGX;2.0;ANGY;0.0;HEAD;-164.0
STATUS;CYCLETIME;2988;I2CERR;0;PRESENT;23;MODE;0
RAW_IMU;AX;10.0;AY;-4.0;AZ;252.0;GX;0.0;GY;0.0;GZ;0.0;MAGX;9.0;MAGY;-87.0;MAGZ;49.0
MOT;0;1000.0;1;1000.0;2;1000.0;3;1000.0;4;0.0;5;0.0;6;0.0;7;0.0;
RC;ROLL;1496.0;PITCH;1503.0;YAW;1894.0;THROTTLE;1059.0;AUX1;1535.0;AUX2;1500.0;AUX3;1500.0;AUX4;1500.0
ALTITUDE;0.0
DEBUG;DEBUG10.0;DEBUG2;0.0;DEBUG3;0.0;DEBUG4;0.0
ATTITUDE;ANGX;2.0;ANGY;0.0;HEAD;-164.0
STATUS;CYCLETIME;2844;I2CERR;0;PRESENT;23;MODE;0
RAW_IMU;AX;11.0;AY;-4.0;AZ;254.0;GX;0.0;GY;0.0;GZ;0.0;MAGX;9.0;MAGY;-87.0;MAGZ;49.0
MOT;0;1000.0;1;1000.0;2;1000.0;3;1000.0;4;0.0;5;0.0;6;0.0;7;0.0;
RC;ROLL;1496.0;PITCH;1503.0;YAW;1898.0;THROTTLE;1057.0;AUX1;1535.0;AUX2;1500.0;AUX3;1500.0;AUX4;1500.0
ALTITUDE;0.0
DEBUG;DEBUG10.0;DEBUG2;0.0;DEBUG3;0.0;DEBUG4;0.0
ATTITUDE;ANGX;2.0;ANGY;0.0;HEAD;-164.0
STATUS;CYCLETIME;2908;I2CERR;0;PRESENT;23;MODE;0
RAW_IMU;AX;12.0;AY;-6.0;AZ;254.0;GX;0.0;GY;0.0;GZ;0.0;MAGX;8.0;MAGY;-88.0;MAGZ;49.0
MOT;0;1000.0;1;1000.0;2;1000.0;3;1000.0;4;0.0;5;0.0;6;0.0;7;0.0;
RC;ROLL;1496.0;PITCH;1505.0;YAW;1903.0;THROTTLE;1057.0;AUX1;1535.0;AUX2;1500.0;AUX3;1500.0;AUX4;1500.0
ALTITUDE;0.0
DEBUG;DEBUG10.0;DEBUG2;0.0;DEBUG3;0.0;DEBUG4;0.0
ATTITUDE;ANGX;2.0;ANGY;0.0;HEAD;-164.0
STATUS;CYCLETIME;2956;I2CERR;0;PRESENT;23;MODE;0
RAW_IMU;AX;11.0;AY;-5.0;AZ;253.0;GX;0.0;GY;0.0;GZ;0.0;MAGX;8.0;MAGY;-88.0;MAGZ;49.0
MOT;0;1000.0;1;1000.0;2;1000.0;3;1000.0;4;0.0;5;0.0;6;0.0;7;0.0;
RC;ROLL;1496.0;PITCH;1505.0;YAW;1903.0;THROTTLE;1057.0;AUX1;1535.0;AUX2;1500.0;AUX3;1500.0;AUX4;1500.0
ALTITUDE;0.0
DEBUG;DEBUG10.0;DEBUG2;0.0;DEBUG3;0.0;DEBUG4;0.0
ATTITUDE;ANGX;2.0;ANGY;0.0;HEAD;-164.0
STATUS;CYCLETIME;3168;I2CERR;0;PRESENT;23;MODE;0
RAW_IMU;AX;13.0;AY;-4.0;AZ;254.0;GX;0.0;GY;0.0;GZ;0.0;MAGX;9.0;MAGY;-86.0;MAGZ;50.0
MOT;0;1000.0;1;1000.0;2;1000.0;3;1000.0;4;0.0;5;0.0;6;0.0;7;0.0;
RC;ROLL;1496.0;PITCH;1505.0;YAW;1903.0;THROTTLE;1057.0;AUX1;1535.0;AUX2;1500.0;AUX3;1500.0;AUX4;1500.0
ALTITUDE;0.0
DEBUG;DEBUG10.0;DEBUG2;0.0;DEBUG3;0.0;DEBUG4;0.0
ATTITUDE;ANGX;2.0;ANGY;0.0;HEAD;-164.0
STATUS;CYCLETIME;2876;I2CERR;0;PRESENT;23;MODE;0
RAW_IMU;AX;13.0;AY;-5.0;AZ;253.0;GX;0.0;GY;0.0;GZ;0.0;MAGX;9.0;MAGY;-86.0;MAGZ;50.0
MOT;0;1000.0;1;1000.0;2;1000.0;3;1000.0;4;0.0;5;0.0;6;0.0;7;0.0;
RC;ROLL;1493.0;PITCH;1505.0;YAW;1903.0;THROTTLE;1051.0;AUX1;1537.0;AUX2;1500.0;AUX3;1500.0;AUX4;1500.0
ALTITUDE;0.0
DEBUG;DEBUG10.0;DEBUG2;0.0;DEBUG3;0.0;DEBUG4;0.0
ATTITUDE;ANGX;2.0;ANGY;0.0;HEAD;-164.0
STATUS;CYCLETIME;2880;I2CERR;0;PRESENT;23;MODE;0
RAW_IMU;AX;13.0;AY;-4.0;AZ;254.0;GX;0.0;GY;0.0;GZ;0.0;MAGX;9.0;MAGY;-86.0;MAGZ;50.0
MOT;0;1000.0;1;1000.0;2;1000.0;3;1000.0;4;0.0;5;0.0;6;0.0;7;0.0;
RC;ROLL;1493.0;PITCH;1505.0;YAW;1906.0;THROTTLE;1051.0;AUX1;1533.0;AUX2;1500.0;AUX3;1500.0;AUX4;1500.0
ALTITUDE;0.0
DEBUG;DEBUG10.0;DEBUG2;0.0;DEBUG3;0.0;DEBUG4;0.0
ATTITUDE;ANGX;2.0;ANGY;0.0;HEAD;-164.0
STATUS;CYCLETIME;2856;I2CERR;0;PRESENT;23;MODE;0
RAW_IMU;AX;13.0;AY;-6.0;AZ;253.0;GX;0.0;GY;0.0;GZ;0.0;MAGX;9.0;MAGY;-87.0;MAGZ;49.0
MOT;0;1000.0;1;1000.0;2;1000.0;3;1000.0;4;0.0;5;0.0;6;0.0;7;0.0;
RC;ROLL;1495.0;PITCH;1505.0;YAW;1906.0;THROTTLE;1056.0;AUX1;1533.0;AUX2;1500.0;AUX3;1500.0;AUX4;1500.0
ALTITUDE;0.0
DEBUG;DEBUG10.0;DEBUG2;0.0;DEBUG3;0.0;DEBUG4;0.0
ATTITUDE;ANGX;2.0;ANGY;0.0;HEAD;-164.0
STATUS;CYCLETIME;2988;I2CERR;0;PRESENT;23;MODE;0
RAW_IMU;AX;14.0;AY;-5.0;AZ;252.0;GX;0.0;GY;0.0;GZ;0.0;MAGX;9.0;MAGY;-87.0;MAGZ;49.0
MOT;0;1000.0;1;1000.0;2;1000.0;3;1000.0;4;0.0;5;0.0;6;0.0;7;0.0;
RC;ROLL;1495.0;PITCH;1505.0;YAW;1904.0;THROTTLE;1056.0;AUX1;1533.0;AUX2;1500.0;AUX3;1500.0;AUX4;1500.0
ALTITUDE;0.0
DEBUG;DEBUG10.0;DEBUG2;0.0;DEBUG3;0.0;DEBUG4;0.0
ATTITUDE;ANGX;2.0;ANGY;0.0;HEAD;-165.0
STATUS;CYCLETIME;2884;I2CERR;0;PRESENT;23;MODE;0
RAW_IMU;AX;11.0;AY;-5.0;AZ;252.0;GX;0.0;GY;0.0;GZ;0.0;MAGX;8.0;MAGY;-86.0;MAGZ;50.0
MOT;0;1000.0;1;1000.0;2;1000.0;3;1000.0;4;0.0;5;0.0;6;0.0;7;0.0;
RC;ROLL;1495.0;PITCH;1505.0;YAW;1904.0;THROTTLE;1056.0;AUX1;1533.0;AUX2;1500.0;AUX3;1500.0;AUX4;1500.0
ALTITUDE;0.0
DEBUG;DEBUG10.0;DEBUG2;0.0;DEBUG3;0.0;DEBUG4;0.0
ATTITUDE;ANGX;2.0;ANGY;0.0;HEAD;-165.0
STATUS;CYCLETIME;2888;I2CERR;0;PRESENT;23;MODE;1
RAW_IMU;AX;10.0;AY;-4.0;AZ;251.0;GX;0.0;GY;0.0;GZ;0.0;MAGX;8.0;MAGY;-86.0;MAGZ;50.0
MOT;0;1150.0;1;1150.0;2;1150.0;3;1150.0;4;0.0;5;0.0;6;0.0;7;0.0;
RC;ROLL;1495.0;PITCH;1505.0;YAW;1904.0;THROTTLE;1056.0;AUX1;1536.0;AUX2;1500.0;AUX3;1500.0;AUX4;1500.0
ALTITUDE;0.0
DEBUG;DEBUG10.0;DEBUG2;0.0;DEBUG3;0.0;DEBUG4;0.0
ATTITUDE;ANGX;2.0;ANGY;0.0;HEAD;-165.0
STATUS;CYCLETIME;2920;I2CERR;0;PRESENT;23;MODE;1
RAW_IMU;AX;12.0;AY;-3.0;AZ;253.0;GX;0.0;GY;0.0;GZ;0.0;MAGX;10.0;MAGY;-86.0;MAGZ;49.0
MOT;0;1150.0;1;1150.0;2;1150.0;3;1150.0;4;0.0;5;0.0;6;0.0;7;0.0;
RC;ROLL;1495.0;PITCH;1505.0;YAW;1904.0;THROTTLE;1056.0;AUX1;1536.0;AUX2;1500.0;AUX3;1500.0;AUX4;1500.0
ALTITUDE;0.0
DEBUG;DEBUG10.0;DEBUG2;0.0;DEBUG3;0.0;DEBUG4;0.0
ATTITUDE;ANGX;2.0;ANGY;0.0;HEAD;-165.0
STATUS;CYCLETIME;2908;I2CERR;0;PRESENT;23;MODE;1
RAW_IMU;AX;13.0;AY;-3.0;AZ;252.0;GX;0.0;GY;0.0;GZ;0.0;MAGX;10.0;MAGY;-86.0;MAGZ;49.0
MOT;0;1150.0;1;1150.0;2;1150.0;3;1150.0;4;0.0;5;0.0;6;0.0;7;0.0;
RC;ROLL;1495.0;PITCH;1505.0;YAW;1904.0;THROTTLE;1056.0;AUX1;1536.0;AUX2;1500.0;AUX3;1500.0;AUX4;1500.0
ALTITUDE;0.0
DEBUG;DEBUG10.0;DEBUG2;0.0;DEBUG3;0.0;DEBUG4;0.0
ATTITUDE;ANGX;2.0;ANGY;0.0;HEAD;-165.0
STATUS;CYCLETIME;3028;I2CERR;0;PRESENT;23;MODE;1
RAW_IMU;AX;13.0;AY;-3.0;AZ;252.0;GX;0.0;GY;0.0;GZ;0.0;MAGX;10.0;MAGY;-87.0;MAGZ;49.0
MOT;0;1150.0;1;1150.0;2;1150.0;3;1150.0;4;0.0;5;0.0;6;0.0;7;0.0;
RC;ROLL;1495.0;PITCH;1505.0;YAW;1904.0;THROTTLE;1056.0;AUX1;1536.0;AUX2;1500.0;AUX3;1500.0;AUX4;1500.0
ALTITUDE;0.0
DEBUG;DEBUG10.0;DEBUG2;0.0;DEBUG3;0.0;DEBUG4;0.0
ATTITUDE;ANGX;2.0;ANGY;0.0;HEAD;-164.0
STATUS;CYCLETIME;2876;I2CERR;0;PRESENT;23;MODE;1
RAW_IMU;AX;12.0;AY;-4.0;AZ;254.0;GX;0.0;GY;0.0;GZ;0.0;MAGX;10.0;MAGY;-87.0;MAGZ;49.0
MOT;0;1150.0;1;1150.0;2;1150.0;3;1150.0;4;0.0;5;0.0;6;0.0;7;0.0;
RC;ROLL;1495.0;PITCH;1505.0;YAW;1904.0;THROTTLE;1056.0;AUX1;1536.0;AUX2;1500.0;AUX3;1500.0;AUX4;1500.0
ALTITUDE;0.0
DEBUG;DEBUG10.0;DEBUG2;0.0;DEBUG3;0.0;DEBUG4;0.0
ATTITUDE;ANGX;2.0;ANGY;0.0;HEAD;-165.0
STATUS;CYCLETIME;2920;I2CERR;0;PRESENT;23;MODE;1
RAW_IMU;AX;13.0;AY;-2.0;AZ;255.0;GX;0.0;GY;0.0;GZ;0.0;MAGX;8.0;MAGY;-87.0;MAGZ;49.0
MOT;0;1150.0;1;1150.0;2;1150.0;3;1150.0;4;0.0;5;0.0;6;0.0;7;0.0;
RC;ROLL;1495.0;PITCH;1505.0;YAW;1904.0;THROTTLE;1056.0;AUX1;1536.0;AUX2;1500.0;AUX3;1500.0;AUX4;1500.0
ALTITUDE;0.0
DEBUG;DEBUG10.0;DEBUG2;0.0;DEBUG3;0.0;DEBUG4;0.0
ATTITUDE;ANGX;2.0;ANGY;0.0;HEAD;-165.0
STATUS;CYCLETIME;2920;I2CERR;0;PRESENT;23;MODE;1
RAW_IMU;AX;14.0;AY;-3.0;AZ;253.0;GX;0.0;GY;0.0;GZ;0.0;MAGX;8.0;MAGY;-87.0;MAGZ;49.0
MOT;0;1150.0;1;1150.0;2;1150.0;3;1150.0;4;0.0;5;0.0;6;0.0;7;0.0;
RC;ROLL;1495.0;PITCH;1505.0;YAW;1904.0;THROTTLE;1056.0;AUX1;1534.0;AUX2;1500.0;AUX3;1500.0;AUX4;1500.0
ALTITUDE;0.0
DEBUG;DEBUG10.0;DEBUG2;0.0;DEBUG3;0.0;DEBUG4;0.0
ATTITUDE;ANGX;2.0;ANGY;0.0;HEAD;-165.0
STATUS;CYCLETIME;2900;I2CERR;0;PRESENT;23;MODE;1
RAW_IMU;AX;12.0;AY;-4.0;AZ;253.0;GX;0.0;GY;0.0;GZ;0.0;MAGX;9.0;MAGY;-87.0;MAGZ;49.0
MOT;0;1150.0;1;1150.0;2;1150.0;3;1150.0;4;0.0;5;0.0;6;0.0;7;0.0;
RC;ROLL;1495.0;PITCH;1505.0;YAW;1904.0;THROTTLE;1056.0;AUX1;1534.0;AUX2;1500.0;AUX3;1500.0;AUX4;1500.0
ALTITUDE;0.0
DEBUG;DEBUG10.0;DEBUG2;0.0;DEBUG3;0.0;DEBUG4;0.0
ATTITUDE;ANGX;2.0;ANGY;0.0;HEAD;-165.0
STATUS;CYCLETIME;2896;I2CERR;0;PRESENT;23;MODE;1
RAW_IMU;AX;12.0;AY;-4.0;AZ;253.0;GX;0.0;GY;0.0;GZ;0.0;MAGX;9.0;MAGY;-87.0;MAGZ;49.0
MOT;0;1150.0;1;1150.0;2;1150.0;3;1150.0;4;0.0;5;0.0;6;0.0;7;0.0;
RC;ROLL;1495.0;PITCH;1503.0;YAW;1904.0;THROTTLE;1056.0;AUX1;1534.0;AUX2;1500.0;AUX3;1500.0;AUX4;1500.0
ALTITUDE;0.0
DEBUG;DEBUG10.0;DEBUG2;0.0;DEBUG3;0.0;DEBUG4;0.0
ATTITUDE;ANGX;2.0;ANGY;0.0;HEAD;-165.0
STATUS;CYCLETIME;2916;I2CERR;0;PRESENT;23;MODE;1
RAW_IMU;AX;11.0;AY;-3.0;AZ;253.0;GX;0.0;GY;0.0;GZ;0.0;MAGX;9.0;MAGY;-87.0;MAGZ;49.0
MOT;0;1150.0;1;1150.0;2;1150.0;3;1150.0;4;0.0;5;0.0;6;0.0;7;0.0;
RC;ROLL;1495.0;PITCH;1503.0;YAW;1904.0;THROTTLE;1056.0;AUX1;1534.0;AUX2;1500.0;AUX3;1500.0;AUX4;1500.0
ALTITUDE;0.0
DEBUG;DEBUG10.0;DEBUG2;0.0;DEBUG3;0.0;DEBUG4;0.0
ATTITUDE;ANGX;2.0;ANGY;0.0;HEAD;-165.0
STATUS;CYCLETIME;2904;I2CERR;0;PRESENT;23;MODE;1
RAW_IMU;AX;11.0;AY;-4.0;AZ;254.0;GX;0.0;GY;0.0;GZ;0.0;MAGX;9.0;MAGY;-87.0;MAGZ;49.0
MOT;0;1150.0;1;1150.0;2;1150.0;3;1150.0;4;0.0;5;0.0;6;0.0;7;0.0;
RC;ROLL;1495.0;PITCH;1503.0;YAW;1904.0;THROTTLE;1056.0;AUX1;1534.0;AUX2;1500.0;AUX3;1500.0;AUX4;1500.0
ALTITUDE;0.0
DEBUG;DEBUG10.0;DEBUG2;0.0;DEBUG3;0.0;DEBUG4;0.0
ATTITUDE;ANGX;2.0;ANGY;0.0;HEAD;-165.0
STATUS;CYCLETIME;3000;I2CERR;0;PRESENT;23;MODE;1
RAW_IMU;AX;11.0;AY;-3.0;AZ;254.0;GX;0.0;GY;0.0;GZ;0.0;MAGX;9.0;MAGY;-87.0;MAGZ;49.0
MOT;0;1150.0;1;1150.0;2;1150.0;3;1150.0;4;0.0;5;0.0;6;0.0;7;0.0;
RC;ROLL;1495.0;PITCH;1503.0;YAW;1904.0;THROTTLE;1056.0;AUX1;1534.0;AUX2;1500.0;AUX3;1500.0;AUX4;1500.0
ALTITUDE;0.0
DEBUG;DEBUG10.0;DEBUG2;0.0;DEBUG3;0.0;DEBUG4;0.0
ATTITUDE;ANGX;2.0;ANGY;0.0;HEAD;-165.0
STATUS;CYCLETIME;2924;I2CERR;0;PRESENT;23;MODE;1
RAW_IMU;AX;11.0;AY;-4.0;AZ;252.0;GX;0.0;GY;0.0;GZ;0.0;MAGX;8.0;MAGY;-87.0;MAGZ;48.0
MOT;0;1150.0;1;1150.0;2;1150.0;3;1150.0;4;0.0;5;0.0;6;0.0;7;0.0;
RC;ROLL;1495.0;PITCH;1503.0;YAW;1904.0;THROTTLE;1056.0;AUX1;1534.0;AUX2;1500.0;AUX3;1500.0;AUX4;1500.0
ALTITUDE;0.0
DEBUG;DEBUG10.0;DEBUG2;0.0;DEBUG3;0.0;DEBUG4;0.0
ATTITUDE;ANGX;2.0;ANGY;0.0;HEAD;-165.0
STATUS;CYCLETIME;2904;I2CERR;0;PRESENT;23;MODE;1
RAW_IMU;AX;12.0;AY;-4.0;AZ;254.0;GX;0.0;GY;0.0;GZ;0.0;MAGX;8.0;MAGY;-87.0;MAGZ;48.0
MOT;0;1150.0;1;1150.0;2;1150.0;3;1150.0;4;0.0;5;0.0;6;0.0;7;0.0;
RC;ROLL;1495.0;PITCH;1503.0;YAW;1904.0;THROTTLE;1056.0;AUX1;1534.0;AUX2;1500.0;AUX3;1500.0;AUX4;1500.0
ALTITUDE;0.0
DEBUG;DEBUG10.0;DEBUG2;0.0;DEBUG3;0.0;DEBUG4;0.0
ATTITUDE;ANGX;2.0;ANGY;0.0;HEAD;-165.0
STATUS;CYCLETIME;2880;I2CERR;0;PRESENT;23;MODE;1
RAW_IMU;AX;12.0;AY;-5.0;AZ;254.0;GX;0.0;GY;0.0;GZ;0.0;MAGX;9.0;MAGY;-86.0;MAGZ;49.0
MOT;0;1150.0;1;1150.0;2;1150.0;3;1150.0;4;0.0;5;0.0;6;0.0;7;0.0;
RC;ROLL;1495.0;PITCH;1503.0;YAW;1904.0;THROTTLE;1056.0;AUX1;1534.0;AUX2;1500.0;AUX3;1500.0;AUX4;1500.0
ALTITUDE;0.0
DEBUG;DEBUG10.0;DEBUG2;0.0;DEBUG3;0.0;DEBUG4;0.0
ATTITUDE;ANGX;2.0;ANGY;0.0;HEAD;-165.0
STATUS;CYCLETIME;2904;I2CERR;0;PRESENT;23;MODE;1
RAW_IMU;AX;12.0;AY;-5.0;AZ;253.0;GX;0.0;GY;0.0;GZ;0.0;MAGX;9.0;MAGY;-86.0;MAGZ;49.0
MOT;0;1150.0;1;1150.0;2;1150.0;3;1150.0;4;0.0;5;0.0;6;0.0;7;0.0;
RC;ROLL;1495.0;PITCH;1503.0;YAW;1904.0;THROTTLE;1056.0;AUX1;1534.0;AUX2;1500.0;AUX3;1500.0;AUX4;1500.0
ALTITUDE;0.0
DEBUG;DEBUG10.0;DEBUG2;0.0;DEBUG3;0.0;DEBUG4;0.0
ATTITUDE;ANGX;2.0;ANGY;0.0;HEAD;-165.0
STATUS;CYCLETIME;2956;I2CERR;0;PRESENT;23;MODE;1
RAW_IMU;AX;11.0;AY;-5.0;AZ;254.0;GX;0.0;GY;0.0;GZ;0.0;MAGX;9.0;MAGY;-87.0;MAGZ;50.0
MOT;0;1150.0;1;1150.0;2;1150.0;3;1150.0;4;0.0;5;0.0;6;0.0;7;0.0;
RC;ROLL;1495.0;PITCH;1503.0;YAW;1904.0;THROTTLE;1056.0;AUX1;1534.0;AUX2;1500.0;AUX3;1500.0;AUX4;1500.0
ALTITUDE;0.0
DEBUG;DEBUG10.0;DEBUG2;0.0;DEBUG3;0.0;DEBUG4;0.0
ATTITUDE;ANGX;2.0;ANGY;0.0;HEAD;-165.0
STATUS;CYCLETIME;2908;I2CERR;0;PRESENT;23;MODE;1
RAW_IMU;AX;12.0;AY;-6.0;AZ;253.0;GX;0.0;GY;0.0;GZ;0.0;MAGX;9.0;MAGY;-87.0;MAGZ;50.0
MOT;0;1150.0;1;1150.0;2;1150.0;3;1150.0;4;0.0;5;0.0;6;0.0;7;0.0;
RC;ROLL;1495.0;PITCH;1503.0;YAW;1904.0;THROTTLE;1056.0;AUX1;1534.0;AUX2;1500.0;AUX3;1500.0;AUX4;1500.0
ALTITUDE;0.0
DEBUG;DEBUG10.0;DEBUG2;0.0;DEBUG3;0.0;DEBUG4;0.0
ATTITUDE;ANGX;2.0;ANGY;0.0;HEAD;-165.0
STATUS;CYCLETIME;2872;I2CERR;0;PRESENT;23;MODE;1
RAW_IMU;AX;12.0;AY;-6.0;AZ;252.0;GX;0.0;GY;0.0;GZ;0.0;MAGX;9.0;MAGY;-88.0;MAGZ;49.0
MOT;0;1150.0;1;1150.0;2;1150.0;3;1150.0;4;0.0;5;0.0;6;0.0;7;0.0;
RC;ROLL;1495.0;PITCH;1503.0;YAW;1904.0;THROTTLE;1056.0;AUX1;1534.0;AUX2;1500.0;AUX3;1500.0;AUX4;1500.0
ALTITUDE;0.0
DEBUG;DEBUG10.0;DEBUG2;0.0;DEBUG3;0.0;DEBUG4;0.0
ATTITUDE;ANGX;2.0;ANGY;0.0;HEAD;-165.0
STATUS;CYCLETIME;2880;I2CERR;0;PRESENT;23;MODE;1
RAW_IMU;AX;14.0;AY;-4.0;AZ;253.0;GX;0.0;GY;0.0;GZ;0.0;MAGX;9.0;MAGY;-88.0;MAGZ;49.0
MOT;0;1150.0;1;1150.0;2;1150.0;3;1150.0;4;0.0;5;0.0;6;0.0;7;0.0;
RC;ROLL;1493.0;PITCH;1503.0;YAW;1904.0;THROTTLE;1056.0;AUX1;1534.0;AUX2;1500.0;AUX3;1500.0;AUX4;1500.0
ALTITUDE;0.0
DEBUG;DEBUG10.0;DEBUG2;0.0;DEBUG3;0.0;DEBUG4;0.0
ATTITUDE;ANGX;2.0;ANGY;0.0;HEAD;-165.0
STATUS;CYCLETIME;3164;I2CERR;0;PRESENT;23;MODE;1
RAW_IMU;AX;12.0;AY;-5.0;AZ;253.0;GX;0.0;GY;0.0;GZ;0.0;MAGX;8.0;MAGY;-86.0;MAGZ;49.0
MOT;0;1150.0;1;1150.0;2;1150.0;3;1150.0;4;0.0;5;0.0;6;0.0;7;0.0;
RC;ROLL;1493.0;PITCH;1503.0;YAW;1904.0;THROTTLE;1056.0;AUX1;1534.0;AUX2;1500.0;AUX3;1500.0;AUX4;1500.0
ALTITUDE;0.0
DEBUG;DEBUG10.0;DEBUG2;0.0;DEBUG3;0.0;DEBUG4;0.0
ATTITUDE;ANGX;2.0;ANGY;0.0;HEAD;-165.0
STATUS;CYCLETIME;2888;I2CERR;0;PRESENT;23;MODE;1
RAW_IMU;AX;14.0;AY;-5.0;AZ;256.0;GX;0.0;GY;0.0;GZ;0.0;MAGX;8.0;MAGY;-86.0;MAGZ;49.0
MOT;0;1150.0;1;1150.0;2;1150.0;3;1150.0;4;0.0;5;0.0;6;0.0;7;0.0;
RC;ROLL;1493.0;PITCH;1503.0;YAW;1901.0;THROTTLE;1056.0;AUX1;1534.0;AUX2;1500.0;AUX3;1500.0;AUX4;1500.0
ALTITUDE;0.0
DEBUG;DEBUG10.0;DEBUG2;0.0;DEBUG3;0.0;DEBUG4;0.0
ATTITUDE;ANGX;2.0;ANGY;0.0;HEAD;-165.0
STATUS;CYCLETIME;2880;I2CERR;0;PRESENT;23;MODE;1
RAW_IMU;AX;13.0;AY;-3.0;AZ;255.0;GX;0.0;GY;0.0;GZ;0.0;MAGX;8.0;MAGY;-86.0;MAGZ;49.0
MOT;0;1150.0;1;1150.0;2;1150.0;3;1150.0;4;0.0;5;0.0;6;0.0;7;0.0;
RC;ROLL;1493.0;PITCH;1503.0;YAW;1880.0;THROTTLE;1056.0;AUX1;1534.0;AUX2;1500.0;AUX3;1500.0;AUX4;1500.0
ALTITUDE;0.0
DEBUG;DEBUG10.0;DEBUG2;0.0;DEBUG3;0.0;DEBUG4;0.0
ATTITUDE;ANGX;2.0;ANGY;0.0;HEAD;-165.0
STATUS;CYCLETIME;2912;I2CERR;0;PRESENT;23;MODE;1
RAW_IMU;AX;13.0;AY;-2.0;AZ;254.0;GX;0.0;GY;0.0;GZ;0.0;MAGX;9.0;MAGY;-87.0;MAGZ;49.0
MOT;0;1150.0;1;1150.0;2;1150.0;3;1150.0;4;0.0;5;0.0;6;0.0;7;0.0;
RC;ROLL;1493.0;PITCH;1503.0;YAW;1829.0;THROTTLE;1058.0;AUX1;1534.0;AUX2;1500.0;AUX3;1500.0;AUX4;1500.0
ALTITUDE;0.0
DEBUG;DEBUG10.0;DEBUG2;0.0;DEBUG3;0.0;DEBUG4;0.0
ATTITUDE;ANGX;2.0;ANGY;0.0;HEAD;-165.0
STATUS;CYCLETIME;2972;I2CERR;0;PRESENT;23;MODE;1
RAW_IMU;AX;14.0;AY;-3.0;AZ;254.0;GX;0.0;GY;0.0;GZ;0.0;MAGX;9.0;MAGY;-87.0;MAGZ;49.0
MOT;0;1150.0;1;1150.0;2;1150.0;3;1150.0;4;0.0;5;0.0;6;0.0;7;0.0;
RC;ROLL;1495.0;PITCH;1503.0;YAW;1729.0;THROTTLE;1060.0;AUX1;1534.0;AUX2;1500.0;AUX3;1500.0;AUX4;1500.0
ALTITUDE;0.0
DEBUG;DEBUG10.0;DEBUG2;0.0;DEBUG3;0.0;DEBUG4;0.0
ATTITUDE;ANGX;2.0;ANGY;0.0;HEAD;-165.0
STATUS;CYCLETIME;2896;I2CERR;0;PRESENT;23;MODE;1
RAW_IMU;AX;14.0;AY;-5.0;AZ;251.0;GX;0.0;GY;0.0;GZ;0.0;MAGX;9.0;MAGY;-87.0;MAGZ;49.0
MOT;0;1150.0;1;1150.0;2;1150.0;3;1150.0;4;0.0;5;0.0;6;0.0;7;0.0;
RC;ROLL;1495.0;PITCH;1503.0;YAW;1655.0;THROTTLE;1060.0;AUX1;1534.0;AUX2;1500.0;AUX3;1500.0;AUX4;1500.0
ALTITUDE;0.0
DEBUG;DEBUG10.0;DEBUG2;0.0;DEBUG3;0.0;DEBUG4;0.0
ATTITUDE;ANGX;2.0;ANGY;0.0;HEAD;-165.0
STATUS;CYCLETIME;2864;I2CERR;0;PRESENT;23;MODE;1
RAW_IMU;AX;14.0;AY;-5.0;AZ;251.0;GX;0.0;GY;0.0;GZ;0.0;MAGX;9.0;MAGY;-87.0;MAGZ;49.0
MOT;0;1150.0;1;1150.0;2;1150.0;3;1150.0;4;0.0;5;0.0;6;0.0;7;0.0;
RC;ROLL;1495.0;PITCH;1503.0;YAW;1569.0;THROTTLE;1060.0;AUX1;1534.0;AUX2;1500.0;AUX3;1500.0;AUX4;1500.0
ALTITUDE;0.0
DEBUG;DEBUG10.0;DEBUG2;0.0;DEBUG3;0.0;DEBUG4;0.0
ATTITUDE;ANGX;2.0;ANGY;0.0;HEAD;-165.0
STATUS;CYCLETIME;2872;I2CERR;0;PRESENT;23;MODE;1
RAW_IMU;AX;11.0;AY;-5.0;AZ;252.0;GX;0.0;GY;0.0;GZ;0.0;MAGX;10.0;MAGY;-87.0;MAGZ;49.0
MOT;0;1150.0;1;1150.0;2;1150.0;3;1150.0;4;0.0;5;0.0;6;0.0;7;0.0;
RC;ROLL;1495.0;PITCH;1503.0;YAW;1535.0;THROTTLE;1060.0;AUX1;1534.0;AUX2;1500.0;AUX3;1500.0;AUX4;1500.0
ALTITUDE;0.0
DEBUG;DEBUG10.0;DEBUG2;0.0;DEBUG3;0.0;DEBUG4;0.0
ATTITUDE;ANGX;2.0;ANGY;0.0;HEAD;-164.0
STATUS;CYCLETIME;2880;I2CERR;0;PRESENT;23;MODE;1
RAW_IMU;AX;13.0;AY;-3.0;AZ;253.0;GX;0.0;GY;0.0;GZ;0.0;MAGX;10.0;MAGY;-87.0;MAGZ;49.0
MOT;0;1150.0;1;1150.0;2;1150.0;3;1150.0;4;0.0;5;0.0;6;0.0;7;0.0;
RC;ROLL;1495.0;PITCH;1503.0;YAW;1516.0;THROTTLE;1060.0;AUX1;1534.0;AUX2;1500.0;AUX3;1500.0;AUX4;1500.0
ALTITUDE;0.0
DEBUG;DEBUG10.0;DEBUG2;0.0;DEBUG3;0.0;DEBUG4;0.0
ATTITUDE;ANGX;2.0;ANGY;0.0;HEAD;-164.0
STATUS;CYCLETIME;2884;I2CERR;0;PRESENT;23;MODE;1
RAW_IMU;AX;12.0;AY;-3.0;AZ;252.0;GX;0.0;GY;0.0;GZ;0.0;MAGX;9.0;MAGY;-87.0;MAGZ;49.0
MOT;0;1150.0;1;1150.0;2;1150.0;3;1150.0;4;0.0;5;0.0;6;0.0;7;0.0;
RC;ROLL;1495.0;PITCH;1503.0;YAW;1509.0;THROTTLE;1060.0;AUX1;1534.0;AUX2;1500.0;AUX3;1500.0;AUX4;1500.0
ALTITUDE;0.0
DEBUG;DEBUG10.0;DEBUG2;0.0;DEBUG3;0.0;DEBUG4;0.0
ATTITUDE;ANGX;2.0;ANGY;0.0;HEAD;-164.0
STATUS;CYCLETIME;2956;I2CERR;0;PRESENT;23;MODE;1
RAW_IMU;AX;12.0;AY;-1.0;AZ;254.0;GX;0.0;GY;0.0;GZ;0.0;MAGX;9.0;MAGY;-87.0;MAGZ;49.0
MOT;0;1150.0;1;1150.0;2;1150.0;3;1150.0;4;0.0;5;0.0;6;0.0;7;0.0;
RC;ROLL;1495.0;PITCH;1503.0;YAW;1505.0;THROTTLE;1062.0;AUX1;1534.0;AUX2;1500.0;AUX3;1500.0;AUX4;1500.0
ALTITUDE;0.0
DEBUG;DEBUG10.0;DEBUG2;0.0;DEBUG3;0.0;DEBUG4;0.0
ATTITUDE;ANGX;2.0;ANGY;0.0;HEAD;-164.0
STATUS;CYCLETIME;2900;I2CERR;0;PRESENT;23;MODE;1
RAW_IMU;AX;12.0;AY;-3.0;AZ;253.0;GX;0.0;GY;0.0;GZ;0.0;MAGX;9.0;MAGY;-86.0;MAGZ;48.0
MOT;0;1150.0;1;1150.0;2;1150.0;3;1150.0;4;0.0;5;0.0;6;0.0;7;0.0;
RC;ROLL;1495.0;PITCH;1503.0;YAW;1503.0;THROTTLE;1062.0;AUX1;1534.0;AUX2;1500.0;AUX3;1500.0;AUX4;1500.0
ALTITUDE;0.0
DEBUG;DEBUG10.0;DEBUG2;0.0;DEBUG3;0.0;DEBUG4;0.0
ATTITUDE;ANGX;2.0;ANGY;0.0;HEAD;-164.0
STATUS;CYCLETIME;2872;I2CERR;0;PRESENT;23;MODE;1
RAW_IMU;AX;12.0;AY;-3.0;AZ;253.0;GX;0.0;GY;0.0;GZ;0.0;MAGX;9.0;MAGY;-86.0;MAGZ;48.0
MOT;0;1150.0;1;1150.0;2;1150.0;3;1150.0;4;0.0;5;0.0;6;0.0;7;0.0;
RC;ROLL;1495.0;PITCH;1503.0;YAW;1503.0;THROTTLE;1062.0;AUX1;1534.0;AUX2;1500.0;AUX3;1500.0;AUX4;1500.0
ALTITUDE;0.0
DEBUG;DEBUG10.0;DEBUG2;0.0;DEBUG3;0.0;DEBUG4;0.0
ATTITUDE;ANGX;2.0;ANGY;0.0;HEAD;-164.0
STATUS;CYCLETIME;2860;I2CERR;0;PRESENT;23;MODE;1
RAW_IMU;AX;11.0;AY;-3.0;AZ;255.0;GX;0.0;GY;0.0;GZ;0.0;MAGX;9.0;MAGY;-87.0;MAGZ;49.0
MOT;0;1150.0;1;1150.0;2;1150.0;3;1150.0;4;0.0;5;0.0;6;0.0;7;0.0;
RC;ROLL;1495.0;PITCH;1503.0;YAW;1503.0;THROTTLE;1062.0;AUX1;1534.0;AUX2;1500.0;AUX3;1500.0;AUX4;1500.0
ALTITUDE;0.0
DEBUG;DEBUG10.0;DEBUG2;0.0;DEBUG3;0.0;DEBUG4;0.0
ATTITUDE;ANGX;2.0;ANGY;0.0;HEAD;-164.0
STATUS;CYCLETIME;2900;I2CERR;0;PRESENT;23;MODE;1
RAW_IMU;AX;11.0;AY;-2.0;AZ;257.0;GX;0.0;GY;0.0;GZ;0.0;MAGX;9.0;MAGY;-87.0;MAGZ;49.0
MOT;0;1150.0;1;1150.0;2;1150.0;3;1150.0;4;0.0;5;0.0;6;0.0;7;0.0;
RC;ROLL;1495.0;PITCH;1503.0;YAW;1503.0;THROTTLE;1064.0;AUX1;1534.0;AUX2;1500.0;AUX3;1500.0;AUX4;1500.0
ALTITUDE;0.0
DEBUG;DEBUG10.0;DEBUG2;0.0;DEBUG3;0.0;DEBUG4;0.0
ATTITUDE;ANGX;2.0;ANGY;0.0;HEAD;-164.0
STATUS;CYCLETIME;2932;I2CERR;0;PRESENT;23;MODE;1
RAW_IMU;AX;10.0;AY;-4.0;AZ;254.0;GX;0.0;GY;0.0;GZ;0.0;MAGX;9.0;MAGY;-87.0;MAGZ;49.0
MOT;0;1150.0;1;1150.0;2;1150.0;3;1150.0;4;0.0;5;0.0;6;0.0;7;0.0;
RC;ROLL;1495.0;PITCH;1503.0;YAW;1503.0;THROTTLE;1064.0;AUX1;1534.0;AUX2;1500.0;AUX3;1500.0;AUX4;1500.0
ALTITUDE;0.0
DEBUG;DEBUG10.0;DEBUG2;0.0;DEBUG3;0.0;DEBUG4;0.0
ATTITUDE;ANGX;2.0;ANGY;0.0;HEAD;-164.0
STATUS;CYCLETIME;2880;I2CERR;0;PRESENT;23;MODE;1
