IDENT;V;220;TYPE;3
MSP_MOTOR_PINS
STATUS;CYCLETIME;2872;I2CERR;0;PRESENT;23;MODE;0
RAW_IMU;AX;24.0;AY;8.0;AZ;262.0;GX;0.0;GY;0.0;GZ;0.0;MAGX;89.0;MAGY;-72.0;MAGZ;-7.0
MOT;0;1000.0;1;1000.0;2;1000.0;3;1000.0;4;0.0;5;0.0;6;0.0;7;0.0;
RC;ROLL;1500.0;PITCH;1500.0;YAW;1500.0;THROTTLE;1500.0;AUX1;1500.0;AUX2;1500.0;AUX3;1500.0;AUX4;1500.0
ALTITUDE;0.0
DEBUG;DEBUG10.0;DEBUG2;0.0;DEBUG3;0.0;DEBUG4;0.0
ATTITUDE;ANGX;5.0;ANGY;1.0;HEAD;-118.0
STATUS;CYCLETIME;2828;I2CERR;0;PRESENT;23;MODE;0
RAW_IMU;AX;24.0;AY;5.0;AZ;261.0;GX;0.0;GY;0.0;GZ;0.0;MAGX;89.0;MAGY;-72.0;MAGZ;-7.0
MOT;0;1000.0;1;1000.0;2;1000.0;3;1000.0;4;0.0;5;0.0;6;0.0;7;0.0;
RC;ROLL;1500.0;PITCH;1500.0;YAW;1500.0;THROTTLE;1500.0;AUX1;1500.0;AUX2;1500.0;AUX3;1500.0;AUX4;1500.0
ALTITUDE;0.0
DEBUG;DEBUG10.0;DEBUG2;0.0;DEBUG3;0.0;DEBUG4;0.0
ATTITUDE;ANGX;5.0;ANGY;1.0;HEAD;-118.0
ATTITUDE;ANGX;5.0;ANGY;1.0;HEAD;-119.0
STATUS;CYCLETIME;2828;I2CERR;0;PRESENT;23;MODE;0
RAW_IMU;AX;25.0;AY;4.0;AZ;260.0;GX;0.0;GY;0.0;GZ;0.0;MAGX;88.0;MAGY;-72.0;MAGZ;-7.0
MOT;0;1000.0;1;1000.0;2;1000.0;3;1000.0;4;0.0;5;0.0;6;0.0;7;0.0;
RC;ROLL;1500.0;PITCH;1500.0;YAW;1500.0;THROTTLE;1500.0;AUX1;1500.0;AUX2;1500.0;AUX3;1500.0;AUX4;1500.0
ALTITUDE;0.0
DEBUG;DEBUG10.0;DEBUG2;0.0;DEBUG3;0.0;DEBUG4;0.0
ATTITUDE;ANGX;5.0;ANGY;1.0;HEAD;-118.0
STATUS;CYCLETIME;2980;I2CERR;0;PRESENT;23;MODE;0
RAW_IMU;AX;24.0;AY;4.0;AZ;261.0;GX;0.0;GY;0.0;GZ;0.0;MAGX;88.0;MAGY;-72.0;MAGZ;-7.0
MOT;0;1000.0;1;1000.0;2;1000.0;3;1000.0;4;0.0;5;0.0;6;0.0;7;0.0;
RC;ROLL;1500.0;PITCH;1500.0;YAW;1500.0;THROTTLE;1500.0;AUX1;1500.0;AUX2;1500.0;AUX3;1500.0;AUX4;1500.0
ALTITUDE;0.0
DEBUG;DEBUG10.0;DEBUG2;0.0;DEBUG3;0.0;DEBUG4;0.0
ATTITUDE;ANGX;5.0;ANGY;1.0;HEAD;-118.0
STATUS;CYCLETIME;3000;I2CERR;0;PRESENT;23;MODE;0
RAW_IMU;AX;23.0;AY;5.0;AZ;260.0;GX;0.0;GY;0.0;GZ;0.0;MAGX;89.0;MAGY;-72.0;MAGZ;-7.0
MOT;0;1000.0;1;1000.0;2;1000.0;3;1000.0;4;0.0;5;0.0;6;0.0;7;0.0;
RC;ROLL;1500.0;PITCH;1500.0;YAW;1500.0;THROTTLE;1500.0;AUX1;1500.0;AUX2;1500.0;AUX3;1500.0;AUX4;1500.0
ALTITUDE;0.0
DEBUG;DEBUG10.0;DEBUG2;0.0;DEBUG3;0.0;DEBUG4;0.0
ATTITUDE;ANGX;5.0;ANGY;1.0;HEAD;-118.0
STATUS;CYCLETIME;2832;I2CERR;0;PRESENT;23;MODE;0
RAW_IMU;AX;24.0;AY;6.0;AZ;263.0;GX;0.0;GY;0.0;GZ;0.0;MAGX;89.0;MAGY;-72.0;MAGZ;-7.0
MOT;0;1000.0;1;1000.0;2;1000.0;3;1000.0;4;0.0;5;0.0;6;0.0;7;0.0;
RC;ROLL;1500.0;PITCH;1500.0;YAW;1500.0;THROTTLE;1500.0;AUX1;1500.0;AUX2;1500.0;AUX3;1500.0;AUX4;1500.0
ALTITUDE;0.0
DEBUG;DEBUG10.0;DEBUG2;0.0;DEBUG3;0.0;DEBUG4;0.0
ATTITUDE;ANGX;5.0;ANGY;1.0;HEAD;-118.0
STATUS;CYCLETIME;2828;I2CERR;0;PRESENT;23;MODE;0
RAW_IMU;AX;24.0;AY;7.0;AZ;256.0;GX;0.0;GY;0.0;GZ;0.0;MAGX;89.0;MAGY;-73.0;MAGZ;-8.0
MOT;0;1000.0;1;1000.0;2;1000.0;3;1000.0;4;0.0;5;0.0;6;0.0;7;0.0;
RC;ROLL;1500.0;PITCH;1500.0;YAW;1500.0;THROTTLE;1500.0;AUX1;1500.0;AUX2;1500.0;AUX3;1500.0;AUX4;1500.0
ALTITUDE;0.0
DEBUG;DEBUG10.0;DEBUG2;0.0;DEBUG3;0.0;DEBUG4;0.0
ATTITUDE;ANGX;5.0;ANGY;1.0;HEAD;-118.0
STATUS;CYCLETIME;2932;I2CERR;0;PRESENT;23;MODE;0
RAW_IMU;AX;24.0;AY;4.0;AZ;259.0;GX;0.0;GY;0.0;GZ;0.0;MAGX;89.0;MAGY;-73.0;MAGZ;-8.0
MOT;0;1000.0;1;1000.0;2;1000.0;3;1000.0;4;0.0;5;0.0;6;0.0;7;0.0;
RC;ROLL;1500.0;PITCH;1500.0;YAW;1500.0;THROTTLE;1500.0;AUX1;1500.0;AUX2;1500.0;AUX3;1500.0;AUX4;1500.0
ALTITUDE;0.0
DEBUG;DEBUG10.0;DEBUG2;0.0;DEBUG3;0.0;DEBUG4;0.0
ATTITUDE;ANGX;5.0;ANGY;1.0;HEAD;-118.0
STATUS;CYCLETIME;2904;I2CERR;0;PRESENT;23;MODE;0
RAW_IMU;AX;25.0;AY;5.0;AZ;259.0;GX;0.0;GY;0.0;GZ;0.0;MAGX;88.0;MAGY;-73.0;MAGZ;-7.0
MOT;0;1000.0;1;1000.0;2;1000.0;3;1000.0;4;0.0;5;0.0;6;0.0;7;0.0;
RC;ROLL;1500.0;PITCH;1500.0;YAW;1500.0;THROTTLE;1500.0;AUX1;1500.0;AUX2;1500.0;AUX3;1500.0;AUX4;1500.0
ALTITUDE;0.0
DEBUG;DEBUG10.0;DEBUG2;0.0;DEBUG3;0.0;DEBUG4;0.0
ATTITUDE;ANGX;5.0;ANGY;1.0;HEAD;-119.0
STATUS;CYCLETIME;2848;I2CERR;0;PRESENT;23;MODE;0
RAW_IMU;AX;21.0;AY;8.0;AZ;263.0;GX;0.0;GY;0.0;GZ;0.0;MAGX;88.0;MAGY;-73.0;MAGZ;-7.0
MOT;0;1000.0;1;1000.0;2;1000.0;3;1000.0;4;0.0;5;0.0;6;0.0;7;0.0;
RC;ROLL;1500.0;PITCH;1500.0;YAW;1500.0;THROTTLE;1500.0;AUX1;1500.0;AUX2;1500.0;AUX3;1500.0;AUX4;1500.0
ALTITUDE;0.0
DEBUG;DEBUG10.0;DEBUG2;0.0;DEBUG3;0.0;DEBUG4;0.0
ATTITUDE;ANGX;5.0;ANGY;1.0;HEAD;-118.0
STATUS;CYCLETIME;2828;I2CERR;0;PRESENT;23;MODE;0
RAW_IMU;AX;24.0;AY;5.0;AZ;263.0;GX;0.0;GY;0.0;GZ;0.0;MAGX;88.0;MAGY;-72.0;MAGZ;-8.0
MOT;0;1000.0;1;1000.0;2;1000.0;3;1000.0;4;0.0;5;0.0;6;0.0;7;0.0;
RC;ROLL;1500.0;PITCH;1500.0;YAW;1500.0;THROTTLE;1500.0;AUX1;1500.0;AUX2;1500.0;AUX3;1500.0;AUX4;1500.0
ALTITUDE;0.0
DEBUG;DEBUG10.0;DEBUG2;0.0;DEBUG3;0.0;DEBUG4;0.0
ATTITUDE;ANGX;5.0;ANGY;1.0;HEAD;-118.0
STATUS;CYCLETIME;2972;I2CERR;0;PRESENT;23;MODE;0
RAW_IMU;AX;27.0;AY;5.0;AZ;260.0;GX;0.0;GY;0.0;GZ;0.0;MAGX;88.0;MAGY;-72.0;MAGZ;-8.0
MOT;0;1000.0;1;1000.0;2;1000.0;3;1000.0;4;0.0;5;0.0;6;0.0;7;0.0;
RC;ROLL;1500.0;PITCH;1500.0;YAW;1500.0;THROTTLE;1500.0;AUX1;1500.0;AUX2;1500.0;AUX3;1500.0;AUX4;1500.0
ALTITUDE;0.0
DEBUG;DEBUG10.0;DEBUG2;0.0;DEBUG3;0.0;DEBUG4;0.0
ATTITUDE;ANGX;5.0;ANGY;1.0;HEAD;-118.0
STATUS;CYCLETIME;2864;I2CERR;0;PRESENT;23;MODE;0
RAW_IMU;AX;24.0;AY;6.0;AZ;260.0;GX;0.0;GY;0.0;GZ;0.0;MAGX;88.0;MAGY;-72.0;MAGZ;-8.0
MOT;0;1000.0;1;1000.0;2;1000.0;3;1000.0;4;0.0;5;0.0;6;0.0;7;0.0;
RC;ROLL;1500.0;PITCH;1500.0;YAW;1500.0;THROTTLE;1500.0;AUX1;1500.0;AUX2;1500.0;AUX3;1500.0;AUX4;1500.0
ALTITUDE;0.0
DEBUG;DEBUG10.0;DEBUG2;0.0;DEBUG3;0.0;DEBUG4;0.0
ATTITUDE;ANGX;5.0;ANGY;1.0;HEAD;-118.0
STATUS;CYCLETIME;2912;I2CERR;0;PRESENT;23;MODE;0
RAW_IMU;AX;23.0;AY;6.0;AZ;262.0;GX;0.0;GY;0.0;GZ;0.0;MAGX;89.0;MAGY;-72.0;MAGZ;-8.0
MOT;0;1000.0;1;1000.0;2;1000.0;3;1000.0;4;0.0;5;0.0;6;0.0;7;0.0;
RC;ROLL;1500.0;PITCH;1500.0;YAW;1500.0;THROTTLE;1500.0;AUX1;1500.0;AUX2;1500.0;AUX3;1500.0;AUX4;1500.0
ALTITUDE;0.0
DEBUG;DEBUG10.0;DEBUG2;0.0;DEBUG3;0.0;DEBUG4;0.0
ATTITUDE;ANGX;5.0;ANGY;1.0;HEAD;-118.0
STATUS;CYCLETIME;2844;I2CERR;0;PRESENT;23;MODE;0
RAW_IMU;AX;25.0;AY;6.0;AZ;262.0;GX;0.0;GY;0.0;GZ;0.0;MAGX;89.0;MAGY;-72.0;MAGZ;-8.0
MOT;0;1000.0;1;1000.0;2;1000.0;3;1000.0;4;0.0;5;0.0;6;0.0;7;0.0;
RC;ROLL;1500.0;PITCH;1500.0;YAW;1500.0;THROTTLE;1500.0;AUX1;1500.0;AUX2;1500.0;AUX3;1500.0;AUX4;1500.0
ALTITUDE;0.0
DEBUG;DEBUG10.0;DEBUG2;0.0;DEBUG3;0.0;DEBUG4;0.0
ATTITUDE;ANGX;5.0;ANGY;1.0;HEAD;-118.0
STATUS;CYCLETIME;2864;I2CERR;0;PRESENT;23;MODE;0
RAW_IMU;AX;24.0;AY;4.0;AZ;261.0;GX;0.0;GY;0.0;GZ;0.0;MAGX;88.0;MAGY;-73.0;MAGZ;-7.0
MOT;0;1000.0;1;1000.0;2;1000.0;3;1000.0;4;0.0;5;0.0;6;0.0;7;0.0;
RC;ROLL;1500.0;PITCH;1500.0;YAW;1500.0;THROTTLE;1500.0;AUX1;1500.0;AUX2;1500.0;AUX3;1500.0;AUX4;1500.0
ALTITUDE;0.0
DEBUG;DEBUG10.0;DEBUG2;0.0;DEBUG3;0.0;DEBUG4;0.0
ATTITUDE;ANGX;5.0;ANGY;1.0;HEAD;-118.0
STATUS;CYCLETIME;2868;I2CERR;0;PRESENT;23;MODE;0
RAW_IMU;AX;26.0;AY;6.0;AZ;260.0;GX;0.0;GY;0.0;GZ;0.0;MAGX;88.0;MAGY;-73.0;MAGZ;-7.0
MOT;0;1000.0;1;1000.0;2;1000.0;3;1000.0;4;0.0;5;0.0;6;0.0;7;0.0;
RC;ROLL;1500.0;PITCH;1500.0;YAW;1500.0;THROTTLE;1500.0;AUX1;1500.0;AUX2;1500.0;AUX3;1500.0;AUX4;1500.0
ALTITUDE;0.0
DEBUG;DEBUG10.0;DEBUG2;0.0;DEBUG3;0.0;DEBUG4;0.0
ATTITUDE;ANGX;5.0;ANGY;1.0;HEAD;-118.0
STATUS;CYCLETIME;2840;I2CERR;0;PRESENT;23;MODE;0
RAW_IMU;AX;27.0;AY;7.0;AZ;261.0;GX;0.0;GY;0.0;GZ;0.0;MAGX;89.0;MAGY;-73.0;MAGZ;-7.0
MOT;0;1000.0;1;1000.0;2;1000.0;3;1000.0;4;0.0;5;0.0;6;0.0;7;0.0;
RC;ROLL;1500.0;PITCH;1500.0;YAW;1500.0;THROTTLE;1500.0;AUX1;1500.0;AUX2;1500.0;AUX3;1500.0;AUX4;1500.0
ALTITUDE;0.0
DEBUG;DEBUG10.0;DEBUG2;0.0;DEBUG3;0.0;DEBUG4;0.0
ATTITUDE;ANGX;5.0;ANGY;1.0;HEAD;-118.0
STATUS;CYCLETIME;2800;I2CERR;0;PRESENT;23;MODE;0
RAW_IMU;AX;26.0;AY;7.0;AZ;261.0;GX;0.0;GY;0.0;GZ;0.0;MAGX;89.0;MAGY;-73.0;MAGZ;-7.0
MOT;0;1000.0;1;1000.0;2;1000.0;3;1000.0;4;0.0;5;0.0;6;0.0;7;0.0;
RC;ROLL;1500.0;PITCH;1500.0;YAW;1500.0;THROTTLE;1500.0;AUX1;1500.0;AUX2;1500.0;AUX3;1500.0;AUX4;1500.0
ALTITUDE;0.0
DEBUG;DEBUG10.0;DEBUG2;0.0;DEBUG3;0.0;DEBUG4;0.0
ATTITUDE;ANGX;5.0;ANGY;1.0;HEAD;-118.0
STATUS;CYCLETIME;2896;I2CERR;0;PRESENT;23;MODE;0
RAW_IMU;AX;24.0;AY;6.0;AZ;258.0;GX;0.0;GY;0.0;GZ;0.0;MAGX;89.0;MAGY;-72.0;MAGZ;-8.0
MOT;0;1000.0;1;1000.0;2;1000.0;3;1000.0;4;0.0;5;0.0;6;0.0;7;0.0;
RC;ROLL;1500.0;PITCH;1500.0;YAW;1500.0;THROTTLE;1500.0;AUX1;1500.0;AUX2;1500.0;AUX3;1500.0;AUX4;1500.0
ALTITUDE;0.0
DEBUG;DEBUG10.0;DEBUG2;0.0;DEBUG3;0.0;DEBUG4;0.0
ATTITUDE;ANGX;5.0;ANGY;1.0;HEAD;-118.0
STATUS;CYCLETIME;2848;I2CERR;0;PRESENT;23;MODE;0
RAW_IMU;AX;22.0;AY;4.0;AZ;261.0;GX;0.0;GY;0.0;GZ;0.0;MAGX;89.0;MAGY;-72.0;MAGZ;-8.0
MOT;0;1000.0;1;1000.0;2;1000.0;3;1000.0;4;0.0;5;0.0;6;0.0;7;0.0;
RC;ROLL;1500.0;PITCH;1500.0;YAW;1500.0;THROTTLE;1500.0;AUX1;1500.0;AUX2;1500.0;AUX3;1500.0;AUX4;1500.0
ALTITUDE;0.0
DEBUG;DEBUG10.0;DEBUG2;0.0;DEBUG3;0.0;DEBUG4;0.0
ATTITUDE;ANGX;5.0;ANGY;1.0;HEAD;-118.0
STATUS;CYCLETIME;2860;I2CERR;0;PRESENT;23;MODE;0
RAW_IMU;AX;22.0;AY;6.0;AZ;261.0;GX;0.0;GY;0.0;GZ;0.0;MAGX;88.0;MAGY;-73.0;MAGZ;-6.0
MOT;0;1000.0;1;1000.0;2;1000.0;3;1000.0;4;0.0;5;0.0;6;0.0;7;0.0;
RC;ROLL;1500.0;PITCH;1500.0;YAW;1500.0;THROTTLE;1500.0;AUX1;1500.0;AUX2;1500.0;AUX3;1500.0;AUX4;1500.0
ALTITUDE;0.0
DEBUG;DEBUG10.0;DEBUG2;0.0;DEBUG3;0.0;DEBUG4;0.0
ATTITUDE;ANGX;5.0;ANGY;1.0;HEAD;-118.0
STATUS;CYCLETIME;2896;I2CERR;0;PRESENT;23;MODE;0
RAW_IMU;AX;20.0;AY;5.0;AZ;260.0;GX;0.0;GY;0.0;GZ;0.0;MAGX;88.0;MAGY;-73.0;MAGZ;-6.0
MOT;0;1000.0;1;1000.0;2;1000.0;3;1000.0;4;0.0;5;0.0;6;0.0;7;0.0;
RC;ROLL;1500.0;PITCH;1500.0;YAW;1500.0;THROTTLE;1500.0;AUX1;1500.0;AUX2;1500.0;AUX3;1500.0;AUX4;1500.0
ALTITUDE;0.0
DEBUG;DEBUG10.0;DEBUG2;0.0;DEBUG3;0.0;DEBUG4;0.0
ATTITUDE;ANGX;5.0;ANGY;1.0;HEAD;-119.0
STATUS;CYCLETIME;2796;I2CERR;0;PRESENT;23;MODE;0
RAW_IMU;AX;22.0;AY;6.0;AZ;259.0;GX;0.0;GY;0.0;GZ;0.0;MAGX;88.0;MAGY;-73.0;MAGZ;-7.0
MOT;0;1000.0;1;1000.0;2;1000.0;3;1000.0;4;0.0;5;0.0;6;0.0;7;0.0;
RC;ROLL;1500.0;PITCH;1500.0;YAW;1500.0;THROTTLE;1500.0;AUX1;1500.0;AUX2;1500.0;AUX3;1500.0;AUX4;1500.0
ALTITUDE;0.0
DEBUG;DEBUG10.0;DEBUG2;0.0;DEBUG3;0.0;DEBUG4;0.0
ATTITUDE;ANGX;5.0;ANGY;1.0;HEAD;-119.0
STATUS;CYCLETIME;2868;I2CERR;0;PRESENT;23;MODE;0
RAW_IMU;AX;24.0;AY;6.0;AZ;256.0;GX;0.0;GY;0.0;GZ;0.0;MAGX;88.0;MAGY;-73.0;MAGZ;-7.0
MOT;0;1000.0;1;1000.0;2;1000.0;3;1000.0;4;0.0;5;0.0;6;0.0;7;0.0;
RC;ROLL;1500.0;PITCH;1500.0;YAW;1500.0;THROTTLE;1500.0;AUX1;1500.0;AUX2;1500.0;AUX3;1500.0;AUX4;1500.0
ALTITUDE;0.0
DEBUG;DEBUG10.0;DEBUG2;0.0;DEBUG3;0.0;DEBUG4;0.0
ATTITUDE;ANGX;5.0;ANGY;1.0;HEAD;-119.0
STATUS;CYCLETIME;2856;I2CERR;0;PRESENT;23;MODE;0
RAW_IMU;AX;21.0;AY;6.0;AZ;259.0;GX;0.0;GY;0.0;GZ;0.0;MAGX;88.0;MAGY;-73.0;MAGZ;-7.0
MOT;0;1000.0;1;1000.0;2;1000.0;3;1000.0;4;0.0;5;0.0;6;0.0;7;0.0;
RC;ROLL;1500.0;PITCH;1500.0;YAW;1500.0;THROTTLE;1500.0;AUX1;1500.0;AUX2;1500.0;AUX3;1500.0;AUX4;1500.0
ALTITUDE;0.0
DEBUG;DEBUG10.0;DEBUG2;0.0;DEBUG3;0.0;DEBUG4;0.0
ATTITUDE;ANGX;5.0;ANGY;1.0;HEAD;-119.0
STATUS;CYCLETIME;2968;I2CERR;0;PRESENT;23;MODE;0
RAW_IMU;AX;22.0;AY;4.0;AZ;260.0;GX;0.0;GY;0.0;GZ;0.0;MAGX;88.0;MAGY;-72.0;MAGZ;-7.0
MOT;0;1000.0;1;1000.0;2;1000.0;3;1000.0;4;0.0;5;0.0;6;0.0;7;0.0;
RC;ROLL;1500.0;PITCH;1500.0;YAW;1500.0;THROTTLE;1500.0;AUX1;1500.0;AUX2;1500.0;AUX3;1500.0;AUX4;1500.0
ALTITUDE;0.0
DEBUG;DEBUG10.0;DEBUG2;0.0;DEBUG3;0.0;DEBUG4;0.0
ATTITUDE;ANGX;5.0;ANGY;1.0;HEAD;-119.0
STATUS;CYCLETIME;2792;I2CERR;0;PRESENT;23;MODE;0
RAW_IMU;AX;24.0;AY;4.0;AZ;261.0;GX;0.0;GY;0.0;GZ;0.0;MAGX;88.0;MAGY;-72.0;MAGZ;-7.0
MOT;0;1000.0;1;1000.0;2;1000.0;3;1000.0;4;0.0;5;0.0;6;0.0;7;0.0;
RC;ROLL;1500.0;PITCH;1500.0;YAW;1500.0;THROTTLE;1500.0;AUX1;1500.0;AUX2;1500.0;AUX3;1500.0;AUX4;1500.0
ALTITUDE;0.0
DEBUG;DEBUG10.0;DEBUG2;0.0;DEBUG3;0.0;DEBUG4;0.0
ATTITUDE;ANGX;5.0;ANGY;1.0;HEAD;-119.0
STATUS;CYCLETIME;2856;I2CERR;0;PRESENT;23;MODE;0
RAW_IMU;AX;22.0;AY;7.0;AZ;261.0;GX;0.0;GY;0.0;GZ;0.0;MAGX;88.0;MAGY;-72.0;MAGZ;-7.0
MOT;0;1000.0;1;1000.0;2;1000.0;3;1000.0;4;0.0;5;0.0;6;0.0;7;0.0;
RC;ROLL;1500.0;PITCH;1500.0;YAW;1500.0;THROTTLE;1500.0;AUX1;1500.0;AUX2;1500.0;AUX3;1500.0;AUX4;1500.0
ALTITUDE;0.0
DEBUG;DEBUG10.0;DEBUG2;0.0;DEBUG3;0.0;DEBUG4;0.0
ATTITUDE;ANGX;5.0;ANGY;1.0;HEAD;-119.0
STATUS;CYCLETIME;2992;I2CERR;0;PRESENT;23;MODE;0
RAW_IMU;AX;23.0;AY;6.0;AZ;260.0;GX;0.0;GY;0.0;GZ;0.0;MAGX;88.0;MAGY;-72.0;MAGZ;-7.0
MOT;0;1000.0;1;1000.0;2;1000.0;3;1000.0;4;0.0;5;0.0;6;0.0;7;0.0;
RC;ROLL;1500.0;PITCH;1500.0;YAW;1500.0;THROTTLE;1500.0;AUX1;1500.0;AUX2;1500.0;AUX3;1500.0;AUX4;1500.0
ALTITUDE;0.0
DEBUG;DEBUG10.0;DEBUG2;0.0;DEBUG3;0.0;DEBUG4;0.0
ATTITUDE;ANGX;5.0;ANGY;1.0;HEAD;-119.0
STATUS;CYCLETIME;2832;I2CERR;0;PRESENT;23;MODE;0
RAW_IMU;AX;25.0;AY;3.0;AZ;260.0;GX;0.0;GY;0.0;GZ;0.0;MAGX;88.0;MAGY;-71.0;MAGZ;-8.0
MOT;0;1000.0;1;1000.0;2;1000.0;3;1000.0;4;0.0;5;0.0;6;0.0;7;0.0;
RC;ROLL;1500.0;PITCH;1500.0;YAW;1500.0;THROTTLE;1500.0;AUX1;1500.0;AUX2;1500.0;AUX3;1500.0;AUX4;1500.0
ALTITUDE;0.0
DEBUG;DEBUG10.0;DEBUG2;0.0;DEBUG3;0.0;DEBUG4;0.0
ATTITUDE;ANGX;5.0;ANGY;1.0;HEAD;-119.0
STATUS;CYCLETIME;2828;I2CERR;0;PRESENT;23;MODE;0
RAW_IMU;AX;24.0;AY;4.0;AZ;260.0;GX;0.0;GY;0.0;GZ;0.0;MAGX;88.0;MAGY;-71.0;MAGZ;-8.0
MOT;0;1000.0;1;1000.0;2;1000.0;3;1000.0;4;0.0;5;0.0;6;0.0;7;0.0;
RC;ROLL;1500.0;PITCH;1500.0;YAW;1500.0;THROTTLE;1500.0;AUX1;1500.0;AUX2;1500.0;AUX3;1500.0;AUX4;1500.0
ALTITUDE;0.0
DEBUG;DEBUG10.0;DEBUG2;0.0;DEBUG3;0.0;DEBUG4;0.0
ATTITUDE;ANGX;5.0;ANGY;1.0;HEAD;-119.0
STATUS;CYCLETIME;2952;I2CERR;0;PRESENT;23;MODE;0
RAW_IMU;AX;21.0;AY;4.0;AZ;259.0;GX;0.0;GY;0.0;GZ;0.0;MAGX;88.0;MAGY;-73.0;MAGZ;-8.0
MOT;0;1000.0;1;1000.0;2;1000.0;3;1000.0;4;0.0;5;0.0;6;0.0;7;0.0;
RC;ROLL;1500.0;PITCH;1500.0;YAW;1500.0;THROTTLE;1500.0;AUX1;1500.0;AUX2;1500.0;AUX3;1500.0;AUX4;1500.0
ALTITUDE;0.0
DEBUG;DEBUG10.0;DEBUG2;0.0;DEBUG3;0.0;DEBUG4;0.0
ATTITUDE;ANGX;5.0;ANGY;1.0;HEAD;-118.0
STATUS;CYCLETIME;2868;I2CERR;0;PRESENT;23;MODE;0
RAW_IMU;AX;22.0;AY;5.0;AZ;259.0;GX;0.0;GY;0.0;GZ;0.0;MAGX;88.0;MAGY;-73.0;MAGZ;-8.0
MOT;0;1000.0;1;1000.0;2;1000.0;3;1000.0;4;0.0;5;0.0;6;0.0;7;0.0;
RC;ROLL;1500.0;PITCH;1500.0;YAW;1500.0;THROTTLE;1500.0;AUX1;1500.0;AUX2;1500.0;AUX3;1500.0;AUX4;1500.0
ALTITUDE;0.0
DEBUG;DEBUG10.0;DEBUG2;0.0;DEBUG3;0.0;DEBUG4;0.0
ATTITUDE;ANGX;5.0;ANGY;1.0;HEAD;-118.0
STATUS;CYCLETIME;2832;I2CERR;0;PRESENT;23;MODE;0
RAW_IMU;AX;24.0;AY;5.0;AZ;258.0;GX;0.0;GY;0.0;GZ;0.0;MAGX;88.0;MAGY;-72.0;MAGZ;-8.0
MOT;0;1000.0;1;1000.0;2;1000.0;3;1000.0;4;0.0;5;0.0;6;0.0;7;0.0;
RC;ROLL;1500.0;PITCH;1500.0;YAW;1500.0;THROTTLE;1500.0;AUX1;1500.0;AUX2;1500.0;AUX3;1500.0;AUX4;1500.0
ALTITUDE;0.0
DEBUG;DEBUG10.0;DEBUG2;0.0;DEBUG3;0.0;DEBUG4;0.0
ATTITUDE;ANGX;5.0;ANGY;1.0;HEAD;-118.0
STATUS;CYCLETIME;2868;I2CERR;0;PRESENT;23;MODE;0
RAW_IMU;AX;24.0;AY;7.0;AZ;259.0;GX;0.0;GY;0.0;GZ;0.0;MAGX;88.0;MAGY;-72.0;MAGZ;-8.0
MOT;0;1000.0;1;1000.0;2;1000.0;3;1000.0;4;0.0;5;0.0;6;0.0;7;0.0;
RC;ROLL;1500.0;PITCH;1500.0;YAW;1500.0;THROTTLE;1500.0;AUX1;1500.0;AUX2;1500.0;AUX3;1500.0;AUX4;1500.0
ALTITUDE;0.0
DEBUG;DEBUG10.0;DEBUG2;0.0;DEBUG3;0.0;DEBUG4;0.0
ATTITUDE;ANGX;5.0;ANGY;1.0;HEAD;-118.0
STATUS;CYCLETIME;2844;I2CERR;0;PRESENT;23;MODE;0
RAW_IMU;AX;24.0;AY;4.0;AZ;258.0;GX;0.0;GY;0.0;GZ;0.0;MAGX;88.0;MAGY;-72.0;MAGZ;-7.0
MOT;0;1000.0;1;1000.0;2;1000.0;3;1000.0;4;0.0;5;0.0;6;0.0;7;0.0;
RC;ROLL;1500.0;PITCH;1500.0;YAW;1500.0;THROTTLE;1500.0;AUX1;1500.0;AUX2;1500.0;AUX3;1500.0;AUX4;1500.0
ALTITUDE;0.0
DEBUG;DEBUG10.0;DEBUG2;0.0;DEBUG3;0.0;DEBUG4;0.0
ATTITUDE;ANGX;5.0;ANGY;1.0;HEAD;-118.0
STATUS;CYCLETIME;2928;I2CERR;0;PRESENT;23;MODE;0
RAW_IMU;AX;26.0;AY;4.0;AZ;260.0;GX;0.0;GY;0.0;GZ;0.0;MAGX;88.0;MAGY;-72.0;MAGZ;-7.0
MOT;0;1000.0;1;1000.0;2;1000.0;3;1000.0;4;0.0;5;0.0;6;0.0;7;0.0;
RC;ROLL;1500.0;PITCH;1500.0;YAW;1500.0;THROTTLE;1500.0;AUX1;1500.0;AUX2;1500.0;AUX3;1500.0;AUX4;1500.0
ALTITUDE;0.0
DEBUG;DEBUG10.0;DEBUG2;0.0;DEBUG3;0.0;DEBUG4;0.0
ATTITUDE;ANGX;5.0;ANGY;1.0;HEAD;-118.0
STATUS;CYCLETIME;2832;I2CERR;0;PRESENT;23;MODE;0
RAW_IMU;AX;20.0;AY;3.0;AZ;260.0;GX;0.0;GY;0.0;GZ;0.0;MAGX;89.0;MAGY;-71.0;MAGZ;-7.0
MOT;0;1000.0;1;1000.0;2;1000.0;3;1000.0;4;0.0;5;0.0;6;0.0;7;0.0;
RC;ROLL;1500.0;PITCH;1500.0;YAW;1500.0;THROTTLE;1500.0;AUX1;1500.0;AUX2;1500.0;AUX3;1500.0;AUX4;1500.0
ALTITUDE;0.0
DEBUG;DEBUG10.0;DEBUG2;0.0;DEBUG3;0.0;DEBUG4;0.0
ATTITUDE;ANGX;5.0;ANGY;1.0;HEAD;-118.0
STATUS;CYCLETIME;2872;I2CERR;0;PRESENT;23;MODE;0
RAW_IMU;AX;19.0;AY;5.0;AZ;261.0;GX;0.0;GY;0.0;GZ;0.0;MAGX;89.0;MAGY;-71.0;MAGZ;-7.0
MOT;0;1000.0;1;1000.0;2;1000.0;3;1000.0;4;0.0;5;0.0;6;0.0;7;0.0;
RC;ROLL;1500.0;PITCH;1500.0;YAW;1500.0;THROTTLE;1500.0;AUX1;1500.0;AUX2;1500.0;AUX3;1500.0;AUX4;1500.0
ALTITUDE;0.0
DEBUG;DEBUG10.0;DEBUG2;0.0;DEBUG3;0.0;DEBUG4;0.0
ATTITUDE;ANGX;5.0;ANGY;1.0;HEAD;-118.0
STATUS;CYCLETIME;3152;I2CERR;0;PRESENT;23;MODE;0
RAW_IMU;AX;21.0;AY;4.0;AZ;259.0;GX;0.0;GY;0.0;GZ;0.0;MAGX;88.0;MAGY;-72.0;MAGZ;-7.0
MOT;0;1000.0;1;1000.0;2;1000.0;3;1000.0;4;0.0;5;0.0;6;0.0;7;0.0;
RC;ROLL;1500.0;PITCH;1500.0;YAW;1500.0;THROTTLE;1500.0;AUX1;1500.0;AUX2;1500.0;AUX3;1500.0;AUX4;1500.0
ALTITUDE;0.0
DEBUG;DEBUG10.0;DEBUG2;0.0;DEBUG3;0.0;DEBUG4;0.0
ATTITUDE;ANGX;5.0;ANGY;1.0;HEAD;-118.0
STATUS;CYCLETIME;2868;I2CERR;0;PRESENT;23;MODE;0
RAW_IMU;AX;22.0;AY;3.0;AZ;259.0;GX;0.0;GY;0.0;GZ;0.0;MAGX;88.0;MAGY;-72.0;MAGZ;-7.0
MOT;0;1000.0;1;1000.0;2;1000.0;3;1000.0;4;0.0;5;0.0;6;0.0;7;0.0;
RC;ROLL;1500.0;PITCH;1500.0;YAW;1500.0;THROTTLE;1500.0;AUX1;1500.0;AUX2;1500.0;AUX3;1500.0;AUX4;1500.0
ALTITUDE;0.0
DEBUG;DEBUG10.0;DEBUG2;0.0;DEBUG3;0.0;DEBUG4;0.0
ATTITUDE;ANGX;5.0;ANGY;1.0;HEAD;-118.0
STATUS;CYCLETIME;2864;I2CERR;0;PRESENT;23;MODE;0
RAW_IMU;AX;22.0;AY;6.0;AZ;261.0;GX;0.0;GY;0.0;GZ;0.0;MAGX;88.0;MAGY;-72.0;MAGZ;-7.0
MOT;0;1000.0;1;1000.0;2;1000.0;3;1000.0;4;0.0;5;0.0;6;0.0;7;0.0;
RC;ROLL;1500.0;PITCH;1500.0;YAW;1500.0;THROTTLE;1500.0;AUX1;1500.0;AUX2;1500.0;AUX3;1500.0;AUX4;1500.0
ALTITUDE;0.0
DEBUG;DEBUG10.0;DEBUG2;0.0;DEBUG3;0.0;DEBUG4;0.0
ATTITUDE;ANGX;5.0;ANGY;1.0;HEAD;-118.0
STATUS;CYCLETIME;2856;I2CERR;0;PRESENT;23;MODE;0
RAW_IMU;AX;25.0;AY;5.0;AZ;261.0;GX;0.0;GY;0.0;GZ;0.0;MAGX;88.0;MAGY;-72.0;MAGZ;-7.0
MOT;0;1000.0;1;1000.0;2;1000.0;3;1000.0;4;0.0;5;0.0;6;0.0;7;0.0;
RC;ROLL;1500.0;PITCH;1500.0;YAW;1500.0;THROTTLE;1500.0;AUX1;1500.0;AUX2;1500.0;AUX3;1500.0;AUX4;1500.0
ALTITUDE;0.0
DEBUG;DEBUG10.0;DEBUG2;0.0;DEBUG3;0.0;DEBUG4;0.0
ATTITUDE;ANGX;5.0;ANGY;1.0;HEAD;-118.0
STATUS;CYCLETIME;2900;I2CERR;0;PRESENT;23;MODE;0
RAW_IMU;AX;24.0;AY;4.0;AZ;263.0;GX;0.0;GY;0.0;GZ;0.0;MAGX;88.0;MAGY;-72.0;MAGZ;-7.0
MOT;0;1000.0;1;1000.0;2;1000.0;3;1000.0;4;0.0;5;0.0;6;0.0;7;0.0;
RC;ROLL;1500.0;PITCH;1500.0;YAW;1500.0;THROTTLE;1500.0;AUX1;1500.0;AUX2;1500.0;AUX3;1500.0;AUX4;1500.0
ALTITUDE;0.0
DEBUG;DEBUG10.0;DEBUG2;0.0;DEBUG3;0.0;DEBUG4;0.0
ATTITUDE;ANGX;5.0;ANGY;1.0;HEAD;-118.0
STATUS;CYCLETIME;2864;I2CERR;0;PRESENT;23;MODE;0
RAW_IMU;AX;23.0;AY;5.0;AZ;261.0;GX;0.0;GY;0.0;GZ;0.0;MAGX;88.0;MAGY;-72.0;MAGZ;-8.0
MOT;0;1000.0;1;1000.0;2;1000.0;3;1000.0;4;0.0;5;0.0;6;0.0;7;0.0;
RC;ROLL;1500.0;PITCH;1500.0;YAW;1500.0;THROTTLE;1500.0;AUX1;1500.0;AUX2;1500.0;AUX3;1500.0;AUX4;1500.0
ALTITUDE;0.0
DEBUG;DEBUG10.0;DEBUG2;0.0;DEBUG3;0.0;DEBUG4;0.0
ATTITUDE;ANGX;5.0;ANGY;1.0;HEAD;-118.0
STATUS;CYCLETIME;2840;I2CERR;0;PRESENT;23;MODE;0
RAW_IMU;AX;23.0;AY;4.0;AZ;263.0;GX;0.0;GY;0.0;GZ;0.0;MAGX;88.0;MAGY;-72.0;MAGZ;-8.0
MOT;0;1000.0;1;1000.0;2;1000.0;3;1000.0;4;0.0;5;0.0;6;0.0;7;0.0;
RC;ROLL;1500.0;PITCH;1500.0;YAW;1500.0;THROTTLE;1500.0;AUX1;1500.0;AUX2;1500.0;AUX3;1500.0;AUX4;1500.0
ALTITUDE;0.0
DEBUG;DEBUG10.0;DEBUG2;0.0;DEBUG3;0.0;DEBUG4;0.0
ATTITUDE;ANGX;5.0;ANGY;1.0;HEAD;-118.0
STATUS;CYCLETIME;2860;I2CERR;0;PRESENT;23;MODE;0
RAW_IMU;AX;26.0;AY;4.0;AZ;264.0;GX;0.0;GY;0.0;GZ;0.0;MAGX;88.0;MAGY;-72.0;MAGZ;-7.0
MOT;0;1000.0;1;1000.0;2;1000.0;3;1000.0;4;0.0;5;0.0;6;0.0;7;0.0;
RC;ROLL;1500.0;PITCH;1500.0;YAW;1500.0;THROTTLE;1500.0;AUX1;1500.0;AUX2;1500.0;AUX3;1500.0;AUX4;1500.0
ALTITUDE;0.0
DEBUG;DEBUG10.0;DEBUG2;0.0;DEBUG3;0.0;DEBUG4;0.0
ATTITUDE;ANGX;5.0;ANGY;1.0;HEAD;-118.0
STATUS;CYCLETIME;2940;I2CERR;0;PRESENT;23;MODE;0
RAW_IMU;AX;25.0;AY;5.0;AZ;261.0;GX;0.0;GY;0.0;GZ;0.0;MAGX;88.0;MAGY;-72.0;MAGZ;-7.0
MOT;0;1000.0;1;1000.0;2;1000.0;3;1000.0;4;0.0;5;0.0;6;0.0;7;0.0;
RC;ROLL;1500.0;PITCH;1500.0;YAW;1500.0;THROTTLE;1500.0;AUX1;1500.0;AUX2;1500.0;AUX3;1500.0;AUX4;1500.0
ALTITUDE;0.0
DEBUG;DEBUG10.0;DEBUG2;0.0;DEBUG3;0.0;DEBUG4;0.0
ATTITUDE;ANGX;5.0;ANGY;1.0;HEAD;-118.0
STATUS;CYCLETIME;2800;I2CERR;0;PRESENT;23;MODE;0
RAW_IMU;AX;22.0;AY;8.0;AZ;260.0;GX;0.0;GY;0.0;GZ;0.0;MAGX;88.0;MAGY;-72.0;MAGZ;-8.0
MOT;0;1000.0;1;1000.0;2;1000.0;3;1000.0;4;0.0;5;0.0;6;0.0;7;0.0;
RC;ROLL;1500.0;PITCH;1500.0;YAW;1500.0;THROTTLE;1500.0;AUX1;1500.0;AUX2;1500.0;AUX3;1500.0;AUX4;1500.0
ALTITUDE;0.0
DEBUG;DEBUG10.0;DEBUG2;0.0;DEBUG3;0.0;DEBUG4;0.0
ATTITUDE;ANGX;5.0;ANGY;1.0;HEAD;-118.0
STATUS;CYCLETIME;2868;I2CERR;0;PRESENT;23;MODE;0
RAW_IMU;AX;26.0;AY;5.0;AZ;262.0;GX;0.0;GY;0.0;GZ;0.0;MAGX;88.0;MAGY;-72.0;MAGZ;-8.0
MOT;0;1000.0;1;1000.0;2;1000.0;3;1000.0;4;0.0;5;0.0;6;0.0;7;0.0;
RC;ROLL;1500.0;PITCH;1500.0;YAW;1500.0;THROTTLE;1500.0;AUX1;1500.0;AUX2;1500.0;AUX3;1500.0;AUX4;1500.0
ALTITUDE;0.0
DEBUG;DEBUG10.0;DEBUG2;0.0;DEBUG3;0.0;DEBUG4;0.0
ATTITUDE;ANGX;5.0;ANGY;1.0;HEAD;-118.0
STATUS;CYCLETIME;2856;I2CERR;0;PRESENT;23;MODE;0
RAW_IMU;AX;24.0;AY;5.0;AZ;260.0;GX;0.0;GY;0.0;GZ;0.0;MAGX;88.0;MAGY;-72.0;MAGZ;-8.0
MOT;0;1000.0;1;1000.0;2;1000.0;3;1000.0;4;0.0;5;0.0;6;0.0;7;0.0;
RC;ROLL;1500.0;PITCH;1500.0;YAW;1500.0;THROTTLE;1500.0;AUX1;1500.0;AUX2;1500.0;AUX3;1500.0;AUX4;1500.0
ALTITUDE;0.0
DEBUG;DEBUG10.0;DEBUG2;0.0;DEBUG3;0.0;DEBUG4;0.0
ATTITUDE;ANGX;5.0;ANGY;1.0;HEAD;-118.0
STATUS;CYCLETIME;2716;I2CERR;0;PRESENT;23;MODE;0
RAW_IMU;AX;10.0;AY;2.0;AZ;105.0;GX;0.0;GY;0.0;GZ;0.0;MAGX;88.0;MAGY;-72.0;MAGZ;-8.0
MOT;0;1000.0;1;1000.0;2;1000.0;3;1000.0;4;0.0;5;0.0;6;0.0;7;0.0;
RC;ROLL;1500.0;PITCH;1500.0;YAW;1500.0;THROTTLE;1500.0;AUX1;1500.0;AUX2;1500.0;AUX3;1500.0;AUX4;1500.0
ALTITUDE;0.0
DEBUG;DEBUG10.0;DEBUG2;0.0;DEBUG3;0.0;DEBUG4;0.0
ATTITUDE;ANGX;5.0;ANGY;1.0;HEAD;-118.0
STATUS;CYCLETIME;2820;I2CERR;0;PRESENT;23;MODE;0
RAW_IMU;AX;3.0;AY;1.0;AZ;33.0;GX;0.0;GY;0.0;GZ;0.0;MAGX;89.0;MAGY;-72.0;MAGZ;-7.0
MOT;0;1000.0;1;1000.0;2;1000.0;3;1000.0;4;0.0;5;0.0;6;0.0;7;0.0;
RC;ROLL;1500.0;PITCH;1500.0;YAW;1500.0;THROTTLE;1500.0;AUX1;1500.0;AUX2;1500.0;AUX3;1500.0;AUX4;1500.0
ALTITUDE;0.0
DEBUG;DEBUG10.0;DEBUG2;0.0;DEBUG3;0.0;DEBUG4;0.0
ATTITUDE;ANGX;5.0;ANGY;1.0;HEAD;-118.0
STATUS;CYCLETIME;2792;I2CERR;0;PRESENT;23;MODE;0
RAW_IMU;AX;1.0;AY;0.0;AZ;11.0;GX;0.0;GY;0.0;GZ;0.0;MAGX;89.0;MAGY;-72.0;MAGZ;-7.0
MOT;0;1000.0;1;1000.0;2;1000.0;3;1000.0;4;0.0;5;0.0;6;0.0;7;0.0;
RC;ROLL;1500.0;PITCH;1500.0;YAW;1500.0;THROTTLE;1500.0;AUX1;1500.0;AUX2;1500.0;AUX3;1500.0;AUX4;1500.0
ALTITUDE;0.0
DEBUG;DEBUG10.0;DEBUG2;0.0;DEBUG3;0.0;DEBUG4;0.0
ATTITUDE;ANGX;5.0;ANGY;1.0;HEAD;-118.0
STATUS;CYCLETIME;2780;I2CERR;0;PRESENT;23;MODE;0
RAW_IMU;AX;0.0;AY;0.0;AZ;3.0;GX;0.0;GY;0.0;GZ;0.0;MAGX;88.0;MAGY;-72.0;MAGZ;-7.0
MOT;0;1000.0;1;1000.0;2;1000.0;3;1000.0;4;0.0;5;0.0;6;0.0;7;0.0;
RC;ROLL;1500.0;PITCH;1500.0;YAW;1500.0;THROTTLE;1500.0;AUX1;1500.0;AUX2;1500.0;AUX3;1500.0;AUX4;1500.0
ALTITUDE;0.0
DEBUG;DEBUG10.0;DEBUG2;0.0;DEBUG3;0.0;DEBUG4;0.0
ATTITUDE;ANGX;5.0;ANGY;1.0;HEAD;-118.0
STATUS;CYCLETIME;2812;I2CERR;0;PRESENT;23;MODE;0
RAW_IMU;AX;0.0;AY;0.0;AZ;1.0;GX;0.0;GY;0.0;GZ;0.0;MAGX;88.0;MAGY;-72.0;MAGZ;-7.0
MOT;0;1000.0;1;1000.0;2;1000.0;3;1000.0;4;0.0;5;0.0;6;0.0;7;0.0;
RC;ROLL;1500.0;PITCH;1500.0;YAW;1500.0;THROTTLE;1500.0;AUX1;1500.0;AUX2;1500.0;AUX3;1500.0;AUX4;1500.0
ALTITUDE;0.0
DEBUG;DEBUG10.0;DEBUG2;0.0;DEBUG3;0.0;DEBUG4;0.0
ATTITUDE;ANGX;5.0;ANGY;1.0;HEAD;-118.0
STATUS;CYCLETIME;2784;I2CERR;0;PRESENT;23;MODE;0
RAW_IMU;AX;0.0;AY;0.0;AZ;0.0;GX;0.0;GY;0.0;GZ;0.0;MAGX;89.0;MAGY;-72.0;MAGZ;-7.0
MOT;0;1000.0;1;1000.0;2;1000.0;3;1000.0;4;0.0;5;0.0;6;0.0;7;0.0;
RC;ROLL;1500.0;PITCH;1500.0;YAW;1500.0;THROTTLE;1500.0;AUX1;1500.0;AUX2;1500.0;AUX3;1500.0;AUX4;1500.0
ALTITUDE;0.0
DEBUG;DEBUG10.0;DEBUG2;0.0;DEBUG3;0.0;DEBUG4;0.0
ATTITUDE;ANGX;5.0;ANGY;1.0;HEAD;-118.0
STATUS;CYCLETIME;2744;I2CERR;0;PRESENT;23;MODE;0
RAW_IMU;AX;0.0;AY;0.0;AZ;0.0;GX;0.0;GY;0.0;GZ;0.0;MAGX;89.0;MAGY;-72.0;MAGZ;-7.0
MOT;0;1000.0;1;1000.0;2;1000.0;3;1000.0;4;0.0;5;0.0;6;0.0;7;0.0;
RC;ROLL;1500.0;PITCH;1500.0;YAW;1500.0;THROTTLE;1500.0;AUX1;1500.0;AUX2;1500.0;AUX3;1500.0;AUX4;1500.0
ALTITUDE;0.0
DEBUG;DEBUG10.0;DEBUG2;0.0;DEBUG3;0.0;DEBUG4;0.0
ATTITUDE;ANGX;5.0;ANGY;1.0;HEAD;-118.0
STATUS;CYCLETIME;2780;I2CERR;0;PRESENT;23;MODE;0
RAW_IMU;AX;0.0;AY;0.0;AZ;0.0;GX;0.0;GY;0.0;GZ;0.0;MAGX;89.0;MAGY;-72.0;MAGZ;-8.0
MOT;0;1000.0;1;1000.0;2;1000.0;3;1000.0;4;0.0;5;0.0;6;0.0;7;0.0;
RC;ROLL;1500.0;PITCH;1500.0;YAW;1500.0;THROTTLE;1500.0;AUX1;1500.0;AUX2;1500.0;AUX3;1500.0;AUX4;1500.0
ALTITUDE;0.0
DEBUG;DEBUG10.0;DEBUG2;0.0;DEBUG3;0.0;DEBUG4;0.0
ATTITUDE;ANGX;5.0;ANGY;1.0;HEAD;-118.0
STATUS;CYCLETIME;2724;I2CERR;0;PRESENT;23;MODE;0
RAW_IMU;AX;0.0;AY;0.0;AZ;0.0;GX;0.0;GY;0.0;GZ;0.0;MAGX;89.0;MAGY;-72.0;MAGZ;-8.0
MOT;0;1000.0;1;1000.0;2;1000.0;3;1000.0;4;0.0;5;0.0;6;0.0;7;0.0;
RC;ROLL;1500.0;PITCH;1500.0;YAW;1500.0;THROTTLE;1500.0;AUX1;1500.0;AUX2;1500.0;AUX3;1500.0;AUX4;1500.0
ALTITUDE;0.0
DEBUG;DEBUG10.0;DEBUG2;0.0;DEBUG3;0.0;DEBUG4;0.0
ATTITUDE;ANGX;5.0;ANGY;1.0;HEAD;-118.0
STATUS;CYCLETIME;2756;I2CERR;0;PRESENT;23;MODE;0
RAW_IMU;AX;0.0;AY;0.0;AZ;0.0;GX;0.0;GY;0.0;GZ;0.0;MAGX;88.0;MAGY;-72.0;MAGZ;-7.0
MOT;0;1000.0;1;1000.0;2;1000.0;3;1000.0;4;0.0;5;0.0;6;0.0;7;0.0;
RC;ROLL;1500.0;PITCH;1500.0;YAW;1500.0;THROTTLE;1500.0;AUX1;1500.0;AUX2;1500.0;AUX3;1500.0;AUX4;1500.0
ALTITUDE;0.0
DEBUG;DEBUG10.0;DEBUG2;0.0;DEBUG3;0.0;DEBUG4;0.0
ATTITUDE;ANGX;5.0;ANGY;1.0;HEAD;-118.0
STATUS;CYCLETIME;2816;I2CERR;0;PRESENT;23;MODE;0
RAW_IMU;AX;0.0;AY;0.0;AZ;0.0;GX;0.0;GY;0.0;GZ;0.0;MAGX;88.0;MAGY;-72.0;MAGZ;-7.0
MOT;0;1000.0;1;1000.0;2;1000.0;3;1000.0;4;0.0;5;0.0;6;0.0;7;0.0;
RC;ROLL;1500.0;PITCH;1500.0;YAW;1500.0;THROTTLE;1500.0;AUX1;1500.0;AUX2;1500.0;AUX3;1500.0;AUX4;1500.0
ALTITUDE;0.0
DEBUG;DEBUG10.0;DEBUG2;0.0;DEBUG3;0.0;DEBUG4;0.0
ATTITUDE;ANGX;5.0;ANGY;1.0;HEAD;-118.0
STATUS;CYCLETIME;2820;I2CERR;0;PRESENT;23;MODE;0
RAW_IMU;AX;0.0;AY;0.0;AZ;0.0;GX;0.0;GY;0.0;GZ;0.0;MAGX;89.0;MAGY;-73.0;MAGZ;-8.0
MOT;0;1000.0;1;1000.0;2;1000.0;3;1000.0;4;0.0;5;0.0;6;0.0;7;0.0;
RC;ROLL;1500.0;PITCH;1500.0;YAW;1500.0;THROTTLE;1500.0;AUX1;1500.0;AUX2;1500.0;AUX3;1500.0;AUX4;1500.0
ALTITUDE;0.0
DEBUG;DEBUG10.0;DEBUG2;0.0;DEBUG3;0.0;DEBUG4;0.0
ATTITUDE;ANGX;5.0;ANGY;1.0;HEAD;-118.0
STATUS;CYCLETIME;2716;I2CERR;0;PRESENT;23;MODE;0
RAW_IMU;AX;0.0;AY;0.0;AZ;0.0;GX;0.0;GY;0.0;GZ;0.0;MAGX;89.0;MAGY;-73.0;MAGZ;-8.0
MOT;0;1000.0;1;1000.0;2;1000.0;3;1000.0;4;0.0;5;0.0;6;0.0;7;0.0;
RC;ROLL;1500.0;PITCH;1500.0;YAW;1500.0;THROTTLE;1500.0;AUX1;1500.0;AUX2;1500.0;AUX3;1500.0;AUX4;1500.0
ALTITUDE;0.0
DEBUG;DEBUG10.0;DEBUG2;0.0;DEBUG3;0.0;DEBUG4;0.0
ATTITUDE;ANGX;5.0;ANGY;1.0;HEAD;-118.0
STATUS;CYCLETIME;3040;I2CERR;0;PRESENT;23;MODE;0
RAW_IMU;AX;0.0;AY;0.0;AZ;0.0;GX;0.0;GY;0.0;GZ;0.0;MAGX;88.0;MAGY;-73.0;MAGZ;-8.0
MOT;0;1000.0;1;1000.0;2;1000.0;3;1000.0;4;0.0;5;0.0;6;0.0;7;0.0;
RC;ROLL;1500.0;PITCH;1500.0;YAW;1500.0;THROTTLE;1500.0;AUX1;1500.0;AUX2;1500.0;AUX3;1500.0;AUX4;1500.0
ALTITUDE;0.0
DEBUG;DEBUG10.0;DEBUG2;0.0;DEBUG3;0.0;DEBUG4;0.0
ATTITUDE;ANGX;5.0;ANGY;1.0;HEAD;-118.0
STATUS;CYCLETIME;2796;I2CERR;0;PRESENT;23;MODE;0
RAW_IMU;AX;0.0;AY;0.0;AZ;0.0;GX;0.0;GY;0.0;GZ;0.0;MAGX;88.0;MAGY;-73.0;MAGZ;-8.0
MOT;0;1000.0;1;1000.0;2;1000.0;3;1000.0;4;0.0;5;0.0;6;0.0;7;0.0;
RC;ROLL;1500.0;PITCH;1500.0;YAW;1500.0;THROTTLE;1500.0;AUX1;1500.0;AUX2;1500.0;AUX3;1500.0;AUX4;1500.0
ALTITUDE;0.0
DEBUG;DEBUG10.0;DEBUG2;0.0;DEBUG3;0.0;DEBUG4;0.0
ATTITUDE;ANGX;5.0;ANGY;1.0;HEAD;-118.0
STATUS;CYCLETIME;2796;I2CERR;0;PRESENT;23;MODE;0
RAW_IMU;AX;0.0;AY;0.0;AZ;0.0;GX;0.0;GY;0.0;GZ;0.0;MAGX;89.0;MAGY;-72.0;MAGZ;-7.0
MOT;0;1000.0;1;1000.0;2;1000.0;3;1000.0;4;0.0;5;0.0;6;0.0;7;0.0;
RC;ROLL;1500.0;PITCH;1500.0;YAW;1500.0;THROTTLE;1500.0;AUX1;1500.0;AUX2;1500.0;AUX3;1500.0;AUX4;1500.0
ALTITUDE;0.0
DEBUG;DEBUG10.0;DEBUG2;0.0;DEBUG3;0.0;DEBUG4;0.0
ATTITUDE;ANGX;5.0;ANGY;1.0;HEAD;-118.0
STATUS;CYCLETIME;2792;I2CERR;0;PRESENT;23;MODE;0
RAW_IMU;AX;0.0;AY;0.0;AZ;0.0;GX;0.0;GY;0.0;GZ;0.0;MAGX;89.0;MAGY;-72.0;MAGZ;-7.0
MOT;0;1000.0;1;1000.0;2;1000.0;3;1000.0;4;0.0;5;0.0;6;0.0;7;0.0;
RC;ROLL;1500.0;PITCH;1500.0;YAW;1500.0;THROTTLE;1500.0;AUX1;1500.0;AUX2;1500.0;AUX3;1500.0;AUX4;1500.0
ALTITUDE;0.0
DEBUG;DEBUG10.0;DEBUG2;0.0;DEBUG3;0.0;DEBUG4;0.0
ATTITUDE;ANGX;5.0;ANGY;1.0;HEAD;-118.0
STATUS;CYCLETIME;2720;I2CERR;0;PRESENT;23;MODE;0
RAW_IMU;AX;0.0;AY;0.0;AZ;0.0;GX;0.0;GY;0.0;GZ;0.0;MAGX;88.0;MAGY;-72.0;MAGZ;-6.0
MOT;0;1000.0;1;1000.0;2;1000.0;3;1000.0;4;0.0;5;0.0;6;0.0;7;0.0;
RC;ROLL;1500.0;PITCH;1500.0;YAW;1500.0;THROTTLE;1500.0;AUX1;1500.0;AUX2;1500.0;AUX3;1500.0;AUX4;1500.0
ALTITUDE;0.0
DEBUG;DEBUG10.0;DEBUG2;0.0;DEBUG3;0.0;DEBUG4;0.0
ATTITUDE;ANGX;5.0;ANGY;1.0;HEAD;-118.0
STATUS;CYCLETIME;2888;I2CERR;0;PRESENT;23;MODE;0
RAW_IMU;AX;0.0;AY;0.0;AZ;0.0;GX;0.0;GY;0.0;GZ;0.0;MAGX;88.0;MAGY;-72.0;MAGZ;-6.0
MOT;0;1000.0;1;1000.0;2;1000.0;3;1000.0;4;0.0;5;0.0;6;0.0;7;0.0;
RC;ROLL;1500.0;PITCH;1500.0;YAW;1500.0;THROTTLE;1500.0;AUX1;1500.0;AUX2;1500.0;AUX3;1500.0;AUX4;1500.0
ALTITUDE;0.0
DEBUG;DEBUG10.0;DEBUG2;0.0;DEBUG3;0.0;DEBUG4;0.0
ATTITUDE;ANGX;5.0;ANGY;1.0;HEAD;-118.0
STATUS;CYCLETIME;2756;I2CERR;0;PRESENT;23;MODE;0
RAW_IMU;AX;0.0;AY;0.0;AZ;0.0;GX;0.0;GY;0.0;GZ;0.0;MAGX;88.0;MAGY;-72.0;MAGZ;-6.0
MOT;0;1000.0;1;1000.0;2;1000.0;3;1000.0;4;0.0;5;0.0;6;0.0;7;0.0;
RC;ROLL;1500.0;PITCH;1500.0;YAW;1500.0;THROTTLE;1500.0;AUX1;1500.0;AUX2;1500.0;AUX3;1500.0;AUX4;1500.0
ALTITUDE;0.0
DEBUG;DEBUG10.0;DEBUG2;0.0;DEBUG3;0.0;DEBUG4;0.0
ATTITUDE;ANGX;5.0;ANGY;1.0;HEAD;-118.0
STATUS;CYCLETIME;2796;I2CERR;0;PRESENT;23;MODE;0
RAW_IMU;AX;0.0;AY;0.0;AZ;0.0;GX;0.0;GY;0.0;GZ;0.0;MAGX;88.0;MAGY;-72.0;MAGZ;-6.0
MOT;0;1000.0;1;1000.0;2;1000.0;3;1000.0;4;0.0;5;0.0;6;0.0;7;0.0;
RC;ROLL;1500.0;PITCH;1500.0;YAW;1500.0;THROTTLE;1500.0;AUX1;1500.0;AUX2;1500.0;AUX3;1500.0;AUX4;1500.0
ALTITUDE;0.0
DEBUG;DEBUG10.0;DEBUG2;0.0;DEBUG3;0.0;DEBUG4;0.0
ATTITUDE;ANGX;5.0;ANGY;1.0;HEAD;-118.0
STATUS;CYCLETIME;2908;I2CERR;0;PRESENT;23;MODE;0
RAW_IMU;AX;0.0;AY;0.0;AZ;0.0;GX;0.0;GY;0.0;GZ;0.0;MAGX;88.0;MAGY;-72.0;MAGZ;-6.0
MOT;0;1000.0;1;1000.0;2;1000.0;3;1000.0;4;0.0;5;0.0;6;0.0;7;0.0;
RC;ROLL;1500.0;PITCH;1500.0;YAW;1500.0;THROTTLE;1500.0;AUX1;1500.0;AUX2;1500.0;AUX3;1500.0;AUX4;1500.0
ALTITUDE;0.0
DEBUG;DEBUG10.0;DEBUG2;0.0;DEBUG3;0.0;DEBUG4;0.0
ATTITUDE;ANGX;5.0;ANGY;1.0;HEAD;-118.0
STATUS;CYCLETIME;2760;I2CERR;0;PRESENT;23;MODE;0
RAW_IMU;AX;0.0;AY;0.0;AZ;0.0;GX;0.0;GY;0.0;GZ;0.0;MAGX;89.0;MAGY;-72.0;MAGZ;-7.0
MOT;0;1000.0;1;1000.0;2;1000.0;3;1000.0;4;0.0;5;0.0;6;0.0;7;0.0;
RC;ROLL;1500.0;PITCH;1500.0;YAW;1500.0;THROTTLE;1500.0;AUX1;1500.0;AUX2;1500.0;AUX3;1500.0;AUX4;1500.0
ALTITUDE;0.0
DEBUG;DEBUG10.0;DEBUG2;0.0;DEBUG3;0.0;DEBUG4;0.0
ATTITUDE;ANGX;5.0;ANGY;1.0;HEAD;-118.0
STATUS;CYCLETIME;2728;I2CERR;0;PRESENT;23;MODE;0
RAW_IMU;AX;0.0;AY;0.0;AZ;0.0;GX;0.0;GY;0.0;GZ;0.0;MAGX;89.0;MAGY;-72.0;MAGZ;-7.0
MOT;0;1000.0;1;1000.0;2;1000.0;3;1000.0;4;0.0;5;0.0;6;0.0;7;0.0;
RC;ROLL;1500.0;PITCH;1500.0;YAW;1500.0;THROTTLE;1500.0;AUX1;1500.0;AUX2;1500.0;AUX3;1500.0;AUX4;1500.0
ALTITUDE;0.0
DEBUG;DEBUG10.0;DEBUG2;0.0;DEBUG3;0.0;DEBUG4;0.0
ATTITUDE;ANGX;5.0;ANGY;1.0;HEAD;-118.0
STATUS;CYCLETIME;2784;I2CERR;0;PRESENT;23;MODE;0
RAW_IMU;AX;0.0;AY;0.0;AZ;0.0;GX;0.0;GY;0.0;GZ;0.0;MAGX;88.0;MAGY;-72.0;MAGZ;-7.0
MOT;0;1000.0;1;1000.0;2;1000.0;3;1000.0;4;0.0;5;0.0;6;0.0;7;0.0;
RC;ROLL;1500.0;PITCH;1500.0;YAW;1500.0;THROTTLE;1500.0;AUX1;1500.0;AUX2;1500.0;AUX3;1500.0;AUX4;1500.0
ALTITUDE;0.0
DEBUG;DEBUG10.0;DEBUG2;0.0;DEBUG3;0.0;DEBUG4;0.0
ATTITUDE;ANGX;5.0;ANGY;1.0;HEAD;-118.0
STATUS;CYCLETIME;2748;I2CERR;0;PRESENT;23;MODE;0
RAW_IMU;AX;0.0;AY;0.0;AZ;0.0;GX;0.0;GY;0.0;GZ;0.0;MAGX;88.0;MAGY;-72.0;MAGZ;-7.0
MOT;0;1000.0;1;1000.0;2;1000.0;3;1000.0;4;0.0;5;0.0;6;0.0;7;0.0;
RC;ROLL;1500.0;PITCH;1500.0;YAW;1500.0;THROTTLE;1500.0;AUX1;1500.0;AUX2;1500.0;AUX3;1500.0;AUX4;1500.0
ALTITUDE;0.0
DEBUG;DEBUG10.0;DEBUG2;0.0;DEBUG3;0.0;DEBUG4;0.0
ATTITUDE;ANGX;5.0;ANGY;1.0;HEAD;-118.0
STATUS;CYCLETIME;2780;I2CERR;0;PRESENT;23;MODE;0
RAW_IMU;AX;0.0;AY;0.0;AZ;0.0;GX;0.0;GY;0.0;GZ;0.0;MAGX;89.0;MAGY;-73.0;MAGZ;-7.0
MOT;0;1000.0;1;1000.0;2;1000.0;3;1000.0;4;0.0;5;0.0;6;0.0;7;0.0;
RC;ROLL;1500.0;PITCH;1500.0;YAW;1500.0;THROTTLE;1500.0;AUX1;1500.0;AUX2;1500.0;AUX3;1500.0;AUX4;1500.0
ALTITUDE;0.0
DEBUG;DEBUG10.0;DEBUG2;0.0;DEBUG3;0.0;DEBUG4;0.0
ATTITUDE;ANGX;5.0;ANGY;1.0;HEAD;-118.0
STATUS;CYCLETIME;2756;I2CERR;0;PRESENT;23;MODE;0
RAW_IMU;AX;0.0;AY;0.0;AZ;0.0;GX;0.0;GY;0.0;GZ;0.0;MAGX;89.0;MAGY;-73.0;MAGZ;-7.0
MOT;0;1000.0;1;1000.0;2;1000.0;3;1000.0;4;0.0;5;0.0;6;0.0;7;0.0;
RC;ROLL;1500.0;PITCH;1500.0;YAW;1500.0;THROTTLE;1500.0;AUX1;1500.0;AUX2;1500.0;AUX3;1500.0;AUX4;1500.0
ALTITUDE;0.0
DEBUG;DEBUG10.0;DEBUG2;0.0;DEBUG3;0.0;DEBUG4;0.0
ATTITUDE;ANGX;5.0;ANGY;1.0;HEAD;-118.0
STATUS;CYCLETIME;2884;I2CERR;0;PRESENT;23;MODE;0
RAW_IMU;AX;0.0;AY;0.0;AZ;0.0;GX;0.0;GY;0.0;GZ;0.0;MAGX;89.0;MAGY;-71.0;MAGZ;-7.0
MOT;0;1000.0;1;1000.0;2;1000.0;3;1000.0;4;0.0;5;0.0;6;0.0;7;0.0;
RC;ROLL;1500.0;PITCH;1500.0;YAW;1500.0;THROTTLE;1500.0;AUX1;1500.0;AUX2;1500.0;AUX3;1500.0;AUX4;1500.0
ALTITUDE;0.0
DEBUG;DEBUG10.0;DEBUG2;0.0;DEBUG3;0.0;DEBUG4;0.0
ATTITUDE;ANGX;5.0;ANGY;1.0;HEAD;-118.0
STATUS;CYCLETIME;2784;I2CERR;0;PRESENT;23;MODE;0
RAW_IMU;AX;1.0;AY;0.0;AZ;0.0;GX;0.0;GY;0.0;GZ;0.0;MAGX;89.0;MAGY;-71.0;MAGZ;-7.0
MOT;0;1000.0;1;1000.0;2;1000.0;3;1000.0;4;0.0;5;0.0;6;0.0;7;0.0;
RC;ROLL;1500.0;PITCH;1500.0;YAW;1500.0;THROTTLE;1500.0;AUX1;1500.0;AUX2;1500.0;AUX3;1500.0;AUX4;1500.0
ALTITUDE;0.0
ALTITUDE;0.0
DEBUG;DEBUG10.0;DEBUG2;0.0;DEBUG3;0.0;DEBUG4;0.0
ATTITUDE;ANGX;5.0;ANGY;1.0;HEAD;-118.0
STATUS;CYCLETIME;2908;I2CERR;0;PRESENT;23;MODE;0
RAW_IMU;AX;3.0;AY;1.0;AZ;201.0;GX;0.0;GY;0.0;GZ;0.0;MAGX;88.0;MAGY;-72.0;MAGZ;-7.0
MOT;0;1000.0;1;1000.0;2;1000.0;3;1000.0;4;0.0;5;0.0;6;0.0;7;0.0;
RC;ROLL;1500.0;PITCH;1500.0;YAW;1500.0;THROTTLE;1500.0;AUX1;1500.0;AUX2;1500.0;AUX3;1500.0;AUX4;1500.0
ALTITUDE;0.0
DEBUG;DEBUG10.0;DEBUG2;0.0;DEBUG3;0.0;DEBUG4;0.0
ATTITUDE;ANGX;5.0;ANGY;1.0;HEAD;-118.0
STATUS;CYCLETIME;3112;I2CERR;0;PRESENT;23;MODE;0
RAW_IMU;AX;2.0;AY;1.0;AZ;238.0;GX;0.0;GY;0.0;GZ;0.0;MAGX;88.0;MAGY;-73.0;MAGZ;-7.0
MOT;0;1000.0;1;1000.0;2;1000.0;3;1000.0;4;0.0;5;0.0;6;0.0;7;0.0;
RC;ROLL;1500.0;PITCH;1500.0;YAW;1500.0;THROTTLE;1500.0;AUX1;1500.0;AUX2;1500.0;AUX3;1500.0;AUX4;1500.0
ALTITUDE;0.0
DEBUG;DEBUG10.0;DEBUG2;0.0;DEBUG3;0.0;DEBUG4;0.0
ATTITUDE;ANGX;5.0;ANGY;1.0;HEAD;-118.0
STATUS;CYCLETIME;2840;I2CERR;0;PRESENT;23;MODE;0
RAW_IMU;AX;1.0;AY;2.0;AZ;251.0;GX;0.0;GY;0.0;GZ;0.0;MAGX;88.0;MAGY;-73.0;MAGZ;-7.0
MOT;0;1000.0;1;1000.0;2;1000.0;3;1000.0;4;0.0;5;0.0;6;0.0;7;0.0;
RC;ROLL;1500.0;PITCH;1500.0;YAW;1500.0;THROTTLE;1500.0;AUX1;1500.0;AUX2;1500.0;AUX3;1500.0;AUX4;1500.0
ALTITUDE;0.0
DEBUG;DEBUG10.0;DEBUG2;0.0;DEBUG3;0.0;DEBUG4;0.0
ATTITUDE;ANGX;5.0;ANGY;1.0;HEAD;-118.0
STATUS;CYCLETIME;2964;I2CERR;0;PRESENT;23;MODE;0
RAW_IMU;AX;0.0;AY;0.0;AZ;253.0;GX;0.0;GY;0.0;GZ;0.0;MAGX;88.0;MAGY;-73.0;MAGZ;-7.0
MOT;0;1000.0;1;1000.0;2;1000.0;3;1000.0;4;0.0;5;0.0;6;0.0;7;0.0;
RC;ROLL;1500.0;PITCH;1500.0;YAW;1500.0;THROTTLE;1500.0;AUX1;1500.0;AUX2;1500.0;AUX3;1500.0;AUX4;1500.0
ALTITUDE;0.0
DEBUG;DEBUG10.0;DEBUG2;0.0;DEBUG3;0.0;DEBUG4;0.0
ATTITUDE;ANGX;4.0;ANGY;1.0;HEAD;-118.0
STATUS;CYCLETIME;2880;I2CERR;0;PRESENT;23;MODE;0
RAW_IMU;AX;0.0;AY;-1.0;AZ;255.0;GX;0.0;GY;0.0;GZ;0.0;MAGX;88.0;MAGY;-72.0;MAGZ;-6.0
MOT;0;1000.0;1;1000.0;2;1000.0;3;1000.0;4;0.0;5;0.0;6;0.0;7;0.0;
RC;ROLL;1500.0;PITCH;1500.0;YAW;1500.0;THROTTLE;1500.0;AUX1;1500.0;AUX2;1500.0;AUX3;1500.0;AUX4;1500.0
ALTITUDE;0.0
DEBUG;DEBUG10.0;DEBUG2;0.0;DEBUG3;0.0;DEBUG4;0.0
ATTITUDE;ANGX;4.0;ANGY;1.0;HEAD;-118.0
STATUS;CYCLETIME;2848;I2CERR;0;PRESENT;23;MODE;0
RAW_IMU;AX;-1.0;AY;1.0;AZ;256.0;GX;0.0;GY;0.0;GZ;0.0;MAGX;88.0;MAGY;-72.0;MAGZ;-6.0
MOT;0;1000.0;1;1000.0;2;1000.0;3;1000.0;4;0.0;5;0.0;6;0.0;7;0.0;
RC;ROLL;1500.0;PITCH;1500.0;YAW;1500.0;THROTTLE;1500.0;AUX1;1500.0;AUX2;1500.0;AUX3;1500.0;AUX4;1500.0
ALTITUDE;0.0
DEBUG;DEBUG10.0;DEBUG2;0.0;DEBUG3;0.0;DEBUG4;0.0
ATTITUDE;ANGX;4.0;ANGY;0.0;HEAD;-118.0
STATUS;CYCLETIME;2804;I2CERR;0;PRESENT;23;MODE;0
RAW_IMU;AX;0.0;AY;0.0;AZ;254.0;GX;0.0;GY;0.0;GZ;0.0;MAGX;88.0;MAGY;-73.0;MAGZ;-7.0
MOT;0;1000.0;1;1000.0;2;1000.0;3;1000.0;4;0.0;5;0.0;6;0.0;7;0.0;
RC;ROLL;1500.0;PITCH;1500.0;YAW;1500.0;THROTTLE;1500.0;AUX1;1500.0;AUX2;1500.0;AUX3;1500.0;AUX4;1500.0
ALTITUDE;0.0
DEBUG;DEBUG10.0;DEBUG2;0.0;DEBUG3;0.0;DEBUG4;0.0
ATTITUDE;ANGX;4.0;ANGY;0.0;HEAD;-118.0
STATUS;CYCLETIME;2868;I2CERR;0;PRESENT;23;MODE;0
RAW_IMU;AX;0.0;AY;1.0;AZ;254.0;GX;0.0;GY;0.0;GZ;0.0;MAGX;88.0;MAGY;-73.0;MAGZ;-7.0
MOT;0;1000.0;1;1000.0;2;1000.0;3;1000.0;4;0.0;5;0.0;6;0.0;7;0.0;
RC;ROLL;1500.0;PITCH;1500.0;YAW;1500.0;THROTTLE;1500.0;AUX1;1500.0;AUX2;1500.0;AUX3;1500.0;AUX4;1500.0
ALTITUDE;0.0
DEBUG;DEBUG10.0;DEBUG2;0.0;DEBUG3;0.0;DEBUG4;0.0
ATTITUDE;ANGX;4.0;ANGY;0.0;HEAD;-118.0
STATUS;CYCLETIME;2968;I2CERR;0;PRESENT;23;MODE;0
RAW_IMU;AX;4.0;AY;1.0;AZ;257.0;GX;0.0;GY;0.0;GZ;0.0;MAGX;89.0;MAGY;-72.0;MAGZ;-7.0
MOT;0;1000.0;1;1000.0;2;1000.0;3;1000.0;4;0.0;5;0.0;6;0.0;7;0.0;
RC;ROLL;1500.0;PITCH;1500.0;YAW;1500.0;THROTTLE;1500.0;AUX1;1500.0;AUX2;1500.0;AUX3;1500.0;AUX4;1500.0
ALTITUDE;0.0
DEBUG;DEBUG10.0;DEBUG2;0.0;DEBUG3;0.0;DEBUG4;0.0
ATTITUDE;ANGX;4.0;ANGY;0.0;HEAD;-118.0
STATUS;CYCLETIME;2880;I2CERR;0;PRESENT;23;MODE;0
RAW_IMU;AX;2.0;AY;2.0;AZ;255.0;GX;0.0;GY;0.0;GZ;0.0;MAGX;89.0;MAGY;-72.0;MAGZ;-7.0
MOT;0;1000.0;1;1000.0;2;1000.0;3;1000.0;4;0.0;5;0.0;6;0.0;7;0.0;
RC;ROLL;1500.0;PITCH;1500.0;YAW;1500.0;THROTTLE;1500.0;AUX1;1500.0;AUX2;1500.0;AUX3;1500.0;AUX4;1500.0
ALTITUDE;0.0
DEBUG;DEBUG10.0;DEBUG2;0.0;DEBUG3;0.0;DEBUG4;0.0
ATTITUDE;ANGX;4.0;ANGY;0.0;HEAD;-118.0
STATUS;CYCLETIME;2884;I2CERR;0;PRESENT;23;MODE;0
RAW_IMU;AX;1.0;AY;1.0;AZ;255.0;GX;0.0;GY;0.0;GZ;0.0;MAGX;89.0;MAGY;-72.0;MAGZ;-6.0
MOT;0;1000.0;1;1000.0;2;1000.0;3;1000.0;4;0.0;5;0.0;6;0.0;7;0.0;
RC;ROLL;1500.0;PITCH;1500.0;YAW;1500.0;THROTTLE;1500.0;AUX1;1500.0;AUX2;1500.0;AUX3;1500.0;AUX4;1500.0
ALTITUDE;0.0
DEBUG;DEBUG10.0;DEBUG2;0.0;DEBUG3;0.0;DEBUG4;0.0
ATTITUDE;ANGX;4.0;ANGY;0.0;HEAD;-118.0
STATUS;CYCLETIME;2832;I2CERR;0;PRESENT;23;MODE;0
RAW_IMU;AX;2.0;AY;0.0;AZ;256.0;GX;0.0;GY;0.0;GZ;0.0;MAGX;89.0;MAGY;-72.0;MAGZ;-6.0
MOT;0;1000.0;1;1000.0;2;1000.0;3;1000.0;4;0.0;5;0.0;6;0.0;7;0.0;
RC;ROLL;1500.0;PITCH;1500.0;YAW;1500.0;THROTTLE;1500.0;AUX1;1500.0;AUX2;1500.0;AUX3;1500.0;AUX4;1500.0
ALTITUDE;0.0
DEBUG;DEBUG10.0;DEBUG2;0.0;DEBUG3;0.0;DEBUG4;0.0
ATTITUDE;ANGX;3.0;ANGY;0.0;HEAD;-118.0
STATUS;CYCLETIME;2900;I2CERR;0;PRESENT;23;MODE;0
RAW_IMU;AX;-1.0;AY;2.0;AZ;256.0;GX;0.0;GY;0.0;GZ;0.0;MAGX;89.0;MAGY;-72.0;MAGZ;-7.0
MOT;0;1000.0;1;1000.0;2;1000.0;3;1000.0;4;0.0;5;0.0;6;0.0;7;0.0;
RC;ROLL;1500.0;PITCH;1500.0;YAW;1500.0;THROTTLE;1500.0;AUX1;1500.0;AUX2;1500.0;AUX3;1500.0;AUX4;1500.0
ALTITUDE;0.0
DEBUG;DEBUG10.0;DEBUG2;0.0;DEBUG3;0.0;DEBUG4;0.0
ATTITUDE;ANGX;3.0;ANGY;0.0;HEAD;-118.0
STATUS;CYCLETIME;2832;I2CERR;0;PRESENT;23;MODE;0
RAW_IMU;AX;1.0;AY;1.0;AZ;256.0;GX;0.0;GY;0.0;GZ;0.0;MAGX;89.0;MAGY;-72.0;MAGZ;-7.0
MOT;0;1000.0;1;1000.0;2;1000.0;3;1000.0;4;0.0;5;0.0;6;0.0;7;0.0;
RC;ROLL;1500.0;PITCH;1500.0;YAW;1500.0;THROTTLE;1500.0;AUX1;1500.0;AUX2;1500.0;AUX3;1500.0;AUX4;1500.0
ALTITUDE;0.0
DEBUG;DEBUG10.0;DEBUG2;0.0;DEBUG3;0.0;DEBUG4;0.0
ATTITUDE;ANGX;3.0;ANGY;0.0;HEAD;-118.0
STATUS;CYCLETIME;2872;I2CERR;0;PRESENT;23;MODE;0
RAW_IMU;AX;2.0;AY;2.0;AZ;255.0;GX;0.0;GY;0.0;GZ;0.0;MAGX;89.0;MAGY;-72.0;MAGZ;-7.0
MOT;0;1000.0;1;1000.0;2;1000.0;3;1000.0;4;0.0;5;0.0;6;0.0;7;0.0;
RC;ROLL;1500.0;PITCH;1500.0;YAW;1500.0;THROTTLE;1500.0;AUX1;1500.0;AUX2;1500.0;AUX3;1500.0;AUX4;1500.0
ALTITUDE;0.0
DEBUG;DEBUG10.0;DEBUG2;0.0;DEBUG3;0.0;DEBUG4;0.0
ATTITUDE;ANGX;3.0;ANGY;0.0;HEAD;-118.0
STATUS;CYCLETIME;2848;I2CERR;0;PRESENT;23;MODE;0
RAW_IMU;AX;3.0;AY;1.0;AZ;257.0;GX;0.0;GY;0.0;GZ;0.0;MAGX;89.0;MAGY;-72.0;MAGZ;-7.0
MOT;0;1000.0;1;1000.0;2;1000.0;3;1000.0;4;0.0;5;0.0;6;0.0;7;0.0;
RC;ROLL;1500.0;PITCH;1500.0;YAW;1500.0;THROTTLE;1500.0;AUX1;1500.0;AUX2;1500.0;AUX3;1500.0;AUX4;1500.0
ALTITUDE;0.0
DEBUG;DEBUG10.0;DEBUG2;0.0;DEBUG3;0.0;DEBUG4;0.0
ATTITUDE;ANGX;3.0;ANGY;0.0;HEAD;-118.0
STATUS;CYCLETIME;3008;I2CERR;0;PRESENT;23;MODE;0
RAW_IMU;AX;1.0;AY;2.0;AZ;258.0;GX;0.0;GY;0.0;GZ;0.0;MAGX;89.0;MAGY;-72.0;MAGZ;-6.0
MOT;0;1000.0;1;1000.0;2;1000.0;3;1000.0;4;0.0;5;0.0;6;0.0;7;0.0;
RC;ROLL;1500.0;PITCH;1500.0;YAW;1500.0;THROTTLE;1500.0;AUX1;1500.0;AUX2;1500.0;AUX3;1500.0;AUX4;1500.0
ALTITUDE;0.0
DEBUG;DEBUG10.0;DEBUG2;0.0;DEBUG3;0.0;DEBUG4;0.0
ATTITUDE;ANGX;3.0;ANGY;0.0;HEAD;-118.0
STATUS;CYCLETIME;2840;I2CERR;0;PRESENT;23;MODE;0
RAW_IMU;AX;1.0;AY;1.0;AZ;256.0;GX;0.0;GY;0.0;GZ;0.0;MAGX;89.0;MAGY;-72.0;MAGZ;-6.0
MOT;0;1000.0;1;1000.0;2;1000.0;3;1000.0;4;0.0;5;0.0;6;0.0;7;0.0;
RC;ROLL;1500.0;PITCH;1500.0;YAW;1500.0;THROTTLE;1500.0;AUX1;1500.0;AUX2;1500.0;AUX3;1500.0;AUX4;1500.0
ALTITUDE;0.0
DEBUG;DEBUG10.0;DEBUG2;0.0;DEBUG3;0.0;DEBUG4;0.0
ATTITUDE;ANGX;3.0;ANGY;0.0;HEAD;-118.0
STATUS;CYCLETIME;2864;I2CERR;0;PRESENT;23;MODE;0
RAW_IMU;AX;0.0;AY;3.0;AZ;256.0;GX;0.0;GY;0.0;GZ;0.0;MAGX;89.0;MAGY;-72.0;MAGZ;-6.0
MOT;0;1000.0;1;1000.0;2;1000.0;3;1000.0;4;0.0;5;0.0;6;0.0;7;0.0;
RC;ROLL;1500.0;PITCH;1500.0;YAW;1500.0;THROTTLE;1500.0;AUX1;1500.0;AUX2;1500.0;AUX3;1500.0;AUX4;1500.0
ALTITUDE;0.0
DEBUG;DEBUG10.0;DEBUG2;0.0;DEBUG3;0.0;DEBUG4;0.0
ATTITUDE;ANGX;3.0;ANGY;0.0;HEAD;-118.0
STATUS;CYCLETIME;2880;I2CERR;0;PRESENT;23;MODE;0
RAW_IMU;AX;0.0;AY;2.0;AZ;257.0;GX;0.0;GY;0.0;GZ;0.0;MAGX;88.0;MAGY;-72.0;MAGZ;-7.0
MOT;0;1000.0;1;1000.0;2;1000.0;3;1000.0;4;0.0;5;0.0;6;0.0;7;0.0;
RC;ROLL;1500.0;PITCH;1500.0;YAW;1500.0;THROTTLE;1500.0;AUX1;1500.0;AUX2;1500.0;AUX3;1500.0;AUX4;1500.0
ALTITUDE;0.0
DEBUG;DEBUG10.0;DEBUG2;0.0;DEBUG3;0.0;DEBUG4;0.0
ATTITUDE;ANGX;3.0;ANGY;0.0;HEAD;-118.0
STATUS;CYCLETIME;2852;I2CERR;0;PRESENT;23;MODE;0
RAW_IMU;AX;1.0;AY;1.0;AZ;258.0;GX;0.0;GY;0.0;GZ;0.0;MAGX;88.0;MAGY;-72.0;MAGZ;-7.0
MOT;0;1000.0;1;1000.0;2;1000.0;3;1000.0;4;0.0;5;0.0;6;0.0;7;0.0;
RC;ROLL;1500.0;PITCH;1500.0;YAW;1500.0;THROTTLE;1500.0;AUX1;1500.0;AUX2;1500.0;AUX3;1500.0;AUX4;1500.0
ALTITUDE;0.0
DEBUG;DEBUG10.0;DEBUG2;0.0;DEBUG3;0.0;DEBUG4;0.0
ATTITUDE;ANGX;3.0;ANGY;0.0;HEAD;-118.0
STATUS;CYCLETIME;2876;I2CERR;0;PRESENT;23;MODE;0
RAW_IMU;AX;1.0;AY;2.0;AZ;258.0;GX;0.0;GY;0.0;GZ;0.0;MAGX;88.0;MAGY;-72.0;MAGZ;-7.0
MOT;0;1000.0;1;1000.0;2;1000.0;3;1000.0;4;0.0;5;0.0;6;0.0;7;0.0;
RC;ROLL;1500.0;PITCH;1500.0;YAW;1500.0;THROTTLE;1500.0;AUX1;1500.0;AUX2;1500.0;AUX3;1500.0;AUX4;1500.0
ALTITUDE;0.0
DEBUG;DEBUG10.0;DEBUG2;0.0;DEBUG3;0.0;DEBUG4;0.0
ATTITUDE;ANGX;2.0;ANGY;0.0;HEAD;-118.0
STATUS;CYCLETIME;2808;I2CERR;0;PRESENT;23;MODE;0
RAW_IMU;AX;1.0;AY;1.0;AZ;257.0;GX;0.0;GY;0.0;GZ;0.0;MAGX;88.0;MAGY;-72.0;MAGZ;-7.0
MOT;0;1000.0;1;1000.0;2;1000.0;3;1000.0;4;0.0;5;0.0;6;0.0;7;0.0;
RC;ROLL;1500.0;PITCH;1500.0;YAW;1500.0;THROTTLE;1500.0;AUX1;1500.0;AUX2;1500.0;AUX3;1500.0;AUX4;1500.0
ALTITUDE;0.0
DEBUG;DEBUG10.0;DEBUG2;0.0;DEBUG3;0.0;DEBUG4;0.0
ATTITUDE;ANGX;2.0;ANGY;0.0;HEAD;-118.0
STATUS;CYCLETIME;2872;I2CERR;0;PRESENT;23;MODE;0
RAW_IMU;AX;2.0;AY;3.0;AZ;257.0;GX;0.0;GY;0.0;GZ;0.0;MAGX;88.0;MAGY;-72.0;MAGZ;-6.0
MOT;0;1000.0;1;1000.0;2;1000.0;3;1000.0;4;0.0;5;0.0;6;0.0;7;0.0;
RC;ROLL;1500.0;PITCH;1500.0;YAW;1500.0;THROTTLE;1500.0;AUX1;1500.0;AUX2;1500.0;AUX3;1500.0;AUX4;1500.0
ALTITUDE;0.0
DEBUG;DEBUG10.0;DEBUG2;0.0;DEBUG3;0.0;DEBUG4;0.0
ATTITUDE;ANGX;2.0;ANGY;0.0;HEAD;-118.0
STATUS;CYCLETIME;2872;I2CERR;0;PRESENT;23;MODE;0
RAW_IMU;AX;2.0;AY;1.0;AZ;257.0;GX;0.0;GY;0.0;GZ;0.0;MAGX;88.0;MAGY;-72.0;MAGZ;-6.0
MOT;0;1000.0;1;1000.0;2;1000.0;3;1000.0;4;0.0;5;0.0;6;0.0;7;0.0;
RC;ROLL;1500.0;PITCH;1500.0;YAW;1500.0;THROTTLE;1500.0;AUX1;1500.0;AUX2;1500.0;AUX3;1500.0;AUX4;1500.0
ALTITUDE;0.0
DEBUG;DEBUG10.0;DEBUG2;0.0;DEBUG3;0.0;DEBUG4;0.0
ATTITUDE;ANGX;2.0;ANGY;0.0;HEAD;-118.0
STATUS;CYCLETIME;2872;I2CERR;0;PRESENT;23;MODE;0
RAW_IMU;AX;3.0;AY;1.0;AZ;257.0;GX;0.0;GY;0.0;GZ;0.0;MAGX;89.0;MAGY;-73.0;MAGZ;-7.0
MOT;0;1000.0;1;1000.0;2;1000.0;3;1000.0;4;0.0;5;0.0;6;0.0;7;0.0;
RC;ROLL;1500.0;PITCH;1500.0;YAW;1500.0;THROTTLE;1500.0;AUX1;1500.0;AUX2;1500.0;AUX3;1500.0;AUX4;1500.0
ALTITUDE;0.0
DEBUG;DEBUG10.0;DEBUG2;0.0;DEBUG3;0.0;DEBUG4;0.0
ATTITUDE;ANGX;2.0;ANGY;0.0;HEAD;-118.0
STATUS;CYCLETIME;2808;I2CERR;0;PRESENT;23;MODE;0
RAW_IMU;AX;1.0;AY;0.0;AZ;258.0;GX;0.0;GY;0.0;GZ;0.0;MAGX;89.0;MAGY;-73.0;MAGZ;-7.0
MOT;0;1000.0;1;1000.0;2;1000.0;3;1000.0;4;0.0;5;0.0;6;0.0;7;0.0;
RC;ROLL;1500.0;PITCH;1500.0;YAW;1500.0;THROTTLE;1500.0;AUX1;1500.0;AUX2;1500.0;AUX3;1500.0;AUX4;1500.0
ALTITUDE;0.0
DEBUG;DEBUG10.0;DEBUG2;0.0;DEBUG3;0.0;DEBUG4;0.0
ATTITUDE;ANGX;2.0;ANGY;0.0;HEAD;-118.0
STATUS;CYCLETIME;2832;I2CERR;0;PRESENT;23;MODE;0
RAW_IMU;AX;-1.0;AY;1.0;AZ;257.0;GX;0.0;GY;0.0;GZ;0.0;MAGX;89.0;MAGY;-72.0;MAGZ;-8.0
MOT;0;1000.0;1;1000.0;2;1000.0;3;1000.0;4;0.0;5;0.0;6;0.0;7;0.0;
RC;ROLL;1500.0;PITCH;1500.0;YAW;1500.0;THROTTLE;1500.0;AUX1;1500.0;AUX2;1500.0;AUX3;1500.0;AUX4;1500.0
ALTITUDE;0.0
DEBUG;DEBUG10.0;DEBUG2;0.0;DEBUG3;0.0;DEBUG4;0.0
ATTITUDE;ANGX;2.0;ANGY;0.0;HEAD;-118.0
STATUS;CYCLETIME;2832;I2CERR;0;PRESENT;23;MODE;0
RAW_IMU;AX;0.0;AY;2.0;AZ;256.0;GX;0.0;GY;0.0;GZ;0.0;MAGX;89.0;MAGY;-72.0;MAGZ;-8.0
MOT;0;1000.0;1;1000.0;2;1000.0;3;1000.0;4;0.0;5;0.0;6;0.0;7;0.0;
RC;ROLL;1500.0;PITCH;1500.0;YAW;1500.0;THROTTLE;1500.0;AUX1;1500.0;AUX2;1500.0;AUX3;1500.0;AUX4;1500.0
ALTITUDE;0.0
DEBUG;DEBUG10.0;DEBUG2;0.0;DEBUG3;0.0;DEBUG4;0.0
ATTITUDE;ANGX;2.0;ANGY;0.0;HEAD;-118.0
STATUS;CYCLETIME;2848;I2CERR;0;PRESENT;23;MODE;0
RAW_IMU;AX;0.0;AY;1.0;AZ;256.0;GX;0.0;GY;0.0;GZ;0.0;MAGX;88.0;MAGY;-72.0;MAGZ;-7.0
MOT;0;1000.0;1;1000.0;2;1000.0;3;1000.0;4;0.0;5;0.0;6;0.0;7;0.0;
RC;ROLL;1500.0;PITCH;1500.0;YAW;1500.0;THROTTLE;1500.0;AUX1;1500.0;AUX2;1500.0;AUX3;1500.0;AUX4;1500.0
ALTITUDE;0.0
DEBUG;DEBUG10.0;DEBUG2;0.0;DEBUG3;0.0;DEBUG4;0.0
ATTITUDE;ANGX;2.0;ANGY;0.0;HEAD;-118.0
STATUS;CYCLETIME;2896;I2CERR;0;PRESENT;23;MODE;0
RAW_IMU;AX;2.0;AY;1.0;AZ;258.0;GX;0.0;GY;0.0;GZ;0.0;MAGX;88.0;MAGY;-72.0;MAGZ;-7.0
MOT;0;1000.0;1;1000.0;2;1000.0;3;1000.0;4;0.0;5;0.0;6;0.0;7;0.0;
RC;ROLL;1500.0;PITCH;1500.0;YAW;1500.0;THROTTLE;1500.0;AUX1;1500.0;AUX2;1500.0;AUX3;1500.0;AUX4;1500.0
ALTITUDE;0.0
DEBUG;DEBUG10.0;DEBUG2;0.0;DEBUG3;0.0;DEBUG4;0.0
ATTITUDE;ANGX;2.0;ANGY;0.0;HEAD;-118.0
STATUS;CYCLETIME;2828;I2CERR;0;PRESENT;23;MODE;0
RAW_IMU;AX;1.0;AY;0.0;AZ;260.0;GX;0.0;GY;0.0;GZ;0.0;MAGX;89.0;MAGY;-73.0;MAGZ;-7.0
MOT;0;1000.0;1;1000.0;2;1000.0;3;1000.0;4;0.0;5;0.0;6;0.0;7;0.0;
RC;ROLL;1493.0;PITCH;1500.0;YAW;1504.0;THROTTLE;1639.0;AUX1;1635.0;AUX2;1500.0;AUX3;1500.0;AUX4;1500.0
ALTITUDE;0.0
DEBUG;DEBUG10.0;DEBUG2;0.0;DEBUG3;0.0;DEBUG4;0.0
ATTITUDE;ANGX;2.0;ANGY;0.0;HEAD;-118.0
STATUS;CYCLETIME;2916;I2CERR;0;PRESENT;23;MODE;0
RAW_IMU;AX;-1.0;AY;-1.0;AZ;257.0;GX;0.0;GY;0.0;GZ;0.0;MAGX;89.0;MAGY;-73.0;MAGZ;-7.0
MOT;0;1000.0;1;1000.0;2;1000.0;3;1000.0;4;0.0;5;0.0;6;0.0;7;0.0;
RC;ROLL;1489.0;PITCH;1500.0;YAW;1504.0;THROTTLE;1685.0;AUX1;1679.0;AUX2;1500.0;AUX3;1500.0;AUX4;1500.0
ALTITUDE;0.0
DEBUG;DEBUG10.0;DEBUG2;0.0;DEBUG3;0.0;DEBUG4;0.0
ATTITUDE;ANGX;2.0;ANGY;0.0;HEAD;-118.0
STATUS;CYCLETIME;2836;I2CERR;0;PRESENT;23;MODE;0
RAW_IMU;AX;0.0;AY;0.0;AZ;257.0;GX;0.0;GY;0.0;GZ;0.0;MAGX;90.0;MAGY;-73.0;MAGZ;-7.0
MOT;0;1000.0;1;1000.0;2;1000.0;3;1000.0;4;0.0;5;0.0;6;0.0;7;0.0;
RC;ROLL;1489.0;PITCH;1500.0;YAW;1504.0;THROTTLE;1685.0;AUX1;1679.0;AUX2;1500.0;AUX3;1500.0;AUX4;1500.0
ALTITUDE;0.0
DEBUG;DEBUG10.0;DEBUG2;0.0;DEBUG3;0.0;DEBUG4;0.0
ATTITUDE;ANGX;2.0;ANGY;0.0;HEAD;-118.0
STATUS;CYCLETIME;2976;I2CERR;0;PRESENT;23;MODE;0
RAW_IMU;AX;-1.0;AY;-1.0;AZ;256.0;GX;0.0;GY;0.0;GZ;0.0;MAGX;90.0;MAGY;-73.0;MAGZ;-7.0
MOT;0;1000.0;1;1000.0;2;1000.0;3;1000.0;4;0.0;5;0.0;6;0.0;7;0.0;
RC;ROLL;1489.0;PITCH;1503.0;YAW;1504.0;THROTTLE;1685.0;AUX1;1679.0;AUX2;1500.0;AUX3;1500.0;AUX4;1500.0
ALTITUDE;0.0
DEBUG;DEBUG10.0;DEBUG2;0.0;DEBUG3;0.0;DEBUG4;0.0
ATTITUDE;ANGX;2.0;ANGY;0.0;HEAD;-118.0
STATUS;CYCLETIME;2792;I2CERR;0;PRESENT;23;MODE;0
RAW_IMU;AX;1.0;AY;0.0;AZ;256.0;GX;0.0;GY;0.0;GZ;0.0;MAGX;90.0;MAGY;-73.0;MAGZ;-7.0
MOT;0;1000.0;1;1000.0;2;1000.0;3;1000.0;4;0.0;5;0.0;6;0.0;7;0.0;
RC;ROLL;1489.0;PITCH;1503.0;YAW;1504.0;THROTTLE;1685.0;AUX1;1679.0;AUX2;1500.0;AUX3;1500.0;AUX4;1500.0
ALTITUDE;0.0
DEBUG;DEBUG10.0;DEBUG2;0.0;DEBUG3;0.0;DEBUG4;0.0
ATTITUDE;ANGX;1.0;ANGY;0.0;HEAD;-118.0
STATUS;CYCLETIME;2916;I2CERR;0;PRESENT;23;MODE;0
RAW_IMU;AX;1.0;AY;2.0;AZ;256.0;GX;0.0;GY;0.0;GZ;0.0;MAGX;89.0;MAGY;-72.0;MAGZ;-6.0
MOT;0;1000.0;1;1000.0;2;1000.0;3;1000.0;4;0.0;5;0.0;6;0.0;7;0.0;
RC;ROLL;1489.0;PITCH;1503.0;YAW;1506.0;THROTTLE;1685.0;AUX1;1681.0;AUX2;1500.0;AUX3;1500.0;AUX4;1500.0
ALTITUDE;0.0
DEBUG;DEBUG10.0;DEBUG2;0.0;DEBUG3;0.0;DEBUG4;0.0
ATTITUDE;ANGX;1.0;ANGY;0.0;HEAD;-118.0
STATUS;CYCLETIME;2868;I2CERR;0;PRESENT;23;MODE;0
RAW_IMU;AX;1.0;AY;0.0;AZ;256.0;GX;0.0;GY;0.0;GZ;0.0;MAGX;89.0;MAGY;-72.0;MAGZ;-6.0
MOT;0;1000.0;1;1000.0;2;1000.0;3;1000.0;4;0.0;5;0.0;6;0.0;7;0.0;
RC;ROLL;1489.0;PITCH;1503.0;YAW;1506.0;THROTTLE;1685.0;AUX1;1681.0;AUX2;1500.0;AUX3;1500.0;AUX4;1500.0
ALTITUDE;0.0
DEBUG;DEBUG10.0;DEBUG2;0.0;DEBUG3;0.0;DEBUG4;0.0
ATTITUDE;ANGX;1.0;ANGY;0.0;HEAD;-118.0
STATUS;CYCLETIME;2932;I2CERR;0;PRESENT;23;MODE;0
RAW_IMU;AX;-2.0;AY;1.0;AZ;256.0;GX;0.0;GY;0.0;GZ;0.0;MAGX;89.0;MAGY;-72.0;MAGZ;-5.0
MOT;0;1000.0;1;1000.0;2;1000.0;3;1000.0;4;0.0;5;0.0;6;0.0;7;0.0;
RC;ROLL;1489.0;PITCH;1503.0;YAW;1506.0;THROTTLE;1685.0;AUX1;1681.0;AUX2;1500.0;AUX3;1500.0;AUX4;1500.0
ALTITUDE;0.0
DEBUG;DEBUG10.0;DEBUG2;0.0;DEBUG3;0.0;DEBUG4;0.0
ATTITUDE;ANGX;1.0;ANGY;0.0;HEAD;-118.0
STATUS;CYCLETIME;2972;I2CERR;0;PRESENT;23;MODE;0
RAW_IMU;AX;-1.0;AY;1.0;AZ;258.0;GX;0.0;GY;0.0;GZ;0.0;MAGX;89.0;MAGY;-72.0;MAGZ;-5.0
MOT;0;1000.0;1;1000.0;2;1000.0;3;1000.0;4;0.0;5;0.0;6;0.0;7;0.0;
RC;ROLL;1489.0;PITCH;1503.0;YAW;1506.0;THROTTLE;1685.0;AUX1;1681.0;AUX2;1500.0;AUX3;1500.0;AUX4;1500.0
ALTITUDE;0.0
DEBUG;DEBUG10.0;DEBUG2;0.0;DEBUG3;0.0;DEBUG4;0.0
ATTITUDE;ANGX;1.0;ANGY;0.0;HEAD;-118.0
STATUS;CYCLETIME;2796;I2CERR;0;PRESENT;23;MODE;0
RAW_IMU;AX;3.0;AY;2.0;AZ;259.0;GX;0.0;GY;0.0;GZ;0.0;MAGX;89.0;MAGY;-72.0;MAGZ;-7.0
MOT;0;1000.0;1;1000.0;2;1000.0;3;1000.0;4;0.0;5;0.0;6;0.0;7;0.0;
RC;ROLL;1489.0;PITCH;1503.0;YAW;1506.0;THROTTLE;1687.0;AUX1;1681.0;AUX2;1500.0;AUX3;1500.0;AUX4;1500.0
ALTITUDE;0.0
DEBUG;DEBUG10.0;DEBUG2;0.0;DEBUG3;0.0;DEBUG4;0.0
ATTITUDE;ANGX;1.0;ANGY;0.0;HEAD;-118.0
STATUS;CYCLETIME;2884;I2CERR;0;PRESENT;23;MODE;0
RAW_IMU;AX;2.0;AY;1.0;AZ;256.0;GX;0.0;GY;0.0;GZ;0.0;MAGX;89.0;MAGY;-72.0;MAGZ;-7.0
MOT;0;1000.0;1;1000.0;2;1000.0;3;1000.0;4;0.0;5;0.0;6;0.0;7;0.0;
RC;ROLL;1487.0;PITCH;1503.0;YAW;1506.0;THROTTLE;1687.0;AUX1;1681.0;AUX2;1500.0;AUX3;1500.0;AUX4;1500.0
ALTITUDE;0.0
DEBUG;DEBUG10.0;DEBUG2;0.0;DEBUG3;0.0;DEBUG4;0.0
ATTITUDE;ANGX;1.0;ANGY;0.0;HEAD;-118.0
STATUS;CYCLETIME;2800;I2CERR;0;PRESENT;23;MODE;0
RAW_IMU;AX;3.0;AY;1.0;AZ;256.0;GX;0.0;GY;0.0;GZ;0.0;MAGX;88.0;MAGY;-72.0;MAGZ;-5.0
MOT;0;1000.0;1;1000.0;2;1000.0;3;1000.0;4;0.0;5;0.0;6;0.0;7;0.0;
RC;ROLL;1487.0;PITCH;1498.0;YAW;1526.0;THROTTLE;1666.0;AUX1;1681.0;AUX2;1500.0;AUX3;1500.0;AUX4;1500.0
ALTITUDE;0.0
DEBUG;DEBUG10.0;DEBUG2;0.0;DEBUG3;0.0;DEBUG4;0.0
ATTITUDE;ANGX;1.0;ANGY;0.0;HEAD;-118.0
STATUS;CYCLETIME;2912;I2CERR;0;PRESENT;23;MODE;0
RAW_IMU;AX;1.0;AY;1.0;AZ;255.0;GX;0.0;GY;0.0;GZ;0.0;MAGX;88.0;MAGY;-72.0;MAGZ;-5.0
MOT;0;1000.0;1;1000.0;2;1000.0;3;1000.0;4;0.0;5;0.0;6;0.0;7;0.0;
RC;ROLL;1487.0;PITCH;1498.0;YAW;1550.0;THROTTLE;1636.0;AUX1;1681.0;AUX2;1500.0;AUX3;1500.0;AUX4;1500.0
ALTITUDE;0.0
DEBUG;DEBUG10.0;DEBUG2;0.0;DEBUG3;0.0;DEBUG4;0.0
ATTITUDE;ANGX;1.0;ANGY;0.0;HEAD;-118.0
STATUS;CYCLETIME;2968;I2CERR;0;PRESENT;23;MODE;0
RAW_IMU;AX;0.0;AY;-1.0;AZ;256.0;GX;0.0;GY;0.0;GZ;0.0;MAGX;89.0;MAGY;-72.0;MAGZ;-6.0
MOT;0;1000.0;1;1000.0;2;1000.0;3;1000.0;4;0.0;5;0.0;6;0.0;7;0.0;
RC;ROLL;1487.0;PITCH;1498.0;YAW;1534.0;THROTTLE;1655.0;AUX1;1683.0;AUX2;1500.0;AUX3;1500.0;AUX4;1500.0
ALTITUDE;0.0
DEBUG;DEBUG10.0;DEBUG2;0.0;DEBUG3;0.0;DEBUG4;0.0
ATTITUDE;ANGX;1.0;ANGY;0.0;HEAD;-118.0
STATUS;CYCLETIME;2872;I2CERR;0;PRESENT;23;MODE;0
RAW_IMU;AX;1.0;AY;0.0;AZ;257.0;GX;0.0;GY;0.0;GZ;0.0;MAGX;89.0;MAGY;-72.0;MAGZ;-6.0
MOT;0;1000.0;1;1000.0;2;1000.0;3;1000.0;4;0.0;5;0.0;6;0.0;7;0.0;
RC;ROLL;1485.0;PITCH;1500.0;YAW;1514.0;THROTTLE;1682.0;AUX1;1683.0;AUX2;1500.0;AUX3;1500.0;AUX4;1500.0
ALTITUDE;0.0
DEBUG;DEBUG10.0;DEBUG2;0.0;DEBUG3;0.0;DEBUG4;0.0
ATTITUDE;ANGX;1.0;ANGY;0.0;HEAD;-118.0
STATUS;CYCLETIME;2944;I2CERR;0;PRESENT;23;MODE;0
RAW_IMU;AX;-1.0;AY;1.0;AZ;258.0;GX;0.0;GY;0.0;GZ;0.0;MAGX;89.0;MAGY;-72.0;MAGZ;-6.0
MOT;0;1000.0;1;1000.0;2;1000.0;3;1000.0;4;0.0;5;0.0;6;0.0;7;0.0;
RC;ROLL;1487.0;PITCH;1504.0;YAW;1514.0;THROTTLE;1681.0;AUX1;1675.0;AUX2;1500.0;AUX3;1500.0;AUX4;1500.0
ALTITUDE;0.0
DEBUG;DEBUG10.0;DEBUG2;0.0;DEBUG3;0.0;DEBUG4;0.0
ATTITUDE;ANGX;1.0;ANGY;0.0;HEAD;-118.0
STATUS;CYCLETIME;2880;I2CERR;0;PRESENT;23;MODE;0
RAW_IMU;AX;1.0;AY;1.0;AZ;259.0;GX;0.0;GY;0.0;GZ;0.0;MAGX;89.0;MAGY;-72.0;MAGZ;-6.0
MOT;0;1000.0;1;1000.0;2;1000.0;3;1000.0;4;0.0;5;0.0;6;0.0;7;0.0;
RC;ROLL;1487.0;PITCH;1504.0;YAW;1507.0;THROTTLE;1684.0;AUX1;1681.0;AUX2;1500.0;AUX3;1500.0;AUX4;1500.0
ALTITUDE;0.0
DEBUG;DEBUG10.0;DEBUG2;0.0;DEBUG3;0.0;DEBUG4;0.0
ATTITUDE;ANGX;1.0;ANGY;0.0;HEAD;-118.0
STATUS;CYCLETIME;2848;I2CERR;0;PRESENT;23;MODE;0
RAW_IMU;AX;-1.0;AY;0.0;AZ;258.0;GX;0.0;GY;0.0;GZ;0.0;MAGX;88.0;MAGY;-72.0;MAGZ;-6.0
MOT;0;1000.0;1;1000.0;2;1000.0;3;1000.0;4;0.0;5;0.0;6;0.0;7;0.0;
RC;ROLL;1487.0;PITCH;1504.0;YAW;1503.0;THROTTLE;1687.0;AUX1;1687.0;AUX2;1500.0;AUX3;1500.0;AUX4;1500.0
ALTITUDE;0.0
DEBUG;DEBUG10.0;DEBUG2;0.0;DEBUG3;0.0;DEBUG4;0.0
ATTITUDE;ANGX;1.0;ANGY;0.0;HEAD;-118.0
STATUS;CYCLETIME;2972;I2CERR;0;PRESENT;23;MODE;0
RAW_IMU;AX;-1.0;AY;1.0;AZ;258.0;GX;0.0;GY;0.0;GZ;0.0;MAGX;88.0;MAGY;-72.0;MAGZ;-6.0
MOT;0;1000.0;1;1000.0;2;1000.0;3;1000.0;4;0.0;5;0.0;6;0.0;7;0.0;
RC;ROLL;1492.0;PITCH;1500.0;YAW;1508.0;THROTTLE;1687.0;AUX1;1684.0;AUX2;1500.0;AUX3;1500.0;AUX4;1500.0
ALTITUDE;0.0
DEBUG;DEBUG10.0;DEBUG2;0.0;DEBUG3;0.0;DEBUG4;0.0
ATTITUDE;ANGX;1.0;ANGY;0.0;HEAD;-118.0
STATUS;CYCLETIME;2840;I2CERR;0;PRESENT;23;MODE;0
RAW_IMU;AX;0.0;AY;4.0;AZ;259.0;GX;0.0;GY;0.0;GZ;0.0;MAGX;88.0;MAGY;-72.0;MAGZ;-6.0
MOT;0;1000.0;1;1000.0;2;1000.0;3;1000.0;4;0.0;5;0.0;6;0.0;7;0.0;
RC;ROLL;1486.0;PITCH;1497.0;YAW;1508.0;THROTTLE;1687.0;AUX1;1678.0;AUX2;1500.0;AUX3;1500.0;AUX4;1500.0
ALTITUDE;0.0
DEBUG;DEBUG10.0;DEBUG2;0.0;DEBUG3;0.0;DEBUG4;0.0
ATTITUDE;ANGX;1.0;ANGY;0.0;HEAD;-118.0
STATUS;CYCLETIME;2876;I2CERR;0;PRESENT;23;MODE;0
RAW_IMU;AX;0.0;AY;1.0;AZ;256.0;GX;0.0;GY;0.0;GZ;0.0;MAGX;88.0;MAGY;-72.0;MAGZ;-6.0
MOT;0;1000.0;1;1000.0;2;1000.0;3;1000.0;4;0.0;5;0.0;6;0.0;7;0.0;
RC;ROLL;1488.0;PITCH;1497.0;YAW;1505.0;THROTTLE;1691.0;AUX1;1681.0;AUX2;1500.0;AUX3;1500.0;AUX4;1500.0
ALTITUDE;0.0
DEBUG;DEBUG10.0;DEBUG2;0.0;DEBUG3;0.0;DEBUG4;0.0
ATTITUDE;ANGX;1.0;ANGY;0.0;HEAD;-118.0
STATUS;CYCLETIME;2816;I2CERR;0;PRESENT;23;MODE;0
RAW_IMU;AX;-1.0;AY;0.0;AZ;257.0;GX;0.0;GY;0.0;GZ;0.0;MAGX;88.0;MAGY;-72.0;MAGZ;-6.0
MOT;0;1000.0;1;1000.0;2;1000.0;3;1000.0;4;0.0;5;0.0;6;0.0;7;0.0;
RC;ROLL;1491.0;PITCH;1497.0;YAW;1505.0;THROTTLE;1691.0;AUX1;1683.0;AUX2;1500.0;AUX3;1500.0;AUX4;1500.0
ALTITUDE;0.0
DEBUG;DEBUG10.0;DEBUG2;0.0;DEBUG3;0.0;DEBUG4;0.0
ATTITUDE;ANGX;1.0;ANGY;0.0;HEAD;-118.0
STATUS;CYCLETIME;2912;I2CERR;0;PRESENT;23;MODE;0
RAW_IMU;AX;2.0;AY;0.0;AZ;257.0;GX;0.0;GY;0.0;GZ;0.0;MAGX;88.0;MAGY;-73.0;MAGZ;-7.0
MOT;0;1000.0;1;1000.0;2;1000.0;3;1000.0;4;0.0;5;0.0;6;0.0;7;0.0;
RC;ROLL;1485.0;PITCH;1502.0;YAW;1505.0;THROTTLE;1682.0;AUX1;1683.0;AUX2;1500.0;AUX3;1500.0;AUX4;1500.0
ALTITUDE;0.0
DEBUG;DEBUG10.0;DEBUG2;0.0;DEBUG3;0.0;DEBUG4;0.0
ATTITUDE;ANGX;1.0;ANGY;0.0;HEAD;-118.0
STATUS;CYCLETIME;2792;I2CERR;0;PRESENT;23;MODE;0
RAW_IMU;AX;0.0;AY;0.0;AZ;256.0;GX;0.0;GY;0.0;GZ;0.0;MAGX;88.0;MAGY;-73.0;MAGZ;-7.0
MOT;0;1000.0;1;1000.0;2;1000.0;3;1000.0;4;0.0;5;0.0;6;0.0;7;0.0;
RC;ROLL;1489.0;PITCH;1502.0;YAW;1503.0;THROTTLE;1686.0;AUX1;1688.0;AUX2;1500.0;AUX3;1500.0;AUX4;1500.0
ALTITUDE;0.0
DEBUG;DEBUG10.0;DEBUG2;0.0;DEBUG3;0.0;DEBUG4;0.0
ATTITUDE;ANGX;1.0;ANGY;0.0;HEAD;-119.0
STATUS;CYCLETIME;2872;I2CERR;0;PRESENT;23;MODE;0
RAW_IMU;AX;0.0;AY;-1.0;AZ;258.0;GX;0.0;GY;0.0;GZ;0.0;MAGX;88.0;MAGY;-73.0;MAGZ;-6.0
MOT;0;1000.0;1;1000.0;2;1000.0;3;1000.0;4;0.0;5;0.0;6;0.0;7;0.0;
RC;ROLL;1489.0;PITCH;1502.0;YAW;1503.0;THROTTLE;1689.0;AUX1;1688.0;AUX2;1500.0;AUX3;1500.0;AUX4;1500.0
ALTITUDE;0.0
DEBUG;DEBUG10.0;DEBUG2;0.0;DEBUG3;0.0;DEBUG4;0.0
ATTITUDE;ANGX;1.0;ANGY;0.0;HEAD;-119.0
STATUS;CYCLETIME;2908;I2CERR;0;PRESENT;23;MODE;0
RAW_IMU;AX;-1.0;AY;1.0;AZ;259.0;GX;0.0;GY;0.0;GZ;0.0;MAGX;88.0;MAGY;-73.0;MAGZ;-6.0
MOT;0;1000.0;1;1000.0;2;1000.0;3;1000.0;4;0.0;5;0.0;6;0.0;7;0.0;
RC;ROLL;1487.0;PITCH;1502.0;YAW;1501.0;THROTTLE;1689.0;AUX1;1688.0;AUX2;1500.0;AUX3;1500.0;AUX4;1500.0
ALTITUDE;0.0
DEBUG;DEBUG10.0;DEBUG2;0.0;DEBUG3;0.0;DEBUG4;0.0
ATTITUDE;ANGX;1.0;ANGY;0.0;HEAD;-119.0
STATUS;CYCLETIME;3012;I2CERR;0;PRESENT;23;MODE;0
RAW_IMU;AX;1.0;AY;2.0;AZ;259.0;GX;0.0;GY;0.0;GZ;0.0;MAGX;88.0;MAGY;-72.0;MAGZ;-5.0
MOT;0;1000.0;1;1000.0;2;1000.0;3;1000.0;4;0.0;5;0.0;6;0.0;7;0.0;
RC;ROLL;1487.0;PITCH;1504.0;YAW;1504.0;THROTTLE;1685.0;AUX1;1683.0;AUX2;1500.0;AUX3;1500.0;AUX4;1500.0
ALTITUDE;0.0
DEBUG;DEBUG10.0;DEBUG2;0.0;DEBUG3;0.0;DEBUG4;0.0
ATTITUDE;ANGX;0.0;ANGY;0.0;HEAD;-119.0
STATUS;CYCLETIME;2832;I2CERR;0;PRESENT;23;MODE;0
RAW_IMU;AX;1.0;AY;1.0;AZ;257.0;GX;0.0;GY;0.0;GZ;0.0;MAGX;88.0;MAGY;-72.0;MAGZ;-5.0
MOT;0;1000.0;1;1000.0;2;1000.0;3;1000.0;4;0.0;5;0.0;6;0.0;7;0.0;
RC;ROLL;1487.0;PITCH;1504.0;YAW;1509.0;THROTTLE;1682.0;AUX1;1681.0;AUX2;1500.0;AUX3;1500.0;AUX4;1500.0
ALTITUDE;0.0
DEBUG;DEBUG10.0;DEBUG2;0.0;DEBUG3;0.0;DEBUG4;0.0
ATTITUDE;ANGX;0.0;ANGY;0.0;HEAD;-119.0
STATUS;CYCLETIME;2800;I2CERR;0;PRESENT;23;MODE;0
RAW_IMU;AX;0.0;AY;1.0;AZ;255.0;GX;0.0;GY;0.0;GZ;0.0;MAGX;89.0;MAGY;-72.0;MAGZ;-7.0
MOT;0;1000.0;1;1000.0;2;1000.0;3;1000.0;4;0.0;5;0.0;6;0.0;7;0.0;
RC;ROLL;1485.0;PITCH;1506.0;YAW;1509.0;THROTTLE;1684.0;AUX1;1681.0;AUX2;1500.0;AUX3;1500.0;AUX4;1500.0
ALTITUDE;0.0
DEBUG;DEBUG10.0;DEBUG2;0.0;DEBUG3;0.0;DEBUG4;0.0
ATTITUDE;ANGX;0.0;ANGY;0.0;HEAD;-119.0
STATUS;CYCLETIME;2840;I2CERR;0;PRESENT;23;MODE;0
RAW_IMU;AX;1.0;AY;1.0;AZ;257.0;GX;0.0;GY;0.0;GZ;0.0;MAGX;89.0;MAGY;-72.0;MAGZ;-7.0
MOT;0;1000.0;1;1000.0;2;1000.0;3;1000.0;4;0.0;5;0.0;6;0.0;7;0.0;
RC;ROLL;1485.0;PITCH;1506.0;YAW;1509.0;THROTTLE;1687.0;AUX1;1681.0;AUX2;1500.0;AUX3;1500.0;AUX4;1500.0
ALTITUDE;0.0
DEBUG;DEBUG10.0;DEBUG2;0.0;DEBUG3;0.0;DEBUG4;0.0
ATTITUDE;ANGX;0.0;ANGY;0.0;HEAD;-118.0
STATUS;CYCLETIME;2896;I2CERR;0;PRESENT;23;MODE;0
RAW_IMU;AX;0.0;AY;0.0;AZ;258.0;GX;0.0;GY;0.0;GZ;0.0;MAGX;88.0;MAGY;-72.0;MAGZ;-5.0
MOT;0;1000.0;1;1000.0;2;1000.0;3;1000.0;4;0.0;5;0.0;6;0.0;7;0.0;
RC;ROLL;1487.0;PITCH;1504.0;YAW;1509.0;THROTTLE;1687.0;AUX1;1681.0;AUX2;1500.0;AUX3;1500.0;AUX4;1500.0
ALTITUDE;0.0
DEBUG;DEBUG10.0;DEBUG2;0.0;DEBUG3;0.0;DEBUG4;0.0
ATTITUDE;ANGX;0.0;ANGY;0.0;HEAD;-118.0
STATUS;CYCLETIME;2916;I2CERR;0;PRESENT;23;MODE;0
RAW_IMU;AX;0.0;AY;1.0;AZ;257.0;GX;0.0;GY;0.0;GZ;0.0;MAGX;88.0;MAGY;-72.0;MAGZ;-5.0
MOT;0;1000.0;1;1000.0;2;1000.0;3;1000.0;4;0.0;5;0.0;6;0.0;7;0.0;
RC;ROLL;1487.0;PITCH;1504.0;YAW;1509.0;THROTTLE;1687.0;AUX1;1679.0;AUX2;1500.0;AUX3;1500.0;AUX4;1500.0
ALTITUDE;0.0
DEBUG;DEBUG10.0;DEBUG2;0.0;DEBUG3;0.0;DEBUG4;0.0
ATTITUDE;ANGX;0.0;ANGY;0.0;HEAD;-118.0
STATUS;CYCLETIME;2796;I2CERR;0;PRESENT;23;MODE;0
RAW_IMU;AX;3.0;AY;1.0;AZ;259.0;GX;0.0;GY;0.0;GZ;0.0;MAGX;89.0;MAGY;-73.0;MAGZ;-6.0
MOT;0;1000.0;1;1000.0;2;1000.0;3;1000.0;4;0.0;5;0.0;6;0.0;7;0.0;
RC;ROLL;1487.0;PITCH;1506.0;YAW;1506.0;THROTTLE;1685.0;AUX1;1679.0;AUX2;1500.0;AUX3;1500.0;AUX4;1500.0
ALTITUDE;0.0
DEBUG;DEBUG10.0;DEBUG2;0.0;DEBUG3;0.0;DEBUG4;0.0
ATTITUDE;ANGX;0.0;ANGY;0.0;HEAD;-118.0
STATUS;CYCLETIME;2832;I2CERR;0;PRESENT;23;MODE;0
RAW_IMU;AX;1.0;AY;0.0;AZ;257.0;GX;0.0;GY;0.0;GZ;0.0;MAGX;89.0;MAGY;-73.0;MAGZ;-6.0
MOT;0;1000.0;1;1000.0;2;1000.0;3;1000.0;4;0.0;5;0.0;6;0.0;7;0.0;
RC;ROLL;1487.0;PITCH;1506.0;YAW;1506.0;THROTTLE;1685.0;AUX1;1679.0;AUX2;1500.0;AUX3;1500.0;AUX4;1500.0
ALTITUDE;0.0
DEBUG;DEBUG10.0;DEBUG2;0.0;DEBUG3;0.0;DEBUG4;0.0
ATTITUDE;ANGX;0.0;ANGY;0.0;HEAD;-119.0
STATUS;CYCLETIME;2864;I2CERR;0;PRESENT;23;MODE;0
RAW_IMU;AX;0.0;AY;1.0;AZ;258.0;GX;0.0;GY;0.0;GZ;0.0;MAGX;89.0;MAGY;-73.0;MAGZ;-6.0
MOT;0;1000.0;1;1000.0;2;1000.0;3;1000.0;4;0.0;5;0.0;6;0.0;7;0.0;
RC;ROLL;1489.0;PITCH;1503.0;YAW;1506.0;THROTTLE;1685.0;AUX1;1679.0;AUX2;1500.0;AUX3;1500.0;AUX4;1500.0
ALTITUDE;0.0
DEBUG;DEBUG10.0;DEBUG2;0.0;DEBUG3;0.0;DEBUG4;0.0
ATTITUDE;ANGX;0.0;ANGY;0.0;HEAD;-119.0
STATUS;CYCLETIME;2868;I2CERR;0;PRESENT;23;MODE;0
RAW_IMU;AX;-2.0;AY;2.0;AZ;255.0;GX;0.0;GY;0.0;GZ;0.0;MAGX;88.0;MAGY;-73.0;MAGZ;-6.0
MOT;0;1000.0;1;1000.0;2;1000.0;3;1000.0;4;0.0;5;0.0;6;0.0;7;0.0;
RC;ROLL;1487.0;PITCH;1503.0;YAW;1506.0;THROTTLE;1685.0;AUX1;1679.0;AUX2;1500.0;AUX3;1500.0;AUX4;1500.0
ALTITUDE;0.0
DEBUG;DEBUG10.0;DEBUG2;0.0;DEBUG3;0.0;DEBUG4;0.0
ATTITUDE;ANGX;0.0;ANGY;0.0;HEAD;-119.0
STATUS;CYCLETIME;3008;I2CERR;0;PRESENT;23;MODE;0
RAW_IMU;AX;0.0;AY;0.0;AZ;257.0;GX;0.0;GY;0.0;GZ;0.0;MAGX;88.0;MAGY;-73.0;MAGZ;-6.0
