IDENT;V;220;TYPE;3
MSP_MOTOR_PINS
STATUS;CYCLETIME;2752;I2CERR;0;PRESENT;31;MODE;2
RAW_IMU;AX;0.0;AY;0.0;AZ;24.0;GX;0.0;GY;0.0;GZ;0.0;MAGX;2.0;MAGY;63.0;MAGZ;6.0
ALTITUDE;0.0
DEBUG;DEBUG10.0;DEBUG2;0.0;DEBUG3;0.0;DEBUG4;0.0
ATTITUDE;ANGX;0.0;ANGY;0.0;HEAD;8.0
STATUS;CYCLETIME;2636;I2CERR;0;PRESENT;31;MODE;2
RAW_IMU;AX;-1.0;AY;0.0;AZ;119.0;GX;0.0;GY;0.0;GZ;0.0;MAGX;2.0;MAGY;63.0;MAGZ;6.0
MOT;0;1000.0;1;1000.0;2;1000.0;3;1000.0;4;0.0;5;0.0;6;0.0;7;0.0;
RC;ROLL;1554.0;PITCH;1498.0;YAW;1554.0;THROTTLE;1060.0;AUX1;2001.0;AUX2;1500.0;AUX3;1500.0;AUX4;1500.0
GPS;ALT;0;LAT;0;LON;0;SPD;0
ALTITUDE;0.0
DEBUG;DEBUG10.0;DEBUG2;0.0;DEBUG3;0.0;DEBUG4;0.0
ATTITUDE;ANGX;0.0;ANGY;0.0;HEAD;8.0
STATUS;CYCLETIME;2644;I2CERR;0;PRESENT;31;MODE;514
RAW_IMU;AX;-2.0;AY;0.0;AZ;198.0;GX;0.0;GY;0.0;GZ;0.0;MAGX;2.0;MAGY;62.0;MAGZ;6.0
MOT;0;1000.0;1;1000.0;2;1000.0;3;1000.0;4;0.0;5;0.0;6;0.0;7;0.0;
RC;ROLL;1562.0;PITCH;1498.0;YAW;1554.0;THROTTLE;1068.0;AUX1;2004.0;AUX2;1500.0;AUX3;1500.0;AUX4;1500.0
GPS;ALT;0;LAT;0;LON;0;SPD;0
ALTITUDE;0.0
DEBUG;DEBUG10.0;DEBUG2;0.0;DEBUG3;0.0;DEBUG4;0.0
ATTITUDE;ANGX;0.0;ANGY;0.0;HEAD;8.0
STATUS;CYCLETIME;2708;I2CERR;0;PRESENT;31;MODE;514
RAW_IMU;AX;-2.0;AY;1.0;AZ;218.0;GX;0.0;GY;0.0;GZ;0.0;MAGX;2.0;MAGY;63.0;MAGZ;5.0
MOT;0;1000.0;1;1000.0;2;1000.0;3;1000.0;4;0.0;5;0.0;6;0.0;7;0.0;
RC;ROLL;1562.0;PITCH;1496.0;YAW;1554.0;THROTTLE;1068.0;AUX1;2004.0;AUX2;1500.0;AUX3;1500.0;AUX4;1500.0
GPS;ALT;0;LAT;0;LON;0;SPD;0
ALTITUDE;0.0
DEBUG;DEBUG10.0;DEBUG2;0.0;DEBUG3;0.0;DEBUG4;0.0
ATTITUDE;ANGX;0.0;ANGY;0.0;HEAD;8.0
STATUS;CYCLETIME;2932;I2CERR;0;PRESENT;31;MODE;514
RAW_IMU;AX;-2.0;AY;0.0;AZ;230.0;GX;0.0;GY;0.0;GZ;0.0;MAGX;2.0;MAGY;63.0;MAGZ;5.0
MOT;0;1000.0;1;1000.0;2;1000.0;3;1000.0;4;0.0;5;0.0;6;0.0;7;0.0;
RC;ROLL;1564.0;PITCH;1496.0;YAW;1554.0;THROTTLE;1068.0;AUX1;2004.0;AUX2;1500.0;AUX3;1500.0;AUX4;1500.0
GPS;ALT;0;LAT;0;LON;0;SPD;0
ALTITUDE;0.0
DEBUG;DEBUG10.0;DEBUG2;0.0;DEBUG3;0.0;DEBUG4;0.0
ATTITUDE;ANGX;0.0;ANGY;0.0;HEAD;8.0
STATUS;CYCLETIME;2700;I2CERR;0;PRESENT;31;MODE;514
RAW_IMU;AX;-2.0;AY;0.0;AZ;239.0;GX;0.0;GY;0.0;GZ;0.0;MAGX;1.0;MAGY;63.0;MAGZ;5.0
MOT;0;1000.0;1;1000.0;2;1000.0;3;1000.0;4;0.0;5;0.0;6;0.0;7;0.0;
RC;ROLL;1564.0;PITCH;1494.0;YAW;1554.0;THROTTLE;1068.0;AUX1;2002.0;AUX2;1500.0;AUX3;1500.0;AUX4;1500.0
GPS;ALT;0;LAT;0;LON;0;SPD;0
ALTITUDE;0.0
DEBUG;DEBUG10.0;DEBUG2;0.0;DEBUG3;0.0;DEBUG4;0.0
ATTITUDE;ANGX;0.0;ANGY;0.0;HEAD;8.0
STATUS;CYCLETIME;2676;I2CERR;0;PRESENT;31;MODE;514
RAW_IMU;AX;-2.0;AY;1.0;AZ;244.0;GX;0.0;GY;0.0;GZ;0.0;MAGX;1.0;MAGY;63.0;MAGZ;5.0
MOT;0;1000.0;1;1000.0;2;1000.0;3;1000.0;4;0.0;5;0.0;6;0.0;7;0.0;
RC;ROLL;1559.0;PITCH;1496.0;YAW;1554.0;THROTTLE;1068.0;AUX1;2002.0;AUX2;1500.0;AUX3;1500.0;AUX4;1500.0
GPS;ALT;0;LAT;0;LON;0;SPD;0
ALTITUDE;0.0
DEBUG;DEBUG10.0;DEBUG2;0.0;DEBUG3;0.0;DEBUG4;0.0
ATTITUDE;ANGX;0.0;ANGY;0.0;HEAD;8.0
STATUS;CYCLETIME;2704;I2CERR;0;PRESENT;31;MODE;514
RAW_IMU;AX;-2.0;AY;1.0;AZ;249.0;GX;0.0;GY;0.0;GZ;0.0;MAGX;2.0;MAGY;62.0;MAGZ;5.0
MOT;0;1000.0;1;1000.0;2;1000.0;3;1000.0;4;0.0;5;0.0;6;0.0;7;0.0;
RC;ROLL;1559.0;PITCH;1496.0;YAW;1554.0;THROTTLE;1066.0;AUX1;2002.0;AUX2;1500.0;AUX3;1500.0;AUX4;1500.0
GPS;ALT;0;LAT;0;LON;0;SPD;0
ALTITUDE;0.0
DEBUG;DEBUG10.0;DEBUG2;0.0;DEBUG3;0.0;DEBUG4;0.0
ATTITUDE;ANGX;0.0;ANGY;0.0;HEAD;8.0
STATUS;CYCLETIME;2752;I2CERR;0;PRESENT;31;MODE;514
RAW_IMU;AX;-2.0;AY;1.0;AZ;251.0;GX;0.0;GY;0.0;GZ;0.0;MAGX;2.0;MAGY;62.0;MAGZ;5.0
MOT;0;1000.0;1;1000.0;2;1000.0;3;1000.0;4;0.0;5;0.0;6;0.0;7;0.0;
RC;ROLL;1559.0;PITCH;1496.0;YAW;1554.0;THROTTLE;1066.0;AUX1;2002.0;AUX2;1500.0;AUX3;1500.0;AUX4;1500.0
GPS;ALT;0;LAT;0;LON;0;SPD;0
ALTITUDE;0.0
DEBUG;DEBUG10.0;DEBUG2;0.0;DEBUG3;0.0;DEBUG4;0.0
ATTITUDE;ANGX;0.0;ANGY;0.0;HEAD;8.0
STATUS;CYCLETIME;2696;I2CERR;0;PRESENT;31;MODE;514
RAW_IMU;AX;-2.0;AY;1.0;AZ;253.0;GX;0.0;GY;0.0;GZ;0.0;MAGX;2.0;MAGY;63.0;MAGZ;5.0
MOT;0;1000.0;1;1000.0;2;1000.0;3;1000.0;4;0.0;5;0.0;6;0.0;7;0.0;
RC;ROLL;1559.0;PITCH;1496.0;YAW;1554.0;THROTTLE;1068.0;AUX1;2004.0;AUX2;1500.0;AUX3;1500.0;AUX4;1500.0
GPS;ALT;0;LAT;0;LON;0;SPD;0
ALTITUDE;0.0
DEBUG;DEBUG10.0;DEBUG2;0.0;DEBUG3;0.0;DEBUG4;0.0
ATTITUDE;ANGX;0.0;ANGY;0.0;HEAD;8.0
STATUS;CYCLETIME;2936;I2CERR;0;PRESENT;31;MODE;514
RAW_IMU;AX;-2.0;AY;0.0;AZ;254.0;GX;0.0;GY;0.0;GZ;0.0;MAGX;2.0;MAGY;63.0;MAGZ;5.0
MOT;0;1000.0;1;1000.0;2;1000.0;3;1000.0;4;0.0;5;0.0;6;0.0;7;0.0;
RC;ROLL;1559.0;PITCH;1496.0;YAW;1554.0;THROTTLE;1068.0;AUX1;2004.0;AUX2;1500.0;AUX3;1500.0;AUX4;1500.0
GPS;ALT;0;LAT;0;LON;0;SPD;0
ALTITUDE;0.0
DEBUG;DEBUG10.0;DEBUG2;0.0;DEBUG3;0.0;DEBUG4;0.0
ATTITUDE;ANGX;0.0;ANGY;0.0;HEAD;8.0
STATUS;CYCLETIME;2680;I2CERR;0;PRESENT;31;MODE;514
RAW_IMU;AX;-2.0;AY;0.0;AZ;254.0;GX;0.0;GY;0.0;GZ;0.0;MAGX;2.0;MAGY;62.0;MAGZ;6.0
MOT;0;1000.0;1;1000.0;2;1000.0;3;1000.0;4;0.0;5;0.0;6;0.0;7;0.0;
RC;ROLL;1559.0;PITCH;1496.0;YAW;1554.0;THROTTLE;1068.0;AUX1;2004.0;AUX2;1500.0;AUX3;1500.0;AUX4;1500.0
GPS;ALT;0;LAT;0;LON;0;SPD;0
ALTITUDE;0.0
DEBUG;DEBUG10.0;DEBUG2;0.0;DEBUG3;0.0;DEBUG4;0.0
ATTITUDE;ANGX;0.0;ANGY;0.0;HEAD;8.0
STATUS;CYCLETIME;-22240;I2CERR;0;PRESENT;31;MODE;514
RAW_IMU;AX;-2.0;AY;1.0;AZ;255.0;GX;0.0;GY;0.0;GZ;0.0;MAGX;2.0;MAGY;62.0;MAGZ;6.0
MOT;0;1000.0;1;1000.0;2;1000.0;3;1000.0;4;0.0;5;0.0;6;0.0;7;0.0;
RC;ROLL;1559.0;PITCH;1496.0;YAW;1554.0;THROTTLE;1068.0;AUX1;2004.0;AUX2;1500.0;AUX3;1500.0;AUX4;1500.0
GPS;ALT;0;LAT;0;LON;0;SPD;0
ALTITUDE;0.0
ALTITUDE;0.0
DEBUG;DEBUG10.0;DEBUG2;0.0;DEBUG3;0.0;DEBUG4;0.0
ATTITUDE;ANGX;0.0;ANGY;0.0;HEAD;8.0
STATUS;CYCLETIME;2756;I2CERR;0;PRESENT;31;MODE;514
RAW_IMU;AX;-2.0;AY;1.0;AZ;255.0;GX;0.0;GY;0.0;GZ;0.0;MAGX;2.0;MAGY;63.0;MAGZ;5.0
MOT;0;1000.0;1;1000.0;2;1000.0;3;1000.0;4;0.0;5;0.0;6;0.0;7;0.0;
RC;ROLL;1559.0;PITCH;1496.0;YAW;1554.0;THROTTLE;1068.0;AUX1;2004.0;AUX2;1500.0;AUX3;1500.0;AUX4;1500.0
GPS;ALT;0;LAT;0;LON;0;SPD;0
ALTITUDE;0.0
DEBUG;DEBUG10.0;DEBUG2;0.0;DEBUG3;0.0;DEBUG4;0.0
ATTITUDE;ANGX;0.0;ANGY;0.0;HEAD;8.0
STATUS;CYCLETIME;2784;I2CERR;0;PRESENT;31;MODE;514
RAW_IMU;AX;-2.0;AY;0.0;AZ;256.0;GX;0.0;GY;0.0;GZ;0.0;MAGX;3.0;MAGY;62.0;MAGZ;6.0
MOT;0;1000.0;1;1000.0;2;1000.0;3;1000.0;4;0.0;5;0.0;6;0.0;7;0.0;
RC;ROLL;1559.0;PITCH;1496.0;YAW;1554.0;THROTTLE;1068.0;AUX1;2004.0;AUX2;1500.0;AUX3;1500.0;AUX4;1500.0
GPS;ALT;0;LAT;0;LON;0;SPD;0
ALTITUDE;0.0
DEBUG;DEBUG10.0;DEBUG2;0.0;DEBUG3;0.0;DEBUG4;0.0
ATTITUDE;ANGX;0.0;ANGY;0.0;HEAD;8.0
STATUS;CYCLETIME;2780;I2CERR;0;PRESENT;31;MODE;514
RAW_IMU;AX;-2.0;AY;0.0;AZ;256.0;GX;0.0;GY;0.0;GZ;0.0;MAGX;3.0;MAGY;62.0;MAGZ;6.0
MOT;0;1000.0;1;1000.0;2;1000.0;3;1000.0;4;0.0;5;0.0;6;0.0;7;0.0;
RC;ROLL;1559.0;PITCH;1496.0;YAW;1554.0;THROTTLE;1068.0;AUX1;2004.0;AUX2;1500.0;AUX3;1500.0;AUX4;1500.0
GPS;ALT;0;LAT;0;LON;0;SPD;0
ALTITUDE;0.0
DEBUG;DEBUG10.0;DEBUG2;0.0;DEBUG3;0.0;DEBUG4;0.0
ATTITUDE;ANGX;0.0;ANGY;0.0;HEAD;8.0
STATUS;CYCLETIME;2768;I2CERR;0;PRESENT;31;MODE;514
RAW_IMU;AX;-2.0;AY;0.0;AZ;256.0;GX;0.0;GY;0.0;GZ;0.0;MAGX;2.0;MAGY;62.0;MAGZ;5.0
MOT;0;1000.0;1;1000.0;2;1000.0;3;1000.0;4;0.0;5;0.0;6;0.0;7;0.0;
RC;ROLL;1559.0;PITCH;1496.0;YAW;1554.0;THROTTLE;1068.0;AUX1;2004.0;AUX2;1500.0;AUX3;1500.0;AUX4;1500.0
GPS;ALT;0;LAT;0;LON;0;SPD;0
ALTITUDE;0.0
DEBUG;DEBUG10.0;DEBUG2;0.0;DEBUG3;0.0;DEBUG4;0.0
ATTITUDE;ANGX;0.0;ANGY;0.0;HEAD;8.0
STATUS;CYCLETIME;3048;I2CERR;0;PRESENT;31;MODE;514
RAW_IMU;AX;-2.0;AY;0.0;AZ;256.0;GX;0.0;GY;0.0;GZ;0.0;MAGX;2.0;MAGY;62.0;MAGZ;5.0
MOT;0;1000.0;1;1000.0;2;1000.0;3;1000.0;4;0.0;5;0.0;6;0.0;7;0.0;
RC;ROLL;1559.0;PITCH;1496.0;YAW;1554.0;THROTTLE;1068.0;AUX1;2004.0;AUX2;1500.0;AUX3;1500.0;AUX4;1500.0
GPS;ALT;0;LAT;0;LON;0;SPD;0
ALTITUDE;0.0
DEBUG;DEBUG10.0;DEBUG2;0.0;DEBUG3;0.0;DEBUG4;0.0
ATTITUDE;ANGX;0.0;ANGY;0.0;HEAD;8.0
STATUS;CYCLETIME;2748;I2CERR;0;PRESENT;31;MODE;514
RAW_IMU;AX;-2.0;AY;0.0;AZ;256.0;GX;0.0;GY;0.0;GZ;0.0;MAGX;2.0;MAGY;62.0;MAGZ;5.0
MOT;0;1000.0;1;1000.0;2;1000.0;3;1000.0;4;0.0;5;0.0;6;0.0;7;0.0;
RC;ROLL;1559.0;PITCH;1496.0;YAW;1554.0;THROTTLE;1068.0;AUX1;2004.0;AUX2;1500.0;AUX3;1500.0;AUX4;1500.0
GPS;ALT;0;LAT;0;LON;0;SPD;0
ALTITUDE;0.0
DEBUG;DEBUG10.0;DEBUG2;0.0;DEBUG3;0.0;DEBUG4;0.0
ATTITUDE;ANGX;0.0;ANGY;0.0;HEAD;8.0
STATUS;CYCLETIME;2808;I2CERR;0;PRESENT;31;MODE;514
RAW_IMU;AX;-2.0;AY;0.0;AZ;256.0;GX;0.0;GY;0.0;GZ;0.0;MAGX;2.0;MAGY;62.0;MAGZ;5.0
MOT;0;1000.0;1;1000.0;2;1000.0;3;1000.0;4;0.0;5;0.0;6;0.0;7;0.0;
RC;ROLL;1559.0;PITCH;1496.0;YAW;1554.0;THROTTLE;1068.0;AUX1;2004.0;AUX2;1500.0;AUX3;1500.0;AUX4;1500.0
GPS;ALT;0;LAT;0;LON;0;SPD;0
ALTITUDE;0.0
DEBUG;DEBUG10.0;DEBUG2;0.0;DEBUG3;0.0;DEBUG4;0.0
ATTITUDE;ANGX;0.0;ANGY;0.0;HEAD;8.0
ATTITUDE;ANGX;0.0;ANGY;0.0;HEAD;8.0
STATUS;CYCLETIME;2764;I2CERR;0;PRESENT;31;MODE;514
RAW_IMU;AX;-2.0;AY;0.0;AZ;256.0;GX;0.0;GY;0.0;GZ;0.0;MAGX;2.0;MAGY;62.0;MAGZ;5.0
MOT;0;1000.0;1;1000.0;2;1000.0;3;1000.0;4;0.0;5;0.0;6;0.0;7;0.0;
RC;ROLL;1559.0;PITCH;1496.0;YAW;1554.0;THROTTLE;1068.0;AUX1;2004.0;AUX2;1500.0;AUX3;1500.0;AUX4;1500.0
GPS;ALT;0;LAT;0;LON;0;SPD;0
ALTITUDE;0.0
DEBUG;DEBUG10.0;DEBUG2;0.0;DEBUG3;0.0;DEBUG4;0.0
ATTITUDE;ANGX;0.0;ANGY;0.0;HEAD;8.0
STATUS;CYCLETIME;2764;I2CERR;0;PRESENT;31;MODE;514
RAW_IMU;AX;-2.0;AY;0.0;AZ;256.0;GX;0.0;GY;0.0;GZ;0.0;MAGX;2.0;MAGY;62.0;MAGZ;6.0
MOT;0;1000.0;1;1000.0;2;1000.0;3;1000.0;4;0.0;5;0.0;6;0.0;7;0.0;
RC;ROLL;1559.0;PITCH;1496.0;YAW;1554.0;THROTTLE;1068.0;AUX1;2004.0;AUX2;1500.0;AUX3;1500.0;AUX4;1500.0
GPS;ALT;0;LAT;0;LON;0;SPD;0
ALTITUDE;0.0
DEBUG;DEBUG10.0;DEBUG2;0.0;DEBUG3;0.0;DEBUG4;0.0
ATTITUDE;ANGX;0.0;ANGY;0.0;HEAD;8.0
STATUS;CYCLETIME;2672;I2CERR;0;PRESENT;31;MODE;514
RAW_IMU;AX;-2.0;AY;0.0;AZ;256.0;GX;0.0;GY;0.0;GZ;0.0;MAGX;2.0;MAGY;62.0;MAGZ;6.0
MOT;0;1000.0;1;1000.0;2;1000.0;3;1000.0;4;0.0;5;0.0;6;0.0;7;0.0;
RC;ROLL;1559.0;PITCH;1496.0;YAW;1554.0;THROTTLE;1068.0;AUX1;2004.0;AUX2;1500.0;AUX3;1500.0;AUX4;1500.0
GPS;ALT;0;LAT;0;LON;0;SPD;0
ALTITUDE;0.0
DEBUG;DEBUG10.0;DEBUG2;0.0;DEBUG3;0.0;DEBUG4;0.0
ATTITUDE;ANGX;0.0;ANGY;0.0;HEAD;8.0
STATUS;CYCLETIME;2696;I2CERR;0;PRESENT;31;MODE;514
RAW_IMU;AX;-2.0;AY;0.0;AZ;257.0;GX;0.0;GY;0.0;GZ;0.0;MAGX;2.0;MAGY;62.0;MAGZ;6.0
MOT;0;1000.0;1;1000.0;2;1000.0;3;1000.0;4;0.0;5;0.0;6;0.0;7;0.0;
RC;ROLL;1559.0;PITCH;1496.0;YAW;1554.0;THROTTLE;1068.0;AUX1;2004.0;AUX2;1500.0;AUX3;1500.0;AUX4;1500.0
GPS;ALT;0;LAT;0;LON;0;SPD;0
ALTITUDE;0.0
DEBUG;DEBUG10.0;DEBUG2;0.0;DEBUG3;0.0;DEBUG4;0.0
ATTITUDE;ANGX;0.0;ANGY;0.0;HEAD;8.0
STATUS;CYCLETIME;3024;I2CERR;0;PRESENT;31;MODE;514
RAW_IMU;AX;-3.0;AY;0.0;AZ;257.0;GX;0.0;GY;0.0;GZ;0.0;MAGX;2.0;MAGY;62.0;MAGZ;6.0
MOT;0;1000.0;1;1000.0;2;1000.0;3;1000.0;4;0.0;5;0.0;6;0.0;7;0.0;
RC;ROLL;1559.0;PITCH;1496.0;YAW;1554.0;THROTTLE;1068.0;AUX1;2004.0;AUX2;1500.0;AUX3;1500.0;AUX4;1500.0
GPS;ALT;0;LAT;0;LON;0;SPD;0
ALTITUDE;0.0
DEBUG;DEBUG10.0;DEBUG2;0.0;DEBUG3;0.0;DEBUG4;0.0
ATTITUDE;ANGX;0.0;ANGY;0.0;HEAD;8.0
STATUS;CYCLETIME;2748;I2CERR;0;PRESENT;31;MODE;514
RAW_IMU;AX;-3.0;AY;0.0;AZ;256.0;GX;0.0;GY;0.0;GZ;0.0;MAGX;2.0;MAGY;62.0;MAGZ;5.0
MOT;0;1000.0;1;1000.0;2;1000.0;3;1000.0;4;0.0;5;0.0;6;0.0;7;0.0;
RC;ROLL;1559.0;PITCH;1496.0;YAW;1554.0;THROTTLE;1068.0;AUX1;2004.0;AUX2;1500.0;AUX3;1500.0;AUX4;1500.0
GPS;ALT;0;LAT;0;LON;0;SPD;0
ALTITUDE;0.0
DEBUG;DEBUG10.0;DEBUG2;0.0;DEBUG3;0.0;DEBUG4;0.0
ATTITUDE;ANGX;0.0;ANGY;0.0;HEAD;8.0
STATUS;CYCLETIME;2740;I2CERR;0;PRESENT;31;MODE;514
RAW_IMU;AX;-3.0;AY;0.0;AZ;257.0;GX;0.0;GY;0.0;GZ;0.0;MAGX;2.0;MAGY;62.0;MAGZ;5.0
MOT;0;1000.0;1;1000.0;2;1000.0;3;1000.0;4;0.0;5;0.0;6;0.0;7;0.0;
RC;ROLL;1559.0;PITCH;1496.0;YAW;1554.0;THROTTLE;1068.0;AUX1;2004.0;AUX2;1500.0;AUX3;1500.0;AUX4;1500.0
GPS;ALT;0;LAT;0;LON;0;SPD;0
ALTITUDE;0.0
DEBUG;DEBUG10.0;DEBUG2;0.0;DEBUG3;0.0;DEBUG4;0.0
ATTITUDE;ANGX;0.0;ANGY;0.0;HEAD;8.0
STATUS;CYCLETIME;2764;I2CERR;0;PRESENT;31;MODE;514
RAW_IMU;AX;-3.0;AY;0.0;AZ;257.0;GX;0.0;GY;0.0;GZ;0.0;MAGX;3.0;MAGY;62.0;MAGZ;7.0
MOT;0;1000.0;1;1000.0;2;1000.0;3;1000.0;4;0.0;5;0.0;6;0.0;7;0.0;
RC;ROLL;1559.0;PITCH;1496.0;YAW;1554.0;THROTTLE;1068.0;AUX1;2004.0;AUX2;1500.0;AUX3;1500.0;AUX4;1500.0
GPS;ALT;0;LAT;0;LON;0;SPD;0
ALTITUDE;0.0
DEBUG;DEBUG10.0;DEBUG2;0.0;DEBUG3;0.0;DEBUG4;0.0
ATTITUDE;ANGX;0.0;ANGY;0.0;HEAD;8.0
STATUS;CYCLETIME;2768;I2CERR;0;PRESENT;31;MODE;514
RAW_IMU;AX;-3.0;AY;0.0;AZ;257.0;GX;0.0;GY;0.0;GZ;0.0;MAGX;3.0;MAGY;62.0;MAGZ;7.0
MOT;0;1000.0;1;1000.0;2;1000.0;3;1000.0;4;0.0;5;0.0;6;0.0;7;0.0;
RC;ROLL;1559.0;PITCH;1496.0;YAW;1554.0;THROTTLE;1068.0;AUX1;2004.0;AUX2;1500.0;AUX3;1500.0;AUX4;1500.0
GPS;ALT;0;LAT;0;LON;0;SPD;0
ALTITUDE;0.0
DEBUG;DEBUG10.0;DEBUG2;0.0;DEBUG3;0.0;DEBUG4;0.0
ATTITUDE;ANGX;0.0;ANGY;0.0;HEAD;8.0
STATUS;CYCLETIME;2688;I2CERR;0;PRESENT;31;MODE;514
RAW_IMU;AX;-2.0;AY;0.0;AZ;257.0;GX;0.0;GY;0.0;GZ;0.0;MAGX;3.0;MAGY;62.0;MAGZ;5.0
MOT;0;1000.0;1;1000.0;2;1000.0;3;1000.0;4;0.0;5;0.0;6;0.0;7;0.0;
RC;ROLL;1559.0;PITCH;1496.0;YAW;1554.0;THROTTLE;1068.0;AUX1;2004.0;AUX2;1500.0;AUX3;1500.0;AUX4;1500.0
GPS;ALT;0;LAT;0;LON;0;SPD;0
ALTITUDE;0.0
DEBUG;DEBUG10.0;DEBUG2;0.0;DEBUG3;0.0;DEBUG4;0.0
ATTITUDE;ANGX;0.0;ANGY;0.0;HEAD;8.0
STATUS;CYCLETIME;2804;I2CERR;0;PRESENT;31;MODE;514
RAW_IMU;AX;-2.0;AY;0.0;AZ;257.0;GX;0.0;GY;0.0;GZ;0.0;MAGX;3.0;MAGY;62.0;MAGZ;5.0
MOT;0;1000.0;1;1000.0;2;1000.0;3;1000.0;4;0.0;5;0.0;6;0.0;7;0.0;
RC;ROLL;1559.0;PITCH;1496.0;YAW;1554.0;THROTTLE;1068.0;AUX1;2004.0;AUX2;1500.0;AUX3;1500.0;AUX4;1500.0
GPS;ALT;0;LAT;0;LON;0;SPD;0
ALTITUDE;0.0
DEBUG;DEBUG10.0;DEBUG2;0.0;DEBUG3;0.0;DEBUG4;0.0
ATTITUDE;ANGX;0.0;ANGY;0.0;HEAD;8.0
STATUS;CYCLETIME;2736;I2CERR;0;PRESENT;31;MODE;514
RAW_IMU;AX;-2.0;AY;0.0;AZ;256.0;GX;0.0;GY;0.0;GZ;0.0;MAGX;3.0;MAGY;62.0;MAGZ;5.0
MOT;0;1000.0;1;1000.0;2;1000.0;3;1000.0;4;0.0;5;0.0;6;0.0;7;0.0;
RC;ROLL;1559.0;PITCH;1496.0;YAW;1554.0;THROTTLE;1068.0;AUX1;2004.0;AUX2;1500.0;AUX3;1500.0;AUX4;1500.0
GPS;ALT;0;LAT;0;LON;0;SPD;0
ALTITUDE;0.0
DEBUG;DEBUG10.0;DEBUG2;0.0;DEBUG3;0.0;DEBUG4;0.0
ATTITUDE;ANGX;0.0;ANGY;0.0;HEAD;8.0
STATUS;CYCLETIME;2708;I2CERR;0;PRESENT;31;MODE;514
RAW_IMU;AX;-2.0;AY;0.0;AZ;257.0;GX;0.0;GY;0.0;GZ;0.0;MAGX;2.0;MAGY;63.0;MAGZ;6.0
MOT;0;1000.0;1;1000.0;2;1000.0;3;1000.0;4;0.0;5;0.0;6;0.0;7;0.0;
RC;ROLL;1559.0;PITCH;1496.0;YAW;1554.0;THROTTLE;1068.0;AUX1;2004.0;AUX2;1500.0;AUX3;1500.0;AUX4;1500.0
GPS;ALT;0;LAT;0;LON;0;SPD;0
ALTITUDE;0.0
DEBUG;DEBUG10.0;DEBUG2;0.0;DEBUG3;0.0;DEBUG4;0.0
ATTITUDE;ANGX;0.0;ANGY;0.0;HEAD;8.0
STATUS;CYCLETIME;2744;I2CERR;0;PRESENT;31;MODE;514
RAW_IMU;AX;-2.0;AY;0.0;AZ;257.0;GX;0.0;GY;0.0;GZ;0.0;MAGX;2.0;MAGY;63.0;MAGZ;5.0
MOT;0;1000.0;1;1000.0;2;1000.0;3;1000.0;4;0.0;5;0.0;6;0.0;7;0.0;
RC;ROLL;1559.0;PITCH;1496.0;YAW;1554.0;THROTTLE;1068.0;AUX1;2004.0;AUX2;1500.0;AUX3;1500.0;AUX4;1500.0
GPS;ALT;0;LAT;0;LON;0;SPD;0
ALTITUDE;0.0
DEBUG;DEBUG10.0;DEBUG2;0.0;DEBUG3;0.0;DEBUG4;0.0
ATTITUDE;ANGX;0.0;ANGY;0.0;HEAD;8.0
STATUS;CYCLETIME;2748;I2CERR;0;PRESENT;31;MODE;514
RAW_IMU;AX;-2.0;AY;0.0;AZ;257.0;GX;0.0;GY;0.0;GZ;0.0;MAGX;2.0;MAGY;63.0;MAGZ;5.0
MOT;0;1000.0;1;1000.0;2;1000.0;3;1000.0;4;0.0;5;0.0;6;0.0;7;0.0;
RC;ROLL;1559.0;PITCH;1496.0;YAW;1554.0;THROTTLE;1068.0;AUX1;2004.0;AUX2;1500.0;AUX3;1500.0;AUX4;1500.0
GPS;ALT;0;LAT;0;LON;0;SPD;0
ALTITUDE;0.0
DEBUG;DEBUG10.0;DEBUG2;0.0;DEBUG3;0.0;DEBUG4;0.0
ATTITUDE;ANGX;0.0;ANGY;0.0;HEAD;8.0
STATUS;CYCLETIME;2736;I2CERR;0;PRESENT;31;MODE;514
RAW_IMU;AX;-2.0;AY;0.0;AZ;257.0;GX;0.0;GY;0.0;GZ;0.0;MAGX;2.0;MAGY;62.0;MAGZ;5.0
MOT;0;1000.0;1;1000.0;2;1000.0;3;1000.0;4;0.0;5;0.0;6;0.0;7;0.0;
RC;ROLL;1559.0;PITCH;1496.0;YAW;1554.0;THROTTLE;1068.0;AUX1;2004.0;AUX2;1500.0;AUX3;1500.0;AUX4;1500.0
GPS;ALT;0;LAT;0;LON;0;SPD;0
ALTITUDE;0.0
DEBUG;DEBUG10.0;DEBUG2;0.0;DEBUG3;0.0;DEBUG4;0.0
ATTITUDE;ANGX;0.0;ANGY;0.0;HEAD;8.0
STATUS;CYCLETIME;2768;I2CERR;0;PRESENT;31;MODE;514
RAW_IMU;AX;-3.0;AY;1.0;AZ;257.0;GX;0.0;GY;0.0;GZ;0.0;MAGX;2.0;MAGY;62.0;MAGZ;5.0
MOT;0;1000.0;1;1000.0;2;1000.0;3;1000.0;4;0.0;5;0.0;6;0.0;7;0.0;
RC;ROLL;1559.0;PITCH;1496.0;YAW;1554.0;THROTTLE;1068.0;AUX1;2004.0;AUX2;1500.0;AUX3;1500.0;AUX4;1500.0
GPS;ALT;0;LAT;0;LON;0;SPD;0
ALTITUDE;0.0
DEBUG;DEBUG10.0;DEBUG2;0.0;DEBUG3;0.0;DEBUG4;0.0
ATTITUDE;ANGX;0.0;ANGY;0.0;HEAD;8.0
STATUS;CYCLETIME;3020;I2CERR;0;PRESENT;31;MODE;514
RAW_IMU;AX;-3.0;AY;1.0;AZ;257.0;GX;0.0;GY;0.0;GZ;0.0;MAGX;2.0;MAGY;63.0;MAGZ;6.0
MOT;0;1000.0;1;1000.0;2;1000.0;3;1000.0;4;0.0;5;0.0;6;0.0;7;0.0;
RC;ROLL;1559.0;PITCH;1496.0;YAW;1554.0;THROTTLE;1068.0;AUX1;2004.0;AUX2;1500.0;AUX3;1500.0;AUX4;1500.0
GPS;ALT;0;LAT;0;LON;0;SPD;0
ALTITUDE;0.0
DEBUG;DEBUG10.0;DEBUG2;0.0;DEBUG3;0.0;DEBUG4;0.0
ATTITUDE;ANGX;0.0;ANGY;0.0;HEAD;8.0
STATUS;CYCLETIME;2852;I2CERR;0;PRESENT;31;MODE;514
RAW_IMU;AX;-2.0;AY;1.0;AZ;257.0;GX;0.0;GY;0.0;GZ;0.0;MAGX;2.0;MAGY;63.0;MAGZ;6.0
MOT;0;1000.0;1;1000.0;2;1000.0;3;1000.0;4;0.0;5;0.0;6;0.0;7;0.0;
RC;ROLL;1559.0;PITCH;1496.0;YAW;1554.0;THROTTLE;1068.0;AUX1;2004.0;AUX2;1500.0;AUX3;1500.0;AUX4;1500.0
GPS;ALT;0;LAT;0;LON;0;SPD;0
ALTITUDE;0.0
DEBUG;DEBUG10.0;DEBUG2;0.0;DEBUG3;0.0;DEBUG4;0.0
ATTITUDE;ANGX;0.0;ANGY;0.0;HEAD;8.0
STATUS;CYCLETIME;2664;I2CERR;0;PRESENT;31;MODE;514
RAW_IMU;AX;-2.0;AY;1.0;AZ;257.0;GX;0.0;GY;0.0;GZ;0.0;MAGX;1.0;MAGY;61.0;MAGZ;5.0
MOT;0;1000.0;1;1000.0;2;1000.0;3;1000.0;4;0.0;5;0.0;6;0.0;7;0.0;
RC;ROLL;1559.0;PITCH;1496.0;YAW;1554.0;THROTTLE;1068.0;AUX1;2004.0;AUX2;1500.0;AUX3;1500.0;AUX4;1500.0
GPS;ALT;0;LAT;0;LON;0;SPD;0
ALTITUDE;0.0
DEBUG;DEBUG10.0;DEBUG2;0.0;DEBUG3;0.0;DEBUG4;0.0
ATTITUDE;ANGX;0.0;ANGY;0.0;HEAD;8.0
STATUS;CYCLETIME;2732;I2CERR;0;PRESENT;31;MODE;514
RAW_IMU;AX;-2.0;AY;0.0;AZ;256.0;GX;0.0;GY;0.0;GZ;0.0;MAGX;3.0;MAGY;62.0;MAGZ;5.0
MOT;0;1000.0;1;1000.0;2;1000.0;3;1000.0;4;0.0;5;0.0;6;0.0;7;0.0;
RC;ROLL;1559.0;PITCH;1496.0;YAW;1554.0;THROTTLE;1068.0;AUX1;2004.0;AUX2;1500.0;AUX3;1500.0;AUX4;1500.0
GPS;ALT;0;LAT;0;LON;0;SPD;0
ALTITUDE;0.0
DEBUG;DEBUG10.0;DEBUG2;0.0;DEBUG3;0.0;DEBUG4;0.0
ATTITUDE;ANGX;0.0;ANGY;0.0;HEAD;8.0
STATUS;CYCLETIME;2720;I2CERR;0;PRESENT;31;MODE;514
RAW_IMU;AX;-2.0;AY;0.0;AZ;256.0;GX;0.0;GY;0.0;GZ;0.0;MAGX;3.0;MAGY;62.0;MAGZ;5.0
MOT;0;1000.0;1;1000.0;2;1000.0;3;1000.0;4;0.0;5;0.0;6;0.0;7;0.0;
RC;ROLL;1559.0;PITCH;1496.0;YAW;1554.0;THROTTLE;1068.0;AUX1;2004.0;AUX2;1500.0;AUX3;1500.0;AUX4;1500.0
GPS;ALT;0;LAT;0;LON;0;SPD;0
ALTITUDE;0.0
DEBUG;DEBUG10.0;DEBUG2;0.0;DEBUG3;0.0;DEBUG4;0.0
ATTITUDE;ANGX;0.0;ANGY;0.0;HEAD;8.0
STATUS;CYCLETIME;3032;I2CERR;0;PRESENT;31;MODE;514
RAW_IMU;AX;-2.0;AY;0.0;AZ;256.0;GX;0.0;GY;0.0;GZ;0.0;MAGX;1.0;MAGY;62.0;MAGZ;6.0
MOT;0;1000.0;1;1000.0;2;1000.0;3;1000.0;4;0.0;5;0.0;6;0.0;7;0.0;
RC;ROLL;1559.0;PITCH;1496.0;YAW;1554.0;THROTTLE;1068.0;AUX1;2004.0;AUX2;1500.0;AUX3;1500.0;AUX4;1500.0
GPS;ALT;0;LAT;0;LON;0;SPD;0
ALTITUDE;0.0
DEBUG;DEBUG10.0;DEBUG2;0.0;DEBUG3;0.0;DEBUG4;0.0
ATTITUDE;ANGX;0.0;ANGY;0.0;HEAD;8.0
STATUS;CYCLETIME;2724;I2CERR;0;PRESENT;31;MODE;514
RAW_IMU;AX;-2.0;AY;0.0;AZ;256.0;GX;0.0;GY;0.0;GZ;0.0;MAGX;1.0;MAGY;62.0;MAGZ;6.0
MOT;0;1000.0;1;1000.0;2;1000.0;3;1000.0;4;0.0;5;0.0;6;0.0;7;0.0;
RC;ROLL;1559.0;PITCH;1496.0;YAW;1554.0;THROTTLE;1068.0;AUX1;2004.0;AUX2;1500.0;AUX3;1500.0;AUX4;1500.0
GPS;ALT;0;LAT;0;LON;0;SPD;0
ALTITUDE;0.0
DEBUG;DEBUG10.0;DEBUG2;0.0;DEBUG3;0.0;DEBUG4;0.0
ATTITUDE;ANGX;0.0;ANGY;0.0;HEAD;8.0
STATUS;CYCLETIME;2772;I2CERR;0;PRESENT;31;MODE;514
RAW_IMU;AX;-2.0;AY;0.0;AZ;257.0;GX;0.0;GY;0.0;GZ;0.0;MAGX;1.0;MAGY;62.0;MAGZ;6.0
MOT;0;1000.0;1;1000.0;2;1000.0;3;1000.0;4;0.0;5;0.0;6;0.0;7;0.0;
RC;ROLL;1559.0;PITCH;1498.0;YAW;1554.0;THROTTLE;1068.0;AUX1;2004.0;AUX2;1500.0;AUX3;1500.0;AUX4;1500.0
GPS;ALT;0;LAT;0;LON;0;SPD;0
ALTITUDE;20.0
DEBUG;DEBUG10.0;DEBUG2;0.0;DEBUG3;0.0;DEBUG4;0.0
ATTITUDE;ANGX;0.0;ANGY;0.0;HEAD;8.0
STATUS;CYCLETIME;2732;I2CERR;0;PRESENT;31;MODE;514
RAW_IMU;AX;-2.0;AY;1.0;AZ;257.0;GX;0.0;GY;0.0;GZ;0.0;MAGX;2.0;MAGY;63.0;MAGZ;5.0
MOT;0;1000.0;1;1000.0;2;1000.0;3;1000.0;4;0.0;5;0.0;6;0.0;7;0.0;
RC;ROLL;1559.0;PITCH;1498.0;YAW;1554.0;THROTTLE;1068.0;AUX1;2002.0;AUX2;1500.0;AUX3;1500.0;AUX4;1500.0
GPS;ALT;0;LAT;0;LON;0;SPD;0
ALTITUDE;20.0
DEBUG;DEBUG10.0;DEBUG2;0.0;DEBUG3;0.0;DEBUG4;0.0
ATTITUDE;ANGX;0.0;ANGY;0.0;HEAD;8.0
STATUS;CYCLETIME;2712;I2CERR;0;PRESENT;31;MODE;514
RAW_IMU;AX;-3.0;AY;1.0;AZ;256.0;GX;0.0;GY;0.0;GZ;0.0;MAGX;2.0;MAGY;63.0;MAGZ;5.0
MOT;0;1000.0;1;1000.0;2;1000.0;3;1000.0;4;0.0;5;0.0;6;0.0;7;0.0;
RC;ROLL;1559.0;PITCH;1495.0;YAW;1554.0;THROTTLE;1068.0;AUX1;2002.0;AUX2;1500.0;AUX3;1500.0;AUX4;1500.0
GPS;ALT;0;LAT;0;LON;0;SPD;0
ALTITUDE;20.0
DEBUG;DEBUG10.0;DEBUG2;0.0;DEBUG3;0.0;DEBUG4;0.0
ATTITUDE;ANGX;0.0;ANGY;0.0;HEAD;8.0
STATUS;CYCLETIME;2664;I2CERR;0;PRESENT;31;MODE;514
RAW_IMU;AX;-3.0;AY;1.0;AZ;256.0;GX;0.0;GY;0.0;GZ;0.0;MAGX;3.0;MAGY;63.0;MAGZ;6.0
MOT;0;1000.0;1;1000.0;2;1000.0;3;1000.0;4;0.0;5;0.0;6;0.0;7;0.0;
RC;ROLL;1559.0;PITCH;1495.0;YAW;1554.0;THROTTLE;1068.0;AUX1;2002.0;AUX2;1500.0;AUX3;1500.0;AUX4;1500.0
GPS;ALT;0;LAT;0;LON;0;SPD;0
ALTITUDE;20.0
DEBUG;DEBUG10.0;DEBUG2;0.0;DEBUG3;0.0;DEBUG4;0.0
ATTITUDE;ANGX;0.0;ANGY;0.0;HEAD;8.0
ATTITUDE;ANGX;0.0;ANGY;0.0;HEAD;8.0
STATUS;CYCLETIME;2724;I2CERR;0;PRESENT;31;MODE;514
RAW_IMU;AX;-3.0;AY;0.0;AZ;256.0;GX;0.0;GY;0.0;GZ;0.0;MAGX;2.0;MAGY;63.0;MAGZ;5.0
MOT;0;1000.0;1;1000.0;2;1000.0;3;1000.0;4;0.0;5;0.0;6;0.0;7;0.0;
RC;ROLL;1559.0;PITCH;1497.0;YAW;1554.0;THROTTLE;1068.0;AUX1;2002.0;AUX2;1500.0;AUX3;1500.0;AUX4;1500.0
GPS;ALT;0;LAT;182;LON;147;SPD;0
ALTITUDE;20.0
DEBUG;DEBUG1160.0;DEBUG2;1.0;DEBUG3;-160.0;DEBUG4;-1.0
ATTITUDE;ANGX;0.0;ANGY;0.0;HEAD;8.0
STATUS;CYCLETIME;2700;I2CERR;0;PRESENT;31;MODE;514
RAW_IMU;AX;-3.0;AY;1.0;AZ;256.0;GX;0.0;GY;0.0;GZ;0.0;MAGX;2.0;MAGY;63.0;MAGZ;5.0
MOT;0;1000.0;1;1000.0;2;1000.0;3;1000.0;4;0.0;5;0.0;6;0.0;7;0.0;
RC;ROLL;1559.0;PITCH;1497.0;YAW;1554.0;THROTTLE;1064.0;AUX1;2002.0;AUX2;1500.0;AUX3;1500.0;AUX4;1500.0
GPS;ALT;0;LAT;182;LON;147;SPD;0
ALTITUDE;20.0
DEBUG;DEBUG1160.0;DEBUG2;1.0;DEBUG3;-160.0;DEBUG4;-1.0
ATTITUDE;ANGX;0.0;ANGY;0.0;HEAD;8.0
STATUS;CYCLETIME;2860;I2CERR;0;PRESENT;31;MODE;514
RAW_IMU;AX;-2.0;AY;0.0;AZ;256.0;GX;0.0;GY;0.0;GZ;0.0;MAGX;2.0;MAGY;63.0;MAGZ;4.0
MOT;0;1000.0;1;1000.0;2;1000.0;3;1000.0;4;0.0;5;0.0;6;0.0;7;0.0;
RC;ROLL;1559.0;PITCH;1497.0;YAW;1554.0;THROTTLE;1064.0;AUX1;2002.0;AUX2;1500.0;AUX3;1500.0;AUX4;1500.0
GPS;ALT;0;LAT;182;LON;147;SPD;0
ALTITUDE;20.0
DEBUG;DEBUG1160.0;DEBUG2;1.0;DEBUG3;-160.0;DEBUG4;-1.0
ATTITUDE;ANGX;0.0;ANGY;0.0;HEAD;8.0
STATUS;CYCLETIME;2720;I2CERR;0;PRESENT;31;MODE;514
RAW_IMU;AX;-2.0;AY;0.0;AZ;256.0;GX;0.0;GY;0.0;GZ;0.0;MAGX;2.0;MAGY;63.0;MAGZ;4.0
MOT;0;1000.0;1;1000.0;2;1000.0;3;1000.0;4;0.0;5;0.0;6;0.0;7;0.0;
RC;ROLL;1559.0;PITCH;1497.0;YAW;1554.0;THROTTLE;1066.0;AUX1;2002.0;AUX2;1500.0;AUX3;1500.0;AUX4;1500.0
GPS;ALT;0;LAT;182;LON;147;SPD;0
ALTITUDE;20.0
DEBUG;DEBUG1160.0;DEBUG2;1.0;DEBUG3;-160.0;DEBUG4;-1.0
ATTITUDE;ANGX;0.0;ANGY;0.0;HEAD;8.0
STATUS;CYCLETIME;2776;I2CERR;0;PRESENT;31;MODE;514
RAW_IMU;AX;-2.0;AY;0.0;AZ;257.0;GX;0.0;GY;0.0;GZ;0.0;MAGX;2.0;MAGY;61.0;MAGZ;5.0
MOT;0;1000.0;1;1000.0;2;1000.0;3;1000.0;4;0.0;5;0.0;6;0.0;7;0.0;
RC;ROLL;1559.0;PITCH;1497.0;YAW;1554.0;THROTTLE;1066.0;AUX1;2002.0;AUX2;1500.0;AUX3;1500.0;AUX4;1500.0
GPS;ALT;0;LAT;182;LON;147;SPD;0
ALTITUDE;20.0
DEBUG;DEBUG1160.0;DEBUG2;1.0;DEBUG3;-160.0;DEBUG4;-1.0
ATTITUDE;ANGX;0.0;ANGY;0.0;HEAD;8.0
STATUS;CYCLETIME;2772;I2CERR;0;PRESENT;31;MODE;514
RAW_IMU;AX;-2.0;AY;0.0;AZ;256.0;GX;0.0;GY;0.0;GZ;0.0;MAGX;2.0;MAGY;61.0;MAGZ;5.0
MOT;0;1000.0;1;1000.0;2;1000.0;3;1000.0;4;0.0;5;0.0;6;0.0;7;0.0;
RC;ROLL;1559.0;PITCH;1497.0;YAW;1554.0;THROTTLE;1066.0;AUX1;2002.0;AUX2;1500.0;AUX3;1500.0;AUX4;1500.0
GPS;ALT;0;LAT;182;LON;147;SPD;0
ALTITUDE;20.0
DEBUG;DEBUG1160.0;DEBUG2;1.0;DEBUG3;-160.0;DEBUG4;-1.0
ATTITUDE;ANGX;0.0;ANGY;0.0;HEAD;8.0
STATUS;CYCLETIME;2996;I2CERR;0;PRESENT;31;MODE;514
RAW_IMU;AX;-2.0;AY;0.0;AZ;257.0;GX;0.0;GY;0.0;GZ;0.0;MAGX;2.0;MAGY;62.0;MAGZ;5.0
MOT;0;1000.0;1;1000.0;2;1000.0;3;1000.0;4;0.0;5;0.0;6;0.0;7;0.0;
RC;ROLL;1559.0;PITCH;1497.0;YAW;1554.0;THROTTLE;1066.0;AUX1;2002.0;AUX2;1500.0;AUX3;1500.0;AUX4;1500.0
GPS;ALT;0;LAT;182;LON;147;SPD;0
ALTITUDE;20.0
DEBUG;DEBUG1160.0;DEBUG2;0.0;DEBUG3;-160.0;DEBUG4;0.0
ATTITUDE;ANGX;0.0;ANGY;0.0;HEAD;8.0
STATUS;CYCLETIME;2724;I2CERR;0;PRESENT;31;MODE;514
RAW_IMU;AX;-2.0;AY;0.0;AZ;257.0;GX;0.0;GY;0.0;GZ;0.0;MAGX;2.0;MAGY;62.0;MAGZ;5.0
MOT;0;1000.0;1;1000.0;2;1000.0;3;1000.0;4;0.0;5;0.0;6;0.0;7;0.0;
RC;ROLL;1559.0;PITCH;1497.0;YAW;1552.0;THROTTLE;1068.0;AUX1;2002.0;AUX2;1500.0;AUX3;1500.0;AUX4;1500.0
GPS;ALT;0;LAT;182;LON;147;SPD;0
ALTITUDE;20.0
DEBUG;DEBUG1160.0;DEBUG2;0.0;DEBUG3;-160.0;DEBUG4;0.0
ATTITUDE;ANGX;0.0;ANGY;0.0;HEAD;8.0
STATUS;CYCLETIME;2816;I2CERR;0;PRESENT;31;MODE;514
RAW_IMU;AX;-2.0;AY;1.0;AZ;257.0;GX;0.0;GY;0.0;GZ;0.0;MAGX;1.0;MAGY;62.0;MAGZ;5.0
MOT;0;1000.0;1;1000.0;2;1000.0;3;1000.0;4;0.0;5;0.0;6;0.0;7;0.0;
RC;ROLL;1559.0;PITCH;1497.0;YAW;1552.0;THROTTLE;1068.0;AUX1;2002.0;AUX2;1500.0;AUX3;1500.0;AUX4;1500.0
GPS;ALT;0;LAT;182;LON;147;SPD;0
ALTITUDE;20.0
DEBUG;DEBUG1160.0;DEBUG2;0.0;DEBUG3;-160.0;DEBUG4;0.0
ATTITUDE;ANGX;0.0;ANGY;0.0;HEAD;8.0
STATUS;CYCLETIME;2696;I2CERR;0;PRESENT;31;MODE;514
RAW_IMU;AX;-3.0;AY;1.0;AZ;257.0;GX;0.0;GY;0.0;GZ;0.0;MAGX;1.0;MAGY;62.0;MAGZ;5.0
MOT;0;1000.0;1;1000.0;2;1000.0;3;1000.0;4;0.0;5;0.0;6;0.0;7;0.0;
RC;ROLL;1561.0;PITCH;1494.0;YAW;1552.0;THROTTLE;1071.0;AUX1;2002.0;AUX2;1500.0;AUX3;1500.0;AUX4;1500.0
GPS;ALT;0;LAT;182;LON;147;SPD;0
ALTITUDE;20.0
DEBUG;DEBUG1160.0;DEBUG2;0.0;DEBUG3;-160.0;DEBUG4;0.0
ATTITUDE;ANGX;0.0;ANGY;0.0;HEAD;8.0
STATUS;CYCLETIME;3040;I2CERR;0;PRESENT;31;MODE;514
RAW_IMU;AX;-3.0;AY;1.0;AZ;256.0;GX;0.0;GY;0.0;GZ;0.0;MAGX;2.0;MAGY;62.0;MAGZ;5.0
MOT;0;1000.0;1;1000.0;2;1000.0;3;1000.0;4;0.0;5;0.0;6;0.0;7;0.0;
RC;ROLL;1563.0;PITCH;1494.0;YAW;1552.0;THROTTLE;1069.0;AUX1;2004.0;AUX2;1500.0;AUX3;1500.0;AUX4;1500.0
GPS;ALT;0;LAT;182;LON;147;SPD;0
ALTITUDE;20.0
DEBUG;DEBUG1160.0;DEBUG2;0.0;DEBUG3;-160.0;DEBUG4;0.0
ATTITUDE;ANGX;0.0;ANGY;0.0;HEAD;8.0
STATUS;CYCLETIME;2760;I2CERR;0;PRESENT;31;MODE;514
RAW_IMU;AX;-3.0;AY;1.0;AZ;256.0;GX;0.0;GY;0.0;GZ;0.0;MAGX;2.0;MAGY;62.0;MAGZ;5.0
MOT;0;1000.0;1;1000.0;2;1000.0;3;1000.0;4;0.0;5;0.0;6;0.0;7;0.0;
RC;ROLL;1561.0;PITCH;1496.0;YAW;1554.0;THROTTLE;1065.0;AUX1;2004.0;AUX2;1500.0;AUX3;1500.0;AUX4;1500.0
GPS;ALT;0;LAT;182;LON;147;SPD;0
ALTITUDE;20.0
DEBUG;DEBUG1160.0;DEBUG2;0.0;DEBUG3;-160.0;DEBUG4;0.0
ATTITUDE;ANGX;0.0;ANGY;0.0;HEAD;8.0
STATUS;CYCLETIME;2788;I2CERR;0;PRESENT;31;MODE;514
RAW_IMU;AX;-3.0;AY;0.0;AZ;256.0;GX;0.0;GY;0.0;GZ;0.0;MAGX;3.0;MAGY;63.0;MAGZ;5.0
MOT;0;1000.0;1;1000.0;2;1000.0;3;1000.0;4;0.0;5;0.0;6;0.0;7;0.0;
RC;ROLL;1557.0;PITCH;1498.0;YAW;1554.0;THROTTLE;1065.0;AUX1;2004.0;AUX2;1500.0;AUX3;1500.0;AUX4;1500.0
GPS;ALT;0;LAT;182;LON;147;SPD;0
ALTITUDE;20.0
DEBUG;DEBUG1160.0;DEBUG2;0.0;DEBUG3;-160.0;DEBUG4;0.0
ATTITUDE;ANGX;0.0;ANGY;0.0;HEAD;8.0
STATUS;CYCLETIME;3012;I2CERR;0;PRESENT;31;MODE;514
RAW_IMU;AX;-3.0;AY;0.0;AZ;256.0;GX;0.0;GY;0.0;GZ;0.0;MAGX;3.0;MAGY;63.0;MAGZ;5.0
MOT;0;1000.0;1;1000.0;2;1000.0;3;1000.0;4;0.0;5;0.0;6;0.0;7;0.0;
RC;ROLL;1557.0;PITCH;1498.0;YAW;1554.0;THROTTLE;1065.0;AUX1;2004.0;AUX2;1500.0;AUX3;1500.0;AUX4;1500.0
GPS;ALT;0;LAT;182;LON;147;SPD;0
ALTITUDE;20.0
DEBUG;DEBUG1160.0;DEBUG2;0.0;DEBUG3;-160.0;DEBUG4;0.0
ATTITUDE;ANGX;0.0;ANGY;0.0;HEAD;8.0
STATUS;CYCLETIME;2744;I2CERR;0;PRESENT;31;MODE;514
RAW_IMU;AX;-2.0;AY;0.0;AZ;256.0;GX;0.0;GY;0.0;GZ;0.0;MAGX;3.0;MAGY;62.0;MAGZ;5.0
MOT;0;1000.0;1;1000.0;2;1000.0;3;1000.0;4;0.0;5;0.0;6;0.0;7;0.0;
RC;ROLL;1560.0;PITCH;1494.0;YAW;1554.0;THROTTLE;1065.0;AUX1;2004.0;AUX2;1500.0;AUX3;1500.0;AUX4;1500.0
GPS;ALT;0;LAT;182;LON;147;SPD;0
ALTITUDE;20.0
DEBUG;DEBUG1160.0;DEBUG2;0.0;DEBUG3;-160.0;DEBUG4;0.0
ATTITUDE;ANGX;0.0;ANGY;0.0;HEAD;8.0
STATUS;CYCLETIME;2756;I2CERR;0;PRESENT;31;MODE;514
RAW_IMU;AX;-2.0;AY;1.0;AZ;256.0;GX;0.0;GY;0.0;GZ;0.0;MAGX;3.0;MAGY;62.0;MAGZ;5.0
MOT;0;1000.0;1;1000.0;2;1000.0;3;1000.0;4;0.0;5;0.0;6;0.0;7;0.0;
RC;ROLL;1564.0;PITCH;1494.0;YAW;1552.0;THROTTLE;1071.0;AUX1;2004.0;AUX2;1500.0;AUX3;1500.0;AUX4;1500.0
GPS;ALT;0;LAT;182;LON;147;SPD;0
ALTITUDE;20.0
DEBUG;DEBUG1160.0;DEBUG2;0.0;DEBUG3;-160.0;DEBUG4;0.0
ATTITUDE;ANGX;0.0;ANGY;0.0;HEAD;8.0
STATUS;CYCLETIME;2756;I2CERR;0;PRESENT;31;MODE;514
RAW_IMU;AX;-3.0;AY;0.0;AZ;256.0;GX;0.0;GY;0.0;GZ;0.0;MAGX;2.0;MAGY;62.0;MAGZ;5.0
MOT;0;1000.0;1;1000.0;2;1000.0;3;1000.0;4;0.0;5;0.0;6;0.0;7;0.0;
RC;ROLL;1564.0;PITCH;1492.0;YAW;1554.0;THROTTLE;1071.0;AUX1;2004.0;AUX2;1500.0;AUX3;1500.0;AUX4;1500.0
GPS;ALT;0;LAT;182;LON;147;SPD;0
ALTITUDE;20.0
DEBUG;DEBUG1160.0;DEBUG2;0.0;DEBUG3;-160.0;DEBUG4;0.0
ATTITUDE;ANGX;0.0;ANGY;0.0;HEAD;8.0
STATUS;CYCLETIME;2760;I2CERR;0;PRESENT;31;MODE;514
RAW_IMU;AX;-3.0;AY;0.0;AZ;256.0;GX;0.0;GY;0.0;GZ;0.0;MAGX;2.0;MAGY;62.0;MAGZ;5.0
MOT;0;1000.0;1;1000.0;2;1000.0;3;1000.0;4;0.0;5;0.0;6;0.0;7;0.0;
RC;ROLL;1564.0;PITCH;1492.0;YAW;1556.0;THROTTLE;1071.0;AUX1;2004.0;AUX2;1500.0;AUX3;1500.0;AUX4;1500.0
GPS;ALT;0;LAT;182;LON;147;SPD;0
ALTITUDE;20.0
DEBUG;DEBUG1160.0;DEBUG2;0.0;DEBUG3;-160.0;DEBUG4;0.0
ATTITUDE;ANGX;0.0;ANGY;0.0;HEAD;8.0
STATUS;CYCLETIME;2768;I2CERR;0;PRESENT;31;MODE;514
RAW_IMU;AX;-2.0;AY;0.0;AZ;256.0;GX;0.0;GY;0.0;GZ;0.0;MAGX;1.0;MAGY;62.0;MAGZ;4.0
MOT;0;1000.0;1;1000.0;2;1000.0;3;1000.0;4;0.0;5;0.0;6;0.0;7;0.0;
RC;ROLL;1564.0;PITCH;1492.0;YAW;1556.0;THROTTLE;1071.0;AUX1;2004.0;AUX2;1500.0;AUX3;1500.0;AUX4;1500.0
GPS;ALT;0;LAT;182;LON;147;SPD;0
ALTITUDE;20.0
DEBUG;DEBUG1160.0;DEBUG2;0.0;DEBUG3;-160.0;DEBUG4;0.0
ATTITUDE;ANGX;0.0;ANGY;0.0;HEAD;8.0
STATUS;CYCLETIME;2984;I2CERR;0;PRESENT;31;MODE;514
RAW_IMU;AX;-2.0;AY;0.0;AZ;256.0;GX;0.0;GY;0.0;GZ;0.0;MAGX;1.0;MAGY;62.0;MAGZ;4.0
MOT;0;1000.0;1;1000.0;2;1000.0;3;1000.0;4;0.0;5;0.0;6;0.0;7;0.0;
RC;ROLL;1558.0;PITCH;1496.0;YAW;1554.0;THROTTLE;1068.0;AUX1;2004.0;AUX2;1500.0;AUX3;1500.0;AUX4;1500.0
GPS;ALT;0;LAT;182;LON;147;SPD;0
ALTITUDE;20.0
DEBUG;DEBUG1160.0;DEBUG2;0.0;DEBUG3;-160.0;DEBUG4;0.0
ATTITUDE;ANGX;0.0;ANGY;0.0;HEAD;8.0
STATUS;CYCLETIME;2980;I2CERR;0;PRESENT;31;MODE;514
RAW_IMU;AX;-2.0;AY;0.0;AZ;257.0;GX;0.0;GY;0.0;GZ;0.0;MAGX;2.0;MAGY;63.0;MAGZ;5.0
MOT;0;1000.0;1;1000.0;2;1000.0;3;1000.0;4;0.0;5;0.0;6;0.0;7;0.0;
RC;ROLL;1558.0;PITCH;1496.0;YAW;1551.0;THROTTLE;1066.0;AUX1;2004.0;AUX2;1500.0;AUX3;1500.0;AUX4;1500.0
GPS;ALT;0;LAT;182;LON;147;SPD;0
ALTITUDE;20.0
DEBUG;DEBUG1160.0;DEBUG2;0.0;DEBUG3;-160.0;DEBUG4;0.0
ATTITUDE;ANGX;0.0;ANGY;0.0;HEAD;8.0
STATUS;CYCLETIME;2828;I2CERR;0;PRESENT;31;MODE;514
RAW_IMU;AX;-2.0;AY;0.0;AZ;257.0;GX;0.0;GY;0.0;GZ;0.0;MAGX;2.0;MAGY;63.0;MAGZ;5.0
MOT;0;1000.0;1;1000.0;2;1000.0;3;1000.0;4;0.0;5;0.0;6;0.0;7;0.0;
RC;ROLL;1562.0;PITCH;1494.0;YAW;1551.0;THROTTLE;1070.0;AUX1;2004.0;AUX2;1500.0;AUX3;1500.0;AUX4;1500.0
GPS;ALT;0;LAT;182;LON;147;SPD;0
ALTITUDE;20.0
DEBUG;DEBUG1160.0;DEBUG2;0.0;DEBUG3;-160.0;DEBUG4;0.0
ATTITUDE;ANGX;0.0;ANGY;0.0;HEAD;8.0
STATUS;CYCLETIME;2676;I2CERR;0;PRESENT;31;MODE;514
RAW_IMU;AX;-2.0;AY;0.0;AZ;257.0;GX;0.0;GY;0.0;GZ;0.0;MAGX;2.0;MAGY;62.0;MAGZ;5.0
MOT;0;1000.0;1;1000.0;2;1000.0;3;1000.0;4;0.0;5;0.0;6;0.0;7;0.0;
RC;ROLL;1562.0;PITCH;1494.0;YAW;1553.0;THROTTLE;1070.0;AUX1;2004.0;AUX2;1500.0;AUX3;1500.0;AUX4;1500.0
GPS;ALT;0;LAT;182;LON;147;SPD;0
ALTITUDE;20.0
DEBUG;DEBUG1160.0;DEBUG2;0.0;DEBUG3;-160.0;DEBUG4;0.0
ATTITUDE;ANGX;0.0;ANGY;0.0;HEAD;8.0
STATUS;CYCLETIME;2708;I2CERR;0;PRESENT;31;MODE;514
RAW_IMU;AX;-2.0;AY;0.0;AZ;257.0;GX;0.0;GY;0.0;GZ;0.0;MAGX;2.0;MAGY;62.0;MAGZ;5.0
MOT;0;1000.0;1;1000.0;2;1000.0;3;1000.0;4;0.0;5;0.0;6;0.0;7;0.0;
RC;ROLL;1562.0;PITCH;1494.0;YAW;1556.0;THROTTLE;1068.0;AUX1;2004.0;AUX2;1500.0;AUX3;1500.0;AUX4;1500.0
GPS;ALT;0;LAT;182;LON;147;SPD;0
ALTITUDE;20.0
DEBUG;DEBUG1160.0;DEBUG2;0.0;DEBUG3;-160.0;DEBUG4;0.0
ATTITUDE;ANGX;0.0;ANGY;0.0;HEAD;8.0
STATUS;CYCLETIME;2696;I2CERR;0;PRESENT;31;MODE;514
RAW_IMU;AX;-3.0;AY;0.0;AZ;257.0;GX;0.0;GY;0.0;GZ;0.0;MAGX;3.0;MAGY;62.0;MAGZ;5.0
MOT;0;1000.0;1;1000.0;2;1000.0;3;1000.0;4;0.0;5;0.0;6;0.0;7;0.0;
RC;ROLL;1562.0;PITCH;1496.0;YAW;1556.0;THROTTLE;1064.0;AUX1;2004.0;AUX2;1500.0;AUX3;1500.0;AUX4;1500.0
GPS;ALT;0;LAT;182;LON;147;SPD;0
ALTITUDE;20.0
DEBUG;DEBUG1160.0;DEBUG2;0.0;DEBUG3;-160.0;DEBUG4;0.0
ATTITUDE;ANGX;0.0;ANGY;0.0;HEAD;8.0
STATUS;CYCLETIME;2664;I2CERR;0;PRESENT;31;MODE;514
RAW_IMU;AX;-2.0;AY;0.0;AZ;256.0;GX;0.0;GY;0.0;GZ;0.0;MAGX;3.0;MAGY;62.0;MAGZ;5.0
MOT;0;1000.0;1;1000.0;2;1000.0;3;1000.0;4;0.0;5;0.0;6;0.0;7;0.0;
RC;ROLL;1560.0;PITCH;1496.0;YAW;1554.0;THROTTLE;1064.0;AUX1;2004.0;AUX2;1500.0;AUX3;1500.0;AUX4;1500.0
GPS;ALT;0;LAT;182;LON;147;SPD;0
ALTITUDE;20.0
DEBUG;DEBUG1160.0;DEBUG2;0.0;DEBUG3;-160.0;DEBUG4;0.0
ATTITUDE;ANGX;0.0;ANGY;0.0;HEAD;8.0
STATUS;CYCLETIME;2752;I2CERR;0;PRESENT;31;MODE;514
RAW_IMU;AX;-2.0;AY;0.0;AZ;257.0;GX;0.0;GY;0.0;GZ;0.0;MAGX;2.0;MAGY;63.0;MAGZ;6.0
MOT;0;1000.0;1;1000.0;2;1000.0;3;1000.0;4;0.0;5;0.0;6;0.0;7;0.0;
RC;ROLL;1557.0;PITCH;1496.0;YAW;1552.0;THROTTLE;1067.0;AUX1;2002.0;AUX2;1500.0;AUX3;1500.0;AUX4;1500.0
GPS;ALT;0;LAT;182;LON;147;SPD;0
ALTITUDE;20.0
DEBUG;DEBUG1160.0;DEBUG2;0.0;DEBUG3;-160.0;DEBUG4;0.0
ATTITUDE;ANGX;0.0;ANGY;0.0;HEAD;8.0
STATUS;CYCLETIME;2752;I2CERR;0;PRESENT;31;MODE;514
RAW_IMU;AX;-2.0;AY;0.0;AZ;257.0;GX;0.0;GY;0.0;GZ;0.0;MAGX;2.0;MAGY;63.0;MAGZ;6.0
MOT;0;1000.0;1;1000.0;2;1000.0;3;1000.0;4;0.0;5;0.0;6;0.0;7;0.0;
RC;ROLL;1557.0;PITCH;1496.0;YAW;1552.0;THROTTLE;1070.0;AUX1;2002.0;AUX2;1500.0;AUX3;1500.0;AUX4;1500.0
GPS;ALT;0;LAT;182;LON;147;SPD;0
ALTITUDE;20.0
DEBUG;DEBUG1160.0;DEBUG2;0.0;DEBUG3;-160.0;DEBUG4;0.0
ATTITUDE;ANGX;0.0;ANGY;0.0;HEAD;8.0
STATUS;CYCLETIME;2808;I2CERR;0;PRESENT;31;MODE;514
RAW_IMU;AX;-2.0;AY;0.0;AZ;256.0;GX;0.0;GY;0.0;GZ;0.0;MAGX;2.0;MAGY;62.0;MAGZ;6.0
MOT;0;1000.0;1;1000.0;2;1000.0;3;1000.0;4;0.0;5;0.0;6;0.0;7;0.0;
RC;ROLL;1559.0;PITCH;1496.0;YAW;1552.0;THROTTLE;1070.0;AUX1;2002.0;AUX2;1500.0;AUX3;1500.0;AUX4;1500.0
GPS;ALT;0;LAT;182;LON;147;SPD;0
ALTITUDE;20.0
DEBUG;DEBUG1160.0;DEBUG2;0.0;DEBUG3;-160.0;DEBUG4;0.0
ATTITUDE;ANGX;0.0;ANGY;0.0;HEAD;8.0
STATUS;CYCLETIME;2748;I2CERR;0;PRESENT;31;MODE;514
RAW_IMU;AX;-2.0;AY;0.0;AZ;257.0;GX;0.0;GY;0.0;GZ;0.0;MAGX;2.0;MAGY;62.0;MAGZ;6.0
MOT;0;1000.0;1;1000.0;2;1000.0;3;1000.0;4;0.0;5;0.0;6;0.0;7;0.0;
RC;ROLL;1559.0;PITCH;1496.0;YAW;1552.0;THROTTLE;1070.0;AUX1;2002.0;AUX2;1500.0;AUX3;1500.0;AUX4;1500.0
GPS;ALT;0;LAT;182;LON;147;SPD;0
ALTITUDE;20.0
DEBUG;DEBUG1160.0;DEBUG2;0.0;DEBUG3;-160.0;DEBUG4;0.0
ATTITUDE;ANGX;0.0;ANGY;0.0;HEAD;8.0
STATUS;CYCLETIME;2724;I2CERR;0;PRESENT;31;MODE;514
RAW_IMU;AX;-2.0;AY;0.0;AZ;257.0;GX;0.0;GY;0.0;GZ;0.0;MAGX;1.0;MAGY;62.0;MAGZ;6.0
MOT;0;1000.0;1;1000.0;2;1000.0;3;1000.0;4;0.0;5;0.0;6;0.0;7;0.0;
RC;ROLL;1559.0;PITCH;1496.0;YAW;1552.0;THROTTLE;1070.0;AUX1;2002.0;AUX2;1500.0;AUX3;1500.0;AUX4;1500.0
GPS;ALT;0;LAT;182;LON;147;SPD;0
ALTITUDE;20.0
DEBUG;DEBUG1160.0;DEBUG2;0.0;DEBUG3;-160.0;DEBUG4;0.0
ATTITUDE;ANGX;0.0;ANGY;0.0;HEAD;8.0
STATUS;CYCLETIME;2752;I2CERR;0;PRESENT;31;MODE;514
RAW_IMU;AX;-2.0;AY;0.0;AZ;257.0;GX;0.0;GY;0.0;GZ;0.0;MAGX;1.0;MAGY;62.0;MAGZ;6.0
MOT;0;1000.0;1;1000.0;2;1000.0;3;1000.0;4;0.0;5;0.0;6;0.0;7;0.0;
RC;ROLL;1559.0;PITCH;1496.0;YAW;1552.0;THROTTLE;1070.0;AUX1;2002.0;AUX2;1500.0;AUX3;1500.0;AUX4;1500.0
GPS;ALT;0;LAT;182;LON;147;SPD;0
ALTITUDE;20.0
DEBUG;DEBUG1160.0;DEBUG2;0.0;DEBUG3;-160.0;DEBUG4;0.0
ATTITUDE;ANGX;0.0;ANGY;0.0;HEAD;8.0
STATUS;CYCLETIME;3020;I2CERR;0;PRESENT;31;MODE;514
RAW_IMU;AX;-2.0;AY;0.0;AZ;257.0;GX;0.0;GY;0.0;GZ;0.0;MAGX;2.0;MAGY;63.0;MAGZ;5.0
MOT;0;1000.0;1;1000.0;2;1000.0;3;1000.0;4;0.0;5;0.0;6;0.0;7;0.0;
RC;ROLL;1559.0;PITCH;1496.0;YAW;1552.0;THROTTLE;1070.0;AUX1;2002.0;AUX2;1500.0;AUX3;1500.0;AUX4;1500.0
GPS;ALT;0;LAT;182;LON;147;SPD;0
ALTITUDE;20.0
DEBUG;DEBUG1160.0;DEBUG2;0.0;DEBUG3;-160.0;DEBUG4;0.0
ATTITUDE;ANGX;0.0;ANGY;0.0;HEAD;8.0
STATUS;CYCLETIME;3520;I2CERR;0;PRESENT;31;MODE;514
RAW_IMU;AX;-2.0;AY;0.0;AZ;257.0;GX;0.0;GY;0.0;GZ;0.0;MAGX;2.0;MAGY;63.0;MAGZ;5.0
MOT;0;1000.0;1;1000.0;2;1000.0;3;1000.0;4;0.0;5;0.0;6;0.0;7;0.0;
RC;ROLL;1559.0;PITCH;1496.0;YAW;1552.0;THROTTLE;1070.0;AUX1;2002.0;AUX2;1500.0;AUX3;1500.0;AUX4;1500.0
GPS;ALT;0;LAT;182;LON;147;SPD;0
ALTITUDE;20.0
DEBUG;DEBUG1160.0;DEBUG2;0.0;DEBUG3;-160.0;DEBUG4;0.0
ATTITUDE;ANGX;0.0;ANGY;0.0;HEAD;8.0
ATTITUDE;ANGX;0.0;ANGY;0.0;HEAD;8.0
STATUS;CYCLETIME;2760;I2CERR;0;PRESENT;31;MODE;514
RAW_IMU;AX;-2.0;AY;0.0;AZ;257.0;GX;0.0;GY;0.0;GZ;0.0;MAGX;2.0;MAGY;63.0;MAGZ;5.0
MOT;0;1000.0;1;1000.0;2;1000.0;3;1000.0;4;0.0;5;0.0;6;0.0;7;0.0;
RC;ROLL;1559.0;PITCH;1496.0;YAW;1552.0;THROTTLE;1070.0;AUX1;2002.0;AUX2;1500.0;AUX3;1500.0;AUX4;1500.0
GPS;ALT;0;LAT;182;LON;147;SPD;0
ALTITUDE;20.0
DEBUG;DEBUG1160.0;DEBUG2;0.0;DEBUG3;-160.0;DEBUG4;0.0
ATTITUDE;ANGX;0.0;ANGY;0.0;HEAD;8.0
STATUS;CYCLETIME;2684;I2CERR;0;PRESENT;31;MODE;514
RAW_IMU;AX;-2.0;AY;0.0;AZ;256.0;GX;0.0;GY;0.0;GZ;0.0;MAGX;3.0;MAGY;63.0;MAGZ;6.0
MOT;0;1000.0;1;1000.0;2;1000.0;3;1000.0;4;0.0;5;0.0;6;0.0;7;0.0;
RC;ROLL;1559.0;PITCH;1496.0;YAW;1552.0;THROTTLE;1068.0;AUX1;2002.0;AUX2;1500.0;AUX3;1500.0;AUX4;1500.0
GPS;ALT;0;LAT;182;LON;147;SPD;0
ALTITUDE;20.0
DEBUG;DEBUG1160.0;DEBUG2;0.0;DEBUG3;-160.0;DEBUG4;0.0
ATTITUDE;ANGX;0.0;ANGY;0.0;HEAD;8.0
STATUS;CYCLETIME;2780;I2CERR;0;PRESENT;31;MODE;514
RAW_IMU;AX;-3.0;AY;0.0;AZ;256.0;GX;0.0;GY;0.0;GZ;0.0;MAGX;3.0;MAGY;63.0;MAGZ;6.0
MOT;0;1000.0;1;1000.0;2;1000.0;3;1000.0;4;0.0;5;0.0;6;0.0;7;0.0;
RC;ROLL;1559.0;PITCH;1496.0;YAW;1554.0;THROTTLE;1068.0;AUX1;2002.0;AUX2;1500.0;AUX3;1500.0;AUX4;1500.0
GPS;ALT;0;LAT;182;LON;147;SPD;0
ALTITUDE;20.0
DEBUG;DEBUG1160.0;DEBUG2;0.0;DEBUG3;-160.0;DEBUG4;0.0
ATTITUDE;ANGX;0.0;ANGY;0.0;HEAD;8.0
ATTITUDE;ANGX;0.0;ANGY;0.0;HEAD;8.0
STATUS;CYCLETIME;2724;I2CERR;0;PRESENT;31;MODE;514
RAW_IMU;AX;-3.0;AY;1.0;AZ;256.0;GX;0.0;GY;0.0;GZ;0.0;MAGX;2.0;MAGY;62.0;MAGZ;6.0
MOT;0;1000.0;1;1000.0;2;1000.0;3;1000.0;4;0.0;5;0.0;6;0.0;7;0.0;
RC;ROLL;1559.0;PITCH;1496.0;YAW;1554.0;THROTTLE;1068.0;AUX1;2002.0;AUX2;1500.0;AUX3;1500.0;AUX4;1500.0
GPS;ALT;0;LAT;182;LON;147;SPD;0
ALTITUDE;20.0
DEBUG;DEBUG1160.0;DEBUG2;0.0;DEBUG3;-160.0;DEBUG4;0.0
ATTITUDE;ANGX;0.0;ANGY;0.0;HEAD;8.0
STATUS;CYCLETIME;2752;I2CERR;0;PRESENT;31;MODE;514
RAW_IMU;AX;-3.0;AY;1.0;AZ;256.0;GX;0.0;GY;0.0;GZ;0.0;MAGX;2.0;MAGY;62.0;MAGZ;5.0
MOT;0;1000.0;1;1000.0;2;1000.0;3;1000.0;4;0.0;5;0.0;6;0.0;7;0.0;
RC;ROLL;1559.0;PITCH;1496.0;YAW;1554.0;THROTTLE;1068.0;AUX1;2002.0;AUX2;1500.0;AUX3;1500.0;AUX4;1500.0
GPS;ALT;0;LAT;181;LON;147;SPD;1
ALTITUDE;20.0
DEBUG;DEBUG1160.0;DEBUG2;0.0;DEBUG3;-152.0;DEBUG4;0.0
ATTITUDE;ANGX;0.0;ANGY;0.0;HEAD;8.0
STATUS;CYCLETIME;2764;I2CERR;0;PRESENT;31;MODE;514
RAW_IMU;AX;-3.0;AY;1.0;AZ;256.0;GX;0.0;GY;0.0;GZ;0.0;MAGX;2.0;MAGY;62.0;MAGZ;5.0
MOT;0;1000.0;1;1000.0;2;1000.0;3;1000.0;4;0.0;5;0.0;6;0.0;7;0.0;
RC;ROLL;1559.0;PITCH;1496.0;YAW;1554.0;THROTTLE;1068.0;AUX1;2002.0;AUX2;1500.0;AUX3;1500.0;AUX4;1500.0
GPS;ALT;0;LAT;181;LON;147;SPD;1
ALTITUDE;20.0
DEBUG;DEBUG1160.0;DEBUG2;0.0;DEBUG3;-152.0;DEBUG4;0.0
ATTITUDE;ANGX;0.0;ANGY;0.0;HEAD;8.0
STATUS;CYCLETIME;2712;I2CERR;0;PRESENT;31;MODE;514
RAW_IMU;AX;-3.0;AY;0.0;AZ;257.0;GX;0.0;GY;0.0;GZ;0.0;MAGX;2.0;MAGY;62.0;MAGZ;5.0
MOT;0;1000.0;1;1000.0;2;1000.0;3;1000.0;4;0.0;5;0.0;6;0.0;7;0.0;
RC;ROLL;1559.0;PITCH;1496.0;YAW;1554.0;THROTTLE;1068.0;AUX1;2002.0;AUX2;1500.0;AUX3;1500.0;AUX4;1500.0
GPS;ALT;0;LAT;181;LON;147;SPD;1
ALTITUDE;20.0
DEBUG;DEBUG1160.0;DEBUG2;0.0;DEBUG3;-152.0;DEBUG4;0.0
ATTITUDE;ANGX;0.0;ANGY;0.0;HEAD;8.0
STATUS;CYCLETIME;2780;I2CERR;0;PRESENT;31;MODE;514
RAW_IMU;AX;-2.0;AY;1.0;AZ;256.0;GX;0.0;GY;0.0;GZ;0.0;MAGX;3.0;MAGY;63.0;MAGZ;6.0
MOT;0;1000.0;1;1000.0;2;1000.0;3;1000.0;4;0.0;5;0.0;6;0.0;7;0.0;
RC;ROLL;1559.0;PITCH;1494.0;YAW;1554.0;THROTTLE;1068.0;AUX1;2002.0;AUX2;1500.0;AUX3;1500.0;AUX4;1500.0
GPS;ALT;0;LAT;181;LON;147;SPD;1
ALTITUDE;20.0
DEBUG;DEBUG1160.0;DEBUG2;0.0;DEBUG3;-152.0;DEBUG4;0.0
ATTITUDE;ANGX;0.0;ANGY;0.0;HEAD;8.0
STATUS;CYCLETIME;2648;I2CERR;0;PRESENT;31;MODE;514
RAW_IMU;AX;-3.0;AY;1.0;AZ;255.0;GX;0.0;GY;0.0;GZ;0.0;MAGX;3.0;MAGY;63.0;MAGZ;6.0
MOT;0;1000.0;1;1000.0;2;1000.0;3;1000.0;4;0.0;5;0.0;6;0.0;7;0.0;
RC;ROLL;1559.0;PITCH;1494.0;YAW;1554.0;THROTTLE;1068.0;AUX1;2002.0;AUX2;1500.0;AUX3;1500.0;AUX4;1500.0
GPS;ALT;0;LAT;181;LON;147;SPD;1
ALTITUDE;20.0
DEBUG;DEBUG1160.0;DEBUG2;0.0;DEBUG3;-152.0;DEBUG4;0.0
ATTITUDE;ANGX;0.0;ANGY;0.0;HEAD;8.0
STATUS;CYCLETIME;2772;I2CERR;0;PRESENT;31;MODE;514
RAW_IMU;AX;-2.0;AY;0.0;AZ;255.0;GX;0.0;GY;0.0;GZ;0.0;MAGX;1.0;MAGY;63.0;MAGZ;5.0
MOT;0;1000.0;1;1000.0;2;1000.0;3;1000.0;4;0.0;5;0.0;6;0.0;7;0.0;
RC;ROLL;1559.0;PITCH;1494.0;YAW;1551.0;THROTTLE;1068.0;AUX1;2002.0;AUX2;1500.0;AUX3;1500.0;AUX4;1500.0
GPS;ALT;0;LAT;181;LON;147;SPD;1
ALTITUDE;20.0
DEBUG;DEBUG1160.0;DEBUG2;0.0;DEBUG3;-152.0;DEBUG4;0.0
ATTITUDE;ANGX;0.0;ANGY;0.0;HEAD;8.0
STATUS;CYCLETIME;3048;I2CERR;0;PRESENT;31;MODE;514
RAW_IMU;AX;-2.0;AY;0.0;AZ;256.0;GX;0.0;GY;0.0;GZ;0.0;MAGX;1.0;MAGY;63.0;MAGZ;5.0
MOT;0;1000.0;1;1000.0;2;1000.0;3;1000.0;4;0.0;5;0.0;6;0.0;7;0.0;
RC;ROLL;1559.0;PITCH;1494.0;YAW;1551.0;THROTTLE;1068.0;AUX1;2002.0;AUX2;1500.0;AUX3;1500.0;AUX4;1500.0
GPS;ALT;0;LAT;181;LON;147;SPD;1
ALTITUDE;20.0
DEBUG;DEBUG1160.0;DEBUG2;0.0;DEBUG3;-152.0;DEBUG4;0.0
ATTITUDE;ANGX;0.0;ANGY;0.0;HEAD;8.0
STATUS;CYCLETIME;2724;I2CERR;0;PRESENT;31;MODE;514
RAW_IMU;AX;-2.0;AY;0.0;AZ;256.0;GX;0.0;GY;0.0;GZ;0.0;MAGX;2.0;MAGY;62.0;MAGZ;5.0
MOT;0;1000.0;1;1000.0;2;1000.0;3;1000.0;4;0.0;5;0.0;6;0.0;7;0.0;
RC;ROLL;1561.0;PITCH;1494.0;YAW;1555.0;THROTTLE;1068.0;AUX1;2002.0;AUX2;1500.0;AUX3;1500.0;AUX4;1500.0
GPS;ALT;0;LAT;181;LON;147;SPD;0
ALTITUDE;20.0
DEBUG;DEBUG1160.0;DEBUG2;0.0;DEBUG3;-160.0;DEBUG4;0.0
ATTITUDE;ANGX;0.0;ANGY;0.0;HEAD;8.0
STATUS;CYCLETIME;2844;I2CERR;0;PRESENT;31;MODE;514
RAW_IMU;AX;-2.0;AY;1.0;AZ;256.0;GX;0.0;GY;0.0;GZ;0.0;MAGX;2.0;MAGY;62.0;MAGZ;5.0
MOT;0;1000.0;1;1000.0;2;1000.0;3;1000.0;4;0.0;5;0.0;6;0.0;7;0.0;
RC;ROLL;1561.0;PITCH;1494.0;YAW;1555.0;THROTTLE;1068.0;AUX1;2002.0;AUX2;1500.0;AUX3;1500.0;AUX4;1500.0
GPS;ALT;0;LAT;181;LON;147;SPD;0
ALTITUDE;20.0
DEBUG;DEBUG1160.0;DEBUG2;0.0;DEBUG3;-160.0;DEBUG4;0.0
ATTITUDE;ANGX;0.0;ANGY;0.0;HEAD;8.0
STATUS;CYCLETIME;2772;I2CERR;0;PRESENT;31;MODE;514
RAW_IMU;AX;-2.0;AY;1.0;AZ;256.0;GX;0.0;GY;0.0;GZ;0.0;MAGX;3.0;MAGY;62.0;MAGZ;5.0
MOT;0;1000.0;1;1000.0;2;1000.0;3;1000.0;4;0.0;5;0.0;6;0.0;7;0.0;
RC;ROLL;1561.0;PITCH;1494.0;YAW;1555.0;THROTTLE;1068.0;AUX1;2002.0;AUX2;1500.0;AUX3;1500.0;AUX4;1500.0
GPS;ALT;0;LAT;181;LON;147;SPD;0
ALTITUDE;20.0
DEBUG;DEBUG1160.0;DEBUG2;0.0;DEBUG3;-160.0;DEBUG4;0.0
ATTITUDE;ANGX;0.0;ANGY;0.0;HEAD;8.0
STATUS;CYCLETIME;2720;I2CERR;0;PRESENT;31;MODE;514
RAW_IMU;AX;-2.0;AY;0.0;AZ;256.0;GX;0.0;GY;0.0;GZ;0.0;MAGX;3.0;MAGY;62.0;MAGZ;5.0
MOT;0;1000.0;1;1000.0;2;1000.0;3;1000.0;4;0.0;5;0.0;6;0.0;7;0.0;
RC;ROLL;1561.0;PITCH;1494.0;YAW;1555.0;THROTTLE;1068.0;AUX1;2002.0;AUX2;1500.0;AUX3;1500.0;AUX4;1500.0
GPS;ALT;0;LAT;181;LON;147;SPD;0
ALTITUDE;20.0
DEBUG;DEBUG1160.0;DEBUG2;0.0;DEBUG3;-160.0;DEBUG4;0.0
ATTITUDE;ANGX;0.0;ANGY;0.0;HEAD;8.0
STATUS;CYCLETIME;2652;I2CERR;0;PRESENT;31;MODE;514
RAW_IMU;AX;-2.0;AY;0.0;AZ;256.0;GX;0.0;GY;0.0;GZ;0.0;MAGX;2.0;MAGY;62.0;MAGZ;5.0
MOT;0;1000.0;1;1000.0;2;1000.0;3;1000.0;4;0.0;5;0.0;6;0.0;7;0.0;
RC;ROLL;1561.0;PITCH;1497.0;YAW;1555.0;THROTTLE;1068.0;AUX1;2004.0;AUX2;1500.0;AUX3;1500.0;AUX4;1500.0
GPS;ALT;0;LAT;181;LON;147;SPD;0
ALTITUDE;20.0
DEBUG;DEBUG1160.0;DEBUG2;0.0;DEBUG3;-160.0;DEBUG4;0.0
ATTITUDE;ANGX;0.0;ANGY;0.0;HEAD;8.0
STATUS;CYCLETIME;2816;I2CERR;0;PRESENT;31;MODE;514
RAW_IMU;AX;-2.0;AY;0.0;AZ;256.0;GX;0.0;GY;0.0;GZ;0.0;MAGX;2.0;MAGY;62.0;MAGZ;5.0
MOT;0;1000.0;1;1000.0;2;1000.0;3;1000.0;4;0.0;5;0.0;6;0.0;7;0.0;
RC;ROLL;1561.0;PITCH;1497.0;YAW;1555.0;THROTTLE;1068.0;AUX1;2004.0;AUX2;1500.0;AUX3;1500.0;AUX4;1500.0
GPS;ALT;0;LAT;181;LON;147;SPD;0
ALTITUDE;20.0
DEBUG;DEBUG1160.0;DEBUG2;0.0;DEBUG3;-160.0;DEBUG4;0.0
ATTITUDE;ANGX;0.0;ANGY;0.0;HEAD;8.0
STATUS;CYCLETIME;2940;I2CERR;0;PRESENT;31;MODE;514
RAW_IMU;AX;-2.0;AY;0.0;AZ;257.0;GX;0.0;GY;0.0;GZ;0.0;MAGX;2.0;MAGY;63.0;MAGZ;5.0
MOT;0;1000.0;1;1000.0;2;1000.0;3;1000.0;4;0.0;5;0.0;6;0.0;7;0.0;
RC;ROLL;1561.0;PITCH;1497.0;YAW;1555.0;THROTTLE;1068.0;AUX1;2004.0;AUX2;1500.0;AUX3;1500.0;AUX4;1500.0
GPS;ALT;0;LAT;181;LON;147;SPD;0
ALTITUDE;20.0
DEBUG;DEBUG1160.0;DEBUG2;0.0;DEBUG3;-160.0;DEBUG4;0.0
ATTITUDE;ANGX;0.0;ANGY;0.0;HEAD;8.0
STATUS;CYCLETIME;2808;I2CERR;0;PRESENT;31;MODE;514
RAW_IMU;AX;-2.0;AY;0.0;AZ;257.0;GX;0.0;GY;0.0;GZ;0.0;MAGX;2.0;MAGY;63.0;MAGZ;5.0
MOT;0;1000.0;1;1000.0;2;1000.0;3;1000.0;4;0.0;5;0.0;6;0.0;7;0.0;
RC;ROLL;1561.0;PITCH;1497.0;YAW;1555.0;THROTTLE;1068.0;AUX1;2004.0;AUX2;1500.0;AUX3;1500.0;AUX4;1500.0
GPS;ALT;0;LAT;181;LON;148;SPD;1
ALTITUDE;20.0
DEBUG;DEBUG1168.0;DEBUG2;0.0;DEBUG3;-160.0;DEBUG4;0.0
ATTITUDE;ANGX;0.0;ANGY;0.0;HEAD;8.0
STATUS;CYCLETIME;2700;I2CERR;0;PRESENT;31;MODE;514
RAW_IMU;AX;-2.0;AY;0.0;AZ;257.0;GX;0.0;GY;0.0;GZ;0.0;MAGX;2.0;MAGY;62.0;MAGZ;5.0
MOT;0;1000.0;1;1000.0;2;1000.0;3;1000.0;4;0.0;5;0.0;6;0.0;7;0.0;
RC;ROLL;1561.0;PITCH;1497.0;YAW;1555.0;THROTTLE;1068.0;AUX1;2004.0;AUX2;1500.0;AUX3;1500.0;AUX4;1500.0
GPS;ALT;0;LAT;181;LON;148;SPD;1
ALTITUDE;20.0
DEBUG;DEBUG1168.0;DEBUG2;0.0;DEBUG3;-160.0;DEBUG4;0.0
ATTITUDE;ANGX;0.0;ANGY;0.0;HEAD;8.0
STATUS;CYCLETIME;2776;I2CERR;0;PRESENT;31;MODE;514
RAW_IMU;AX;-2.0;AY;1.0;AZ;257.0;GX;0.0;GY;0.0;GZ;0.0;MAGX;2.0;MAGY;62.0;MAGZ;5.0
MOT;0;1000.0;1;1000.0;2;1000.0;3;1000.0;4;0.0;5;0.0;6;0.0;7;0.0;
RC;ROLL;1561.0;PITCH;1497.0;YAW;1555.0;THROTTLE;1068.0;AUX1;2002.0;AUX2;1500.0;AUX3;1500.0;AUX4;1500.0
GPS;ALT;0;LAT;181;LON;148;SPD;1
ALTITUDE;20.0
DEBUG;DEBUG1168.0;DEBUG2;0.0;DEBUG3;-160.0;DEBUG4;0.0
ATTITUDE;ANGX;0.0;ANGY;0.0;HEAD;8.0
STATUS;CYCLETIME;2692;I2CERR;0;PRESENT;31;MODE;514
RAW_IMU;AX;-2.0;AY;1.0;AZ;256.0;GX;0.0;GY;0.0;GZ;0.0;MAGX;2.0;MAGY;63.0;MAGZ;6.0
MOT;0;1000.0;1;1000.0;2;1000.0;3;1000.0;4;0.0;5;0.0;6;0.0;7;0.0;
RC;ROLL;1559.0;PITCH;1497.0;YAW;1555.0;THROTTLE;1068.0;AUX1;2002.0;AUX2;1500.0;AUX3;1500.0;AUX4;1500.0
GPS;ALT;0;LAT;181;LON;148;SPD;1
ALTITUDE;20.0
DEBUG;DEBUG1168.0;DEBUG2;0.0;DEBUG3;-160.0;DEBUG4;0.0
ATTITUDE;ANGX;0.0;ANGY;0.0;HEAD;8.0
STATUS;CYCLETIME;2744;I2CERR;0;PRESENT;31;MODE;514
RAW_IMU;AX;-2.0;AY;1.0;AZ;256.0;GX;0.0;GY;0.0;GZ;0.0;MAGX;2.0;MAGY;63.0;MAGZ;6.0
MOT;0;1000.0;1;1000.0;2;1000.0;3;1000.0;4;0.0;5;0.0;6;0.0;7;0.0;
RC;ROLL;1559.0;PITCH;1497.0;YAW;1555.0;THROTTLE;1068.0;AUX1;2002.0;AUX2;1500.0;AUX3;1500.0;AUX4;1500.0
GPS;ALT;0;LAT;181;LON;148;SPD;1
ALTITUDE;20.0
DEBUG;DEBUG1168.0;DEBUG2;0.0;DEBUG3;-160.0;DEBUG4;0.0
ATTITUDE;ANGX;0.0;ANGY;0.0;HEAD;8.0
STATUS;CYCLETIME;2836;I2CERR;0;PRESENT;31;MODE;514
RAW_IMU;AX;-2.0;AY;1.0;AZ;256.0;GX;0.0;GY;0.0;GZ;0.0;MAGX;1.0;MAGY;62.0;MAGZ;5.0
MOT;0;1000.0;1;1000.0;2;1000.0;3;1000.0;4;0.0;5;0.0;6;0.0;7;0.0;
RC;ROLL;1559.0;PITCH;1497.0;YAW;1555.0;THROTTLE;1068.0;AUX1;2002.0;AUX2;1500.0;AUX3;1500.0;AUX4;1500.0
GPS;ALT;0;LAT;181;LON;148;SPD;1
ALTITUDE;20.0
DEBUG;DEBUG1168.0;DEBUG2;0.0;DEBUG3;-160.0;DEBUG4;0.0
ATTITUDE;ANGX;0.0;ANGY;0.0;HEAD;8.0
STATUS;CYCLETIME;2696;I2CERR;0;PRESENT;31;MODE;514
RAW_IMU;AX;-2.0;AY;1.0;AZ;256.0;GX;0.0;GY;0.0;GZ;0.0;MAGX;1.0;MAGY;62.0;MAGZ;5.0
MOT;0;1000.0;1;1000.0;2;1000.0;3;1000.0;4;0.0;5;0.0;6;0.0;7;0.0;
RC;ROLL;1562.0;PITCH;1497.0;YAW;1555.0;THROTTLE;1068.0;AUX1;2002.0;AUX2;1500.0;AUX3;1500.0;AUX4;1500.0
GPS;ALT;0;LAT;181;LON;148;SPD;1
ALTITUDE;20.0
DEBUG;DEBUG1168.0;DEBUG2;0.0;DEBUG3;-160.0;DEBUG4;0.0
ATTITUDE;ANGX;0.0;ANGY;0.0;HEAD;8.0
STATUS;CYCLETIME;2756;I2CERR;0;PRESENT;31;MODE;514
RAW_IMU;AX;-2.0;AY;1.0;AZ;256.0;GX;0.0;GY;0.0;GZ;0.0;MAGX;2.0;MAGY;62.0;MAGZ;6.0
MOT;0;1000.0;1;1000.0;2;1000.0;3;1000.0;4;0.0;5;0.0;6;0.0;7;0.0;
RC;ROLL;1562.0;PITCH;1497.0;YAW;1555.0;THROTTLE;1068.0;AUX1;2002.0;AUX2;1500.0;AUX3;1500.0;AUX4;1500.0
GPS;ALT;0;LAT;181;LON;148;SPD;0
ALTITUDE;20.0
DEBUG;DEBUG1160.0;DEBUG2;0.0;DEBUG3;-160.0;DEBUG4;0.0
ATTITUDE;ANGX;0.0;ANGY;0.0;HEAD;8.0
STATUS;CYCLETIME;2728;I2CERR;0;PRESENT;31;MODE;514
RAW_IMU;AX;-2.0;AY;1.0;AZ;257.0;GX;0.0;GY;0.0;GZ;0.0;MAGX;2.0;MAGY;62.0;MAGZ;6.0
MOT;0;1000.0;1;1000.0;2;1000.0;3;1000.0;4;0.0;5;0.0;6;0.0;7;0.0;
RC;ROLL;1560.0;PITCH;1497.0;YAW;1555.0;THROTTLE;1068.0;AUX1;2002.0;AUX2;1500.0;AUX3;1500.0;AUX4;1500.0
GPS;ALT;0;LAT;181;LON;148;SPD;0
ALTITUDE;20.0
DEBUG;DEBUG1160.0;DEBUG2;0.0;DEBUG3;-160.0;DEBUG4;0.0
ATTITUDE;ANGX;0.0;ANGY;0.0;HEAD;8.0
STATUS;CYCLETIME;2824;I2CERR;0;PRESENT;31;MODE;514
RAW_IMU;AX;-2.0;AY;1.0;AZ;256.0;GX;0.0;GY;0.0;GZ;0.0;MAGX;2.0;MAGY;62.0;MAGZ;5.0
MOT;0;1000.0;1;1000.0;2;1000.0;3;1000.0;4;0.0;5;0.0;6;0.0;7;0.0;
RC;ROLL;1560.0;PITCH;1497.0;YAW;1555.0;THROTTLE;1068.0;AUX1;2002.0;AUX2;1500.0;AUX3;1500.0;AUX4;1500.0
GPS;ALT;0;LAT;181;LON;148;SPD;0
ALTITUDE;20.0
DEBUG;DEBUG1160.0;DEBUG2;0.0;DEBUG3;-160.0;DEBUG4;0.0
ATTITUDE;ANGX;0.0;ANGY;0.0;HEAD;8.0
STATUS;CYCLETIME;2716;I2CERR;0;PRESENT;31;MODE;514
RAW_IMU;AX;-2.0;AY;1.0;AZ;256.0;GX;0.0;GY;0.0;GZ;0.0;MAGX;2.0;MAGY;62.0;MAGZ;5.0
MOT;0;1000.0;1;1000.0;2;1000.0;3;1000.0;4;0.0;5;0.0;6;0.0;7;0.0;
RC;ROLL;1560.0;PITCH;1497.0;YAW;1555.0;THROTTLE;1068.0;AUX1;2002.0;AUX2;1500.0;AUX3;1500.0;AUX4;1500.0
GPS;ALT;0;LAT;181;LON;148;SPD;0
ALTITUDE;20.0
DEBUG;DEBUG1160.0;DEBUG2;0.0;DEBUG3;-160.0;DEBUG4;0.0
ATTITUDE;ANGX;0.0;ANGY;0.0;HEAD;8.0
STATUS;CYCLETIME;2744;I2CERR;0;PRESENT;31;MODE;514
RAW_IMU;AX;-2.0;AY;0.0;AZ;256.0;GX;0.0;GY;0.0;GZ;0.0;MAGX;2.0;MAGY;63.0;MAGZ;5.0
MOT;0;1000.0;1;1000.0;2;1000.0;3;1000.0;4;0.0;5;0.0;6;0.0;7;0.0;
RC;ROLL;1560.0;PITCH;1497.0;YAW;1555.0;THROTTLE;1068.0;AUX1;2002.0;AUX2;1500.0;AUX3;1500.0;AUX4;1500.0
GPS;ALT;0;LAT;181;LON;148;SPD;0
ALTITUDE;20.0
DEBUG;DEBUG1160.0;DEBUG2;0.0;DEBUG3;-160.0;DEBUG4;0.0
ATTITUDE;ANGX;0.0;ANGY;0.0;HEAD;8.0
STATUS;CYCLETIME;2680;I2CERR;0;PRESENT;31;MODE;514
RAW_IMU;AX;-2.0;AY;0.0;AZ;256.0;GX;0.0;GY;0.0;GZ;0.0;MAGX;2.0;MAGY;63.0;MAGZ;5.0
MOT;0;1000.0;1;1000.0;2;1000.0;3;1000.0;4;0.0;5;0.0;6;0.0;7;0.0;
RC;ROLL;1560.0;PITCH;1497.0;YAW;1555.0;THROTTLE;1068.0;AUX1;2002.0;AUX2;1500.0;AUX3;1500.0;AUX4;1500.0
GPS;ALT;0;LAT;181;LON;148;SPD;0
ALTITUDE;20.0
DEBUG;DEBUG1160.0;DEBUG2;0.0;DEBUG3;-160.0;DEBUG4;0.0
ATTITUDE;ANGX;0.0;ANGY;0.0;HEAD;8.0
STATUS;CYCLETIME;2884;I2CERR;0;PRESENT;31;MODE;514
RAW_IMU;AX;-2.0;AY;0.0;AZ;256.0;GX;0.0;GY;0.0;GZ;0.0;MAGX;2.0;MAGY;63.0;MAGZ;5.0
MOT;0;1000.0;1;1000.0;2;1000.0;3;1000.0;4;0.0;5;0.0;6;0.0;7;0.0;
RC;ROLL;1560.0;PITCH;1497.0;YAW;1555.0;THROTTLE;1068.0;AUX1;2002.0;AUX2;1500.0;AUX3;1500.0;AUX4;1500.0
GPS;ALT;0;LAT;181;LON;148;SPD;0
ALTITUDE;20.0
DEBUG;DEBUG1160.0;DEBUG2;0.0;DEBUG3;-160.0;DEBUG4;0.0
ATTITUDE;ANGX;0.0;ANGY;0.0;HEAD;8.0
STATUS;CYCLETIME;2832;I2CERR;0;PRESENT;31;MODE;514
RAW_IMU;AX;-2.0;AY;0.0;AZ;256.0;GX;0.0;GY;0.0;GZ;0.0;MAGX;2.0;MAGY;63.0;MAGZ;5.0
MOT;0;1000.0;1;1000.0;2;1000.0;3;1000.0;4;0.0;5;0.0;6;0.0;7;0.0;
RC;ROLL;1560.0;PITCH;1497.0;YAW;1555.0;THROTTLE;1068.0;AUX1;2004.0;AUX2;1500.0;AUX3;1500.0;AUX4;1500.0
GPS;ALT;0;LAT;181;LON;148;SPD;0
ALTITUDE;20.0
DEBUG;DEBUG1160.0;DEBUG2;0.0;DEBUG3;-160.0;DEBUG4;0.0
ATTITUDE;ANGX;0.0;ANGY;0.0;HEAD;8.0
STATUS;CYCLETIME;2692;I2CERR;0;PRESENT;31;MODE;514
RAW_IMU;AX;-2.0;AY;1.0;AZ;256.0;GX;0.0;GY;0.0;GZ;0.0;MAGX;1.0;MAGY;62.0;MAGZ;6.0
MOT;0;1000.0;1;1000.0;2;1000.0;3;1000.0;4;0.0;5;0.0;6;0.0;7;0.0;
RC;ROLL;1560.0;PITCH;1497.0;YAW;1555.0;THROTTLE;1068.0;AUX1;2004.0;AUX2;1500.0;AUX3;1500.0;AUX4;1500.0
GPS;ALT;0;LAT;181;LON;148;SPD;0
ALTITUDE;20.0
DEBUG;DEBUG1160.0;DEBUG2;0.0;DEBUG3;-160.0;DEBUG4;0.0
ATTITUDE;ANGX;0.0;ANGY;0.0;HEAD;8.0
STATUS;CYCLETIME;2752;I2CERR;0;PRESENT;31;MODE;514
RAW_IMU;AX;-2.0;AY;0.0;AZ;256.0;GX;0.0;GY;0.0;GZ;0.0;MAGX;1.0;MAGY;62.0;MAGZ;6.0
MOT;0;1000.0;1;1000.0;2;1000.0;3;1000.0;4;0.0;5;0.0;6;0.0;7;0.0;
RC;ROLL;1560.0;PITCH;1497.0;YAW;1555.0;THROTTLE;1068.0;AUX1;2004.0;AUX2;1500.0;AUX3;1500.0;AUX4;1500.0
GPS;ALT;0;LAT;181;LON;148;SPD;0
ALTITUDE;20.0
DEBUG;DEBUG1160.0;DEBUG2;0.0;DEBUG3;-160.0;DEBUG4;0.0
ATTITUDE;ANGX;0.0;ANGY;0.0;HEAD;8.0
STATUS;CYCLETIME;3032;I2CERR;0;PRESENT;31;MODE;514
RAW_IMU;AX;-2.0;AY;1.0;AZ;257.0;GX;0.0;GY;0.0;GZ;0.0;MAGX;3.0;MAGY;61.0;MAGZ;6.0
MOT;0;1000.0;1;1000.0;2;1000.0;3;1000.0;4;0.0;5;0.0;6;0.0;7;0.0;
RC;ROLL;1560.0;PITCH;1497.0;YAW;1555.0;THROTTLE;1068.0;AUX1;2004.0;AUX2;1500.0;AUX3;1500.0;AUX4;1500.0
GPS;ALT;0;LAT;181;LON;148;SPD;0
ALTITUDE;20.0
DEBUG;DEBUG1160.0;DEBUG2;0.0;DEBUG3;-160.0;DEBUG4;0.0
ATTITUDE;ANGX;0.0;ANGY;0.0;HEAD;8.0
STATUS;CYCLETIME;2668;I2CERR;0;PRESENT;31;MODE;514
RAW_IMU;AX;-2.0;AY;0.0;AZ;256.0;GX;0.0;GY;0.0;GZ;0.0;MAGX;3.0;MAGY;61.0;MAGZ;6.0
MOT;0;1000.0;1;1000.0;2;1000.0;3;1000.0;4;0.0;5;0.0;6;0.0;7;0.0;
RC;ROLL;1560.0;PITCH;1497.0;YAW;1555.0;THROTTLE;1068.0;AUX1;2004.0;AUX2;1500.0;AUX3;1500.0;AUX4;1500.0
GPS;ALT;0;LAT;181;LON;148;SPD;0
ALTITUDE;20.0
DEBUG;DEBUG1160.0;DEBUG2;0.0;DEBUG3;-160.0;DEBUG4;0.0
ATTITUDE;ANGX;0.0;ANGY;0.0;HEAD;8.0
STATUS;CYCLETIME;2756;I2CERR;0;PRESENT;31;MODE;514
RAW_IMU;AX;-2.0;AY;0.0;AZ;257.0;GX;0.0;GY;0.0;GZ;0.0;MAGX;1.0;MAGY;62.0;MAGZ;6.0
MOT;0;1000.0;1;1000.0;2;1000.0;3;1000.0;4;0.0;5;0.0;6;0.0;7;0.0;
RC;ROLL;1560.0;PITCH;1497.0;YAW;1555.0;THROTTLE;1068.0;AUX1;2004.0;AUX2;1500.0;AUX3;1500.0;AUX4;1500.0
GPS;ALT;0;LAT;181;LON;148;SPD;0
ALTITUDE;20.0
DEBUG;DEBUG1160.0;DEBUG2;0.0;DEBUG3;-160.0;DEBUG4;0.0
ATTITUDE;ANGX;0.0;ANGY;0.0;HEAD;8.0
STATUS;CYCLETIME;2780;I2CERR;0;PRESENT;31;MODE;514
RAW_IMU;AX;-2.0;AY;0.0;AZ;257.0;GX;0.0;GY;0.0;GZ;0.0;MAGX;1.0;MAGY;62.0;MAGZ;6.0
MOT;0;1000.0;1;1000.0;2;1000.0;3;1000.0;4;0.0;5;0.0;6;0.0;7;0.0;
RC;ROLL;1560.0;PITCH;1497.0;YAW;1555.0;THROTTLE;1068.0;AUX1;2004.0;AUX2;1500.0;AUX3;1500.0;AUX4;1500.0
GPS;ALT;0;LAT;181;LON;148;SPD;0
ALTITUDE;20.0
DEBUG;DEBUG1160.0;DEBUG2;0.0;DEBUG3;-160.0;DEBUG4;0.0
ATTITUDE;ANGX;0.0;ANGY;0.0;HEAD;8.0
STATUS;CYCLETIME;2752;I2CERR;0;PRESENT;31;MODE;514
RAW_IMU;AX;-3.0;AY;0.0;AZ;256.0;GX;0.0;GY;0.0;GZ;0.0;MAGX;2.0;MAGY;62.0;MAGZ;6.0
MOT;0;1000.0;1;1000.0;2;1000.0;3;1000.0;4;0.0;5;0.0;6;0.0;7;0.0;
RC;ROLL;1560.0;PITCH;1497.0;YAW;1555.0;THROTTLE;1066.0;AUX1;2004.0;AUX2;1500.0;AUX3;1500.0;AUX4;1500.0
GPS;ALT;0;LAT;181;LON;148;SPD;0
ALTITUDE;20.0
DEBUG;DEBUG1160.0;DEBUG2;0.0;DEBUG3;-160.0;DEBUG4;0.0
ATTITUDE;ANGX;0.0;ANGY;0.0;HEAD;8.0
STATUS;CYCLETIME;2748;I2CERR;0;PRESENT;31;MODE;514
RAW_IMU;AX;-2.0;AY;0.0;AZ;256.0;GX;0.0;GY;0.0;GZ;0.0;MAGX;2.0;MAGY;62.0;MAGZ;6.0
MOT;0;1000.0;1;1000.0;2;1000.0;3;1000.0;4;0.0;5;0.0;6;0.0;7;0.0;
RC;ROLL;1560.0;PITCH;1497.0;YAW;1552.0;THROTTLE;1066.0;AUX1;2004.0;AUX2;1500.0;AUX3;1500.0;AUX4;1500.0
GPS;ALT;0;LAT;181;LON;148;SPD;0
ALTITUDE;20.0
DEBUG;DEBUG1160.0;DEBUG2;0.0;DEBUG3;-160.0;DEBUG4;0.0
ATTITUDE;ANGX;0.0;ANGY;0.0;HEAD;8.0
STATUS;CYCLETIME;2768;I2CERR;0;PRESENT;31;MODE;514
RAW_IMU;AX;-2.0;AY;0.0;AZ;256.0;GX;0.0;GY;0.0;GZ;0.0;MAGX;2.0;MAGY;62.0;MAGZ;5.0
MOT;0;1000.0;1;1000.0;2;1000.0;3;1000.0;4;0.0;5;0.0;6;0.0;7;0.0;
RC;ROLL;1560.0;PITCH;1497.0;YAW;1552.0;THROTTLE;1066.0;AUX1;2004.0;AUX2;1500.0;AUX3;1500.0;AUX4;1500.0
GPS;ALT;0;LAT;181;LON;148;SPD;0
ALTITUDE;20.0
DEBUG;DEBUG1160.0;DEBUG2;0.0;DEBUG3;-160.0;DEBUG4;0.0
ATTITUDE;ANGX;0.0;ANGY;0.0;HEAD;8.0
STATUS;CYCLETIME;2748;I2CERR;0;PRESENT;31;MODE;514
RAW_IMU;AX;-2.0;AY;0.0;AZ;256.0;GX;0.0;GY;0.0;GZ;0.0;MAGX;2.0;MAGY;62.0;MAGZ;5.0
MOT;0;1000.0;1;1000.0;2;1000.0;3;1000.0;4;0.0;5;0.0;6;0.0;7;0.0;
RC;ROLL;1562.0;PITCH;1497.0;YAW;1552.0;THROTTLE;1071.0;AUX1;2004.0;AUX2;1500.0;AUX3;1500.0;AUX4;1500.0
GPS;ALT;0;LAT;181;LON;148;SPD;0
ALTITUDE;20.0
DEBUG;DEBUG1160.0;DEBUG2;0.0;DEBUG3;-160.0;DEBUG4;0.0
ATTITUDE;ANGX;0.0;ANGY;0.0;HEAD;8.0
STATUS;CYCLETIME;2736;I2CERR;0;PRESENT;31;MODE;514
RAW_IMU;AX;-2.0;AY;0.0;AZ;256.0;GX;0.0;GY;0.0;GZ;0.0;MAGX;1.0;MAGY;62.0;MAGZ;6.0
MOT;0;1000.0;1;1000.0;2;1000.0;3;1000.0;4;0.0;5;0.0;6;0.0;7;0.0;
RC;ROLL;1562.0;PITCH;1495.0;YAW;1554.0;THROTTLE;1069.0;AUX1;2001.0;AUX2;1500.0;AUX3;1500.0;AUX4;1500.0
GPS;ALT;0;LAT;181;LON;148;SPD;0
ALTITUDE;20.0
DEBUG;DEBUG1160.0;DEBUG2;0.0;DEBUG3;-160.0;DEBUG4;0.0
ATTITUDE;ANGX;0.0;ANGY;0.0;HEAD;8.0
STATUS;CYCLETIME;2728;I2CERR;0;PRESENT;31;MODE;514
RAW_IMU;AX;-2.0;AY;0.0;AZ;256.0;GX;0.0;GY;0.0;GZ;0.0;MAGX;1.0;MAGY;62.0;MAGZ;6.0
MOT;0;1000.0;1;1000.0;2;1000.0;3;1000.0;4;0.0;5;0.0;6;0.0;7;0.0;
RC;ROLL;1562.0;PITCH;1495.0;YAW;1554.0;THROTTLE;1067.0;AUX1;2001.0;AUX2;1500.0;AUX3;1500.0;AUX4;1500.0
GPS;ALT;0;LAT;181;LON;148;SPD;0
ALTITUDE;20.0
DEBUG;DEBUG1160.0;DEBUG2;0.0;DEBUG3;-160.0;DEBUG4;0.0
ATTITUDE;ANGX;0.0;ANGY;0.0;HEAD;8.0
STATUS;CYCLETIME;2704;I2CERR;0;PRESENT;31;MODE;514
RAW_IMU;AX;-2.0;AY;1.0;AZ;256.0;GX;0.0;GY;0.0;GZ;0.0;MAGX;3.0;MAGY;61.0;MAGZ;6.0
MOT;0;1000.0;1;1000.0;2;1000.0;3;1000.0;4;0.0;5;0.0;6;0.0;7;0.0;
RC;ROLL;1562.0;PITCH;1495.0;YAW;1554.0;THROTTLE;1067.0;AUX1;2001.0;AUX2;1500.0;AUX3;1500.0;AUX4;1500.0
GPS;ALT;0;LAT;181;LON;147;SPD;1
ALTITUDE;20.0
DEBUG;DEBUG1152.0;DEBUG2;0.0;DEBUG3;-160.0;DEBUG4;0.0
ATTITUDE;ANGX;0.0;ANGY;0.0;HEAD;8.0
ATTITUDE;ANGX;0.0;ANGY;0.0;HEAD;8.0
STATUS;CYCLETIME;2680;I2CERR;0;PRESENT;31;MODE;514
RAW_IMU;AX;-2.0;AY;0.0;AZ;256.0;GX;0.0;GY;0.0;GZ;0.0;MAGX;3.0;MAGY;63.0;MAGZ;6.0
MOT;0;1000.0;1;1000.0;2;1000.0;3;1000.0;4;0.0;5;0.0;6;0.0;7;0.0;
RC;ROLL;1559.0;PITCH;1495.0;YAW;1554.0;THROTTLE;1067.0;AUX1;2003.0;AUX2;1500.0;AUX3;1500.0;AUX4;1500.0
GPS;ALT;0;LAT;181;LON;147;SPD;1
ALTITUDE;20.0
DEBUG;DEBUG1152.0;DEBUG2;0.0;DEBUG3;-160.0;DEBUG4;0.0
ATTITUDE;ANGX;0.0;ANGY;0.0;HEAD;8.0
STATUS;CYCLETIME;2748;I2CERR;0;PRESENT;31;MODE;514
RAW_IMU;AX;-2.0;AY;1.0;AZ;256.0;GX;0.0;GY;0.0;GZ;0.0;MAGX;3.0;MAGY;63.0;MAGZ;6.0
MOT;0;1000.0;1;1000.0;2;1000.0;3;1000.0;4;0.0;5;0.0;6;0.0;7;0.0;
RC;ROLL;1561.0;PITCH;1495.0;YAW;1550.0;THROTTLE;1069.0;AUX1;2003.0;AUX2;1500.0;AUX3;1500.0;AUX4;1500.0
GPS;ALT;0;LAT;181;LON;147;SPD;1
ALTITUDE;20.0
DEBUG;DEBUG1152.0;DEBUG2;0.0;DEBUG3;-160.0;DEBUG4;0.0
ATTITUDE;ANGX;0.0;ANGY;0.0;HEAD;8.0
STATUS;CYCLETIME;2836;I2CERR;0;PRESENT;31;MODE;514
RAW_IMU;AX;-2.0;AY;0.0;AZ;256.0;GX;0.0;GY;0.0;GZ;0.0;MAGX;1.0;MAGY;63.0;MAGZ;5.0
MOT;0;1000.0;1;1000.0;2;1000.0;3;1000.0;4;0.0;5;0.0;6;0.0;7;0.0;
RC;ROLL;1563.0;PITCH;1495.0;YAW;1550.0;THROTTLE;1069.0;AUX1;2003.0;AUX2;1500.0;AUX3;1500.0;AUX4;1500.0
GPS;ALT;0;LAT;181;LON;147;SPD;1
ALTITUDE;20.0
DEBUG;DEBUG1152.0;DEBUG2;0.0;DEBUG3;-160.0;DEBUG4;0.0
ATTITUDE;ANGX;0.0;ANGY;0.0;HEAD;8.0
STATUS;CYCLETIME;2844;I2CERR;0;PRESENT;31;MODE;514
RAW_IMU;AX;-2.0;AY;0.0;AZ;256.0;GX;0.0;GY;0.0;GZ;0.0;MAGX;1.0;MAGY;63.0;MAGZ;5.0
MOT;0;1000.0;1;1000.0;2;1000.0;3;1000.0;4;0.0;5;0.0;6;0.0;7;0.0;
RC;ROLL;1561.0;PITCH;1495.0;YAW;1552.0;THROTTLE;1067.0;AUX1;2003.0;AUX2;1500.0;AUX3;1500.0;AUX4;1500.0
GPS;ALT;0;LAT;181;LON;147;SPD;1
ALTITUDE;20.0
DEBUG;DEBUG1152.0;DEBUG2;0.0;DEBUG3;-160.0;DEBUG4;0.0
ATTITUDE;ANGX;0.0;ANGY;0.0;HEAD;8.0
STATUS;CYCLETIME;2680;I2CERR;0;PRESENT;31;MODE;514
RAW_IMU;AX;-2.0;AY;1.0;AZ;257.0;GX;0.0;GY;0.0;GZ;0.0;MAGX;2.0;MAGY;62.0;MAGZ;6.0
MOT;0;1000.0;1;1000.0;2;1000.0;3;1000.0;4;0.0;5;0.0;6;0.0;7;0.0;
RC;ROLL;1561.0;PITCH;1495.0;YAW;1552.0;THROTTLE;1067.0;AUX1;2003.0;AUX2;1500.0;AUX3;1500.0;AUX4;1500.0
GPS;ALT;0;LAT;181;LON;147;SPD;1
ALTITUDE;20.0
DEBUG;DEBUG1160.0;DEBUG2;0.0;DEBUG3;-160.0;DEBUG4;0.0
ATTITUDE;ANGX;0.0;ANGY;0.0;HEAD;8.0
STATUS;CYCLETIME;2724;I2CERR;0;PRESENT;31;MODE;514
RAW_IMU;AX;-2.0;AY;1.0;AZ;257.0;GX;0.0;GY;0.0;GZ;0.0;MAGX;2.0;MAGY;62.0;MAGZ;6.0
MOT;0;1000.0;1;1000.0;2;1000.0;3;1000.0;4;0.0;5;0.0;6;0.0;7;0.0;
RC;ROLL;1558.0;PITCH;1495.0;YAW;1554.0;THROTTLE;1067.0;AUX1;2003.0;AUX2;1500.0;AUX3;1500.0;AUX4;1500.0
GPS;ALT;0;LAT;181;LON;147;SPD;0
ALTITUDE;20.0
DEBUG;DEBUG1160.0;DEBUG2;0.0;DEBUG3;-160.0;DEBUG4;0.0
ATTITUDE;ANGX;0.0;ANGY;0.0;HEAD;8.0
STATUS;CYCLETIME;3016;I2CERR;0;PRESENT;31;MODE;514
RAW_IMU;AX;-2.0;AY;0.0;AZ;257.0;GX;0.0;GY;0.0;GZ;0.0;MAGX;2.0;MAGY;63.0;MAGZ;5.0
MOT;0;1000.0;1;1000.0;2;1000.0;3;1000.0;4;0.0;5;0.0;6;0.0;7;0.0;
RC;ROLL;1558.0;PITCH;1497.0;YAW;1554.0;THROTTLE;1069.0;AUX1;2003.0;AUX2;1500.0;AUX3;1500.0;AUX4;1500.0
GPS;ALT;0;LAT;181;LON;147;SPD;0
ALTITUDE;20.0
DEBUG;DEBUG1160.0;DEBUG2;0.0;DEBUG3;-160.0;DEBUG4;0.0
ATTITUDE;ANGX;0.0;ANGY;0.0;HEAD;8.0
STATUS;CYCLETIME;2756;I2CERR;0;PRESENT;31;MODE;514
RAW_IMU;AX;-2.0;AY;0.0;AZ;257.0;GX;0.0;GY;0.0;GZ;0.0;MAGX;2.0;MAGY;63.0;MAGZ;5.0
MOT;0;1000.0;1;1000.0;2;1000.0;3;1000.0;4;0.0;5;0.0;6;0.0;7;0.0;
RC;ROLL;1558.0;PITCH;1497.0;YAW;1554.0;THROTTLE;1069.0;AUX1;2003.0;AUX2;1500.0;AUX3;1500.0;AUX4;1500.0
GPS;ALT;0;LAT;181;LON;147;SPD;0
ALTITUDE;20.0
DEBUG;DEBUG1160.0;DEBUG2;0.0;DEBUG3;-160.0;DEBUG4;0.0
ATTITUDE;ANGX;0.0;ANGY;0.0;HEAD;8.0
STATUS;CYCLETIME;2660;I2CERR;0;PRESENT;31;MODE;514
RAW_IMU;AX;-3.0;AY;0.0;AZ;256.0;GX;0.0;GY;0.0;GZ;0.0;MAGX;2.0;MAGY;63.0;MAGZ;5.0
MOT;0;1000.0;1;1000.0;2;1000.0;3;1000.0;4;0.0;5;0.0;6;0.0;7;0.0;
RC;ROLL;1558.0;PITCH;1497.0;YAW;1554.0;THROTTLE;1071.0;AUX1;2003.0;AUX2;1500.0;AUX3;1500.0;AUX4;1500.0
GPS;ALT;0;LAT;181;LON;147;SPD;0
ALTITUDE;20.0
DEBUG;DEBUG1160.0;DEBUG2;0.0;DEBUG3;-160.0;DEBUG4;0.0
ATTITUDE;ANGX;0.0;ANGY;0.0;HEAD;8.0
STATUS;CYCLETIME;2976;I2CERR;0;PRESENT;31;MODE;514
RAW_IMU;AX;-3.0;AY;0.0;AZ;256.0;GX;0.0;GY;0.0;GZ;0.0;MAGX;2.0;MAGY;63.0;MAGZ;5.0
MOT;0;1000.0;1;1000.0;2;1000.0;3;1000.0;4;0.0;5;0.0;6;0.0;7;0.0;
RC;ROLL;1558.0;PITCH;1497.0;YAW;1554.0;THROTTLE;1069.0;AUX1;2003.0;AUX2;1500.0;AUX3;1500.0;AUX4;1500.0
GPS;ALT;0;LAT;181;LON;147;SPD;0
ALTITUDE;20.0
DEBUG;DEBUG1160.0;DEBUG2;0.0;DEBUG3;-160.0;DEBUG4;0.0
ATTITUDE;ANGX;0.0;ANGY;0.0;HEAD;8.0
STATUS;CYCLETIME;2976;I2CERR;0;PRESENT;31;MODE;514
RAW_IMU;AX;-3.0;AY;0.0;AZ;256.0;GX;0.0;GY;0.0;GZ;0.0;MAGX;2.0;MAGY;61.0;MAGZ;5.0
MOT;0;1000.0;1;1000.0;2;1000.0;3;1000.0;4;0.0;5;0.0;6;0.0;7;0.0;
