IDENT;V;220;TYPE;3
MSP_MOTOR_PINS
STATUS;CYCLETIME;2928;I2CERR;0;PRESENT;23;MODE;2
RAW_IMU;AX;37.0;AY;-20.0;AZ;-254.0;GX;1.0;GY;0.0;GZ;0.0;MAGX;-1.0;MAGY;314.0;MAGZ;1.0
MOT;0;1000.0;1;1000.0;2;1000.0;3;1000.0;4;0.0;5;0.0;6;0.0;7;0.0;
RC;ROLL;1494.0;PITCH;1530.0;YAW;1502.0;THROTTLE;1067.0;AUX1;1690.0;AUX2;1500.0;AUX3;1500.0;AUX4;1500.0
ALTITUDE;231.0
DEBUG;DEBUG1231.0;DEBUG2;0.0;DEBUG3;0.0;DEBUG4;0.0
ATTITUDE;ANGX;172.0;ANGY;-4.0;HEAD;10.0
STATUS;CYCLETIME;3016;I2CERR;0;PRESENT;23;MODE;2
RAW_IMU;AX;37.0;AY;-21.0;AZ;-253.0;GX;1.0;GY;0.0;GZ;0.0;MAGX;-1.0;MAGY;314.0;MAGZ;2.0
MOT;0;1000.0;1;1000.0;2;1000.0;3;1000.0;4;0.0;5;0.0;6;0.0;7;0.0;
RC;ROLL;1494.0;PITCH;1530.0;YAW;1502.0;THROTTLE;1067.0;AUX1;1690.0;AUX2;1500.0;AUX3;1500.0;AUX4;1500.0
ALTITUDE;231.0
DEBUG;DEBUG1231.0;DEBUG2;0.0;DEBUG3;0.0;DEBUG4;0.0
ATTITUDE;ANGX;172.0;ANGY;-4.0;HEAD;10.0
STATUS;CYCLETIME;3024;I2CERR;0;PRESENT;23;MODE;2
RAW_IMU;AX;36.0;AY;-24.0;AZ;-256.0;GX;0.0;GY;0.0;GZ;0.0;MAGX;-1.0;MAGY;314.0;MAGZ;2.0
MOT;0;1000.0;1;1000.0;2;1000.0;3;1000.0;4;0.0;5;0.0;6;0.0;7;0.0;
RC;ROLL;1494.0;PITCH;1530.0;YAW;1502.0;THROTTLE;1067.0;AUX1;1690.0;AUX2;1500.0;AUX3;1500.0;AUX4;1500.0
ALTITUDE;231.0
DEBUG;DEBUG1231.0;DEBUG2;0.0;DEBUG3;0.0;DEBUG4;0.0
ATTITUDE;ANGX;172.0;ANGY;-4.0;HEAD;10.0
STATUS;CYCLETIME;2924;I2CERR;0;PRESENT;23;MODE;2
RAW_IMU;AX;37.0;AY;-23.0;AZ;-258.0;GX;0.0;GY;0.0;GZ;0.0;MAGX;-1.0;MAGY;314.0;MAGZ;2.0
MOT;0;1000.0;1;1000.0;2;1000.0;3;1000.0;4;0.0;5;0.0;6;0.0;7;0.0;
RC;ROLL;1494.0;PITCH;1530.0;YAW;1502.0;THROTTLE;1067.0;AUX1;1690.0;AUX2;1500.0;AUX3;1500.0;AUX4;1500.0
ALTITUDE;231.0
DEBUG;DEBUG1231.0;DEBUG2;0.0;DEBUG3;0.0;DEBUG4;0.0
ATTITUDE;ANGX;172.0;ANGY;-4.0;HEAD;10.0
STATUS;CYCLETIME;2920;I2CERR;0;PRESENT;23;MODE;2
RAW_IMU;AX;37.0;AY;-22.0;AZ;-255.0;GX;0.0;GY;0.0;GZ;0.0;MAGX;-1.0;MAGY;315.0;MAGZ;2.0
MOT;0;1000.0;1;1000.0;2;1000.0;3;1000.0;4;0.0;5;0.0;6;0.0;7;0.0;
RC;ROLL;1494.0;PITCH;1530.0;YAW;1502.0;THROTTLE;1067.0;AUX1;1690.0;AUX2;1500.0;AUX3;1500.0;AUX4;1500.0
ALTITUDE;231.0
DEBUG;DEBUG1231.0;DEBUG2;0.0;DEBUG3;0.0;DEBUG4;0.0
ATTITUDE;ANGX;172.0;ANGY;-4.0;HEAD;10.0
STATUS;CYCLETIME;3020;I2CERR;0;PRESENT;23;MODE;2
RAW_IMU;AX;38.0;AY;-23.0;AZ;-255.0;GX;0.0;GY;0.0;GZ;0.0;MAGX;-1.0;MAGY;315.0;MAGZ;2.0
MOT;0;1000.0;1;1000.0;2;1000.0;3;1000.0;4;0.0;5;0.0;6;0.0;7;0.0;
RC;ROLL;1494.0;PITCH;1530.0;YAW;1502.0;THROTTLE;1067.0;AUX1;1690.0;AUX2;1500.0;AUX3;1500.0;AUX4;1500.0
ALTITUDE;231.0
DEBUG;DEBUG1231.0;DEBUG2;0.0;DEBUG3;0.0;DEBUG4;0.0
ATTITUDE;ANGX;172.0;ANGY;-4.0;HEAD;10.0
STATUS;CYCLETIME;2892;I2CERR;0;PRESENT;23;MODE;2
RAW_IMU;AX;37.0;AY;-24.0;AZ;-254.0;GX;0.0;GY;0.0;GZ;0.0;MAGX;-2.0;MAGY;314.0;MAGZ;2.0
MOT;0;1000.0;1;1000.0;2;1000.0;3;1000.0;4;0.0;5;0.0;6;0.0;7;0.0;
RC;ROLL;1494.0;PITCH;1530.0;YAW;1502.0;THROTTLE;1067.0;AUX1;1690.0;AUX2;1500.0;AUX3;1500.0;AUX4;1500.0
ALTITUDE;231.0
DEBUG;DEBUG1231.0;DEBUG2;0.0;DEBUG3;0.0;DEBUG4;0.0
ATTITUDE;ANGX;172.0;ANGY;-4.0;HEAD;9.0
STATUS;CYCLETIME;2892;I2CERR;0;PRESENT;23;MODE;2
RAW_IMU;AX;37.0;AY;-25.0;AZ;-256.0;GX;0.0;GY;0.0;GZ;0.0;MAGX;-2.0;MAGY;314.0;MAGZ;2.0
MOT;0;1000.0;1;1000.0;2;1000.0;3;1000.0;4;0.0;5;0.0;6;0.0;7;0.0;
RC;ROLL;1494.0;PITCH;1530.0;YAW;1502.0;THROTTLE;1067.0;AUX1;1690.0;AUX2;1500.0;AUX3;1500.0;AUX4;1500.0
ALTITUDE;231.0
DEBUG;DEBUG1231.0;DEBUG2;0.0;DEBUG3;0.0;DEBUG4;0.0
ATTITUDE;ANGX;172.0;ANGY;-4.0;HEAD;10.0
STATUS;CYCLETIME;2912;I2CERR;0;PRESENT;23;MODE;2
RAW_IMU;AX;35.0;AY;-24.0;AZ;-255.0;GX;0.0;GY;0.0;GZ;0.0;MAGX;-1.0;MAGY;314.0;MAGZ;2.0
MOT;0;1000.0;1;1000.0;2;1000.0;3;1000.0;4;0.0;5;0.0;6;0.0;7;0.0;
RC;ROLL;1494.0;PITCH;1530.0;YAW;1502.0;THROTTLE;1067.0;AUX1;1690.0;AUX2;1500.0;AUX3;1500.0;AUX4;1500.0
ALTITUDE;231.0
DEBUG;DEBUG1231.0;DEBUG2;0.0;DEBUG3;0.0;DEBUG4;0.0
ATTITUDE;ANGX;172.0;ANGY;-4.0;HEAD;10.0
STATUS;CYCLETIME;2912;I2CERR;0;PRESENT;23;MODE;2
RAW_IMU;AX;35.0;AY;-24.0;AZ;-255.0;GX;0.0;GY;0.0;GZ;0.0;MAGX;-1.0;MAGY;314.0;MAGZ;2.0
MOT;0;1000.0;1;1000.0;2;1000.0;3;1000.0;4;0.0;5;0.0;6;0.0;7;0.0;
RC;ROLL;1494.0;PITCH;1530.0;YAW;1502.0;THROTTLE;1067.0;AUX1;1690.0;AUX2;1500.0;AUX3;1500.0;AUX4;1500.0
ALTITUDE;231.0
DEBUG;DEBUG1231.0;DEBUG2;0.0;DEBUG3;0.0;DEBUG4;0.0
ATTITUDE;ANGX;172.0;ANGY;-4.0;HEAD;10.0
STATUS;CYCLETIME;2888;I2CERR;0;PRESENT;23;MODE;2
RAW_IMU;AX;37.0;AY;-22.0;AZ;-257.0;GX;0.0;GY;0.0;GZ;0.0;MAGX;-1.0;MAGY;315.0;MAGZ;2.0
MOT;0;1000.0;1;1000.0;2;1000.0;3;1000.0;4;0.0;5;0.0;6;0.0;7;0.0;
RC;ROLL;1494.0;PITCH;1530.0;YAW;1502.0;THROTTLE;1067.0;AUX1;1690.0;AUX2;1500.0;AUX3;1500.0;AUX4;1500.0
ALTITUDE;231.0
DEBUG;DEBUG1231.0;DEBUG2;0.0;DEBUG3;0.0;DEBUG4;0.0
ATTITUDE;ANGX;172.0;ANGY;-4.0;HEAD;9.0
STATUS;CYCLETIME;3000;I2CERR;0;PRESENT;23;MODE;2
RAW_IMU;AX;37.0;AY;-23.0;AZ;-258.0;GX;0.0;GY;0.0;GZ;0.0;MAGX;-1.0;MAGY;315.0;MAGZ;2.0
MOT;0;1000.0;1;1000.0;2;1000.0;3;1000.0;4;0.0;5;0.0;6;0.0;7;0.0;
RC;ROLL;1494.0;PITCH;1530.0;YAW;1502.0;THROTTLE;1067.0;AUX1;1690.0;AUX2;1500.0;AUX3;1500.0;AUX4;1500.0
ALTITUDE;231.0
DEBUG;DEBUG1231.0;DEBUG2;0.0;DEBUG3;0.0;DEBUG4;0.0
ATTITUDE;ANGX;172.0;ANGY;-4.0;HEAD;10.0
STATUS;CYCLETIME;2924;I2CERR;0;PRESENT;23;MODE;2
RAW_IMU;AX;36.0;AY;-23.0;AZ;-255.0;GX;0.0;GY;0.0;GZ;0.0;MAGX;-1.0;MAGY;314.0;MAGZ;2.0
MOT;0;1000.0;1;1000.0;2;1000.0;3;1000.0;4;0.0;5;0.0;6;0.0;7;0.0;
RC;ROLL;1494.0;PITCH;1530.0;YAW;1502.0;THROTTLE;1067.0;AUX1;1690.0;AUX2;1500.0;AUX3;1500.0;AUX4;1500.0
ALTITUDE;231.0
DEBUG;DEBUG1231.0;DEBUG2;0.0;DEBUG3;0.0;DEBUG4;0.0
ATTITUDE;ANGX;172.0;ANGY;-4.0;HEAD;9.0
STATUS;CYCLETIME;2892;I2CERR;0;PRESENT;23;MODE;2
RAW_IMU;AX;35.0;AY;-23.0;AZ;-254.0;GX;0.0;GY;0.0;GZ;0.0;MAGX;-1.0;MAGY;314.0;MAGZ;2.0
MOT;0;1000.0;1;1000.0;2;1000.0;3;1000.0;4;0.0;5;0.0;6;0.0;7;0.0;
RC;ROLL;1494.0;PITCH;1530.0;YAW;1502.0;THROTTLE;1067.0;AUX1;1690.0;AUX2;1500.0;AUX3;1500.0;AUX4;1500.0
ALTITUDE;231.0
DEBUG;DEBUG1231.0;DEBUG2;0.0;DEBUG3;0.0;DEBUG4;0.0
ATTITUDE;ANGX;172.0;ANGY;-4.0;HEAD;9.0
STATUS;CYCLETIME;2892;I2CERR;0;PRESENT;23;MODE;2
RAW_IMU;AX;37.0;AY;-24.0;AZ;-257.0;GX;0.0;GY;0.0;GZ;0.0;MAGX;-2.0;MAGY;315.0;MAGZ;2.0
MOT;0;1000.0;1;1000.0;2;1000.0;3;1000.0;4;0.0;5;0.0;6;0.0;7;0.0;
RC;ROLL;1494.0;PITCH;1530.0;YAW;1502.0;THROTTLE;1067.0;AUX1;1690.0;AUX2;1500.0;AUX3;1500.0;AUX4;1500.0
ALTITUDE;231.0
DEBUG;DEBUG1231.0;DEBUG2;0.0;DEBUG3;0.0;DEBUG4;0.0
ATTITUDE;ANGX;172.0;ANGY;-4.0;HEAD;9.0
STATUS;CYCLETIME;2884;I2CERR;0;PRESENT;23;MODE;2
RAW_IMU;AX;37.0;AY;-23.0;AZ;-256.0;GX;0.0;GY;0.0;GZ;0.0;MAGX;-2.0;MAGY;315.0;MAGZ;2.0
MOT;0;1000.0;1;1000.0;2;1000.0;3;1000.0;4;0.0;5;0.0;6;0.0;7;0.0;
RC;ROLL;1494.0;PITCH;1530.0;YAW;1502.0;THROTTLE;1067.0;AUX1;1690.0;AUX2;1500.0;AUX3;1500.0;AUX4;1500.0
ALTITUDE;231.0
DEBUG;DEBUG1231.0;DEBUG2;0.0;DEBUG3;0.0;DEBUG4;0.0
ATTITUDE;ANGX;172.0;ANGY;-4.0;HEAD;9.0
STATUS;CYCLETIME;3012;I2CERR;0;PRESENT;23;MODE;2
RAW_IMU;AX;39.0;AY;-22.0;AZ;-257.0;GX;0.0;GY;0.0;GZ;0.0;MAGX;-2.0;MAGY;314.0;MAGZ;2.0
MOT;0;1000.0;1;1000.0;2;1000.0;3;1000.0;4;0.0;5;0.0;6;0.0;7;0.0;
RC;ROLL;1494.0;PITCH;1530.0;YAW;1502.0;THROTTLE;1067.0;AUX1;1690.0;AUX2;1500.0;AUX3;1500.0;AUX4;1500.0
ALTITUDE;231.0
DEBUG;DEBUG1231.0;DEBUG2;0.0;DEBUG3;0.0;DEBUG4;0.0
ATTITUDE;ANGX;172.0;ANGY;-4.0;HEAD;9.0
STATUS;CYCLETIME;2920;I2CERR;0;PRESENT;23;MODE;2
RAW_IMU;AX;39.0;AY;-22.0;AZ;-255.0;GX;0.0;GY;0.0;GZ;0.0;MAGX;-2.0;MAGY;314.0;MAGZ;2.0
MOT;0;1000.0;1;1000.0;2;1000.0;3;1000.0;4;0.0;5;0.0;6;0.0;7;0.0;
RC;ROLL;1494.0;PITCH;1530.0;YAW;1502.0;THROTTLE;1067.0;AUX1;1690.0;AUX2;1500.0;AUX3;1500.0;AUX4;1500.0
ALTITUDE;231.0
DEBUG;DEBUG1231.0;DEBUG2;0.0;DEBUG3;0.0;DEBUG4;0.0
ATTITUDE;ANGX;172.0;ANGY;-4.0;HEAD;9.0
STATUS;CYCLETIME;2884;I2CERR;0;PRESENT;23;MODE;2
RAW_IMU;AX;37.0;AY;-22.0;AZ;-254.0;GX;0.0;GY;0.0;GZ;0.0;MAGX;-2.0;MAGY;314.0;MAGZ;3.0
MOT;0;1000.0;1;1000.0;2;1000.0;3;1000.0;4;0.0;5;0.0;6;0.0;7;0.0;
RC;ROLL;1494.0;PITCH;1530.0;YAW;1502.0;THROTTLE;1067.0;AUX1;1690.0;AUX2;1500.0;AUX3;1500.0;AUX4;1500.0
ALTITUDE;231.0
DEBUG;DEBUG1231.0;DEBUG2;0.0;DEBUG3;0.0;DEBUG4;0.0
ATTITUDE;ANGX;172.0;ANGY;-4.0;HEAD;9.0
STATUS;CYCLETIME;3008;I2CERR;0;PRESENT;23;MODE;2
RAW_IMU;AX;37.0;AY;-21.0;AZ;-254.0;GX;0.0;GY;0.0;GZ;0.0;MAGX;-2.0;MAGY;314.0;MAGZ;3.0
MOT;0;1000.0;1;1000.0;2;1000.0;3;1000.0;4;0.0;5;0.0;6;0.0;7;0.0;
RC;ROLL;1494.0;PITCH;1530.0;YAW;1502.0;THROTTLE;1067.0;AUX1;1690.0;AUX2;1500.0;AUX3;1500.0;AUX4;1500.0
ALTITUDE;231.0
DEBUG;DEBUG1231.0;DEBUG2;0.0;DEBUG3;0.0;DEBUG4;0.0
ATTITUDE;ANGX;172.0;ANGY;-4.0;HEAD;9.0
STATUS;CYCLETIME;3024;I2CERR;0;PRESENT;23;MODE;2
RAW_IMU;AX;37.0;AY;-24.0;AZ;-257.0;GX;0.0;GY;0.0;GZ;0.0;MAGX;-1.0;MAGY;315.0;MAGZ;2.0
MOT;0;1000.0;1;1000.0;2;1000.0;3;1000.0;4;0.0;5;0.0;6;0.0;7;0.0;
RC;ROLL;1494.0;PITCH;1530.0;YAW;1502.0;THROTTLE;1067.0;AUX1;1690.0;AUX2;1500.0;AUX3;1500.0;AUX4;1500.0
ALTITUDE;231.0
DEBUG;DEBUG1231.0;DEBUG2;0.0;DEBUG3;0.0;DEBUG4;0.0
ATTITUDE;ANGX;172.0;ANGY;-4.0;HEAD;9.0
STATUS;CYCLETIME;2928;I2CERR;0;PRESENT;23;MODE;2
RAW_IMU;AX;37.0;AY;-24.0;AZ;-255.0;GX;0.0;GY;0.0;GZ;0.0;MAGX;-1.0;MAGY;315.0;MAGZ;2.0
MOT;0;1000.0;1;1000.0;2;1000.0;3;1000.0;4;0.0;5;0.0;6;0.0;7;0.0;
RC;ROLL;1494.0;PITCH;1530.0;YAW;1502.0;THROTTLE;1067.0;AUX1;1690.0;AUX2;1500.0;AUX3;1500.0;AUX4;1500.0
ALTITUDE;231.0
DEBUG;DEBUG1231.0;DEBUG2;0.0;DEBUG3;0.0;DEBUG4;0.0
ATTITUDE;ANGX;172.0;ANGY;-4.0;HEAD;9.0
STATUS;CYCLETIME;2864;I2CERR;0;PRESENT;23;MODE;2
RAW_IMU;AX;36.0;AY;-25.0;AZ;-256.0;GX;0.0;GY;0.0;GZ;0.0;MAGX;-1.0;MAGY;314.0;MAGZ;1.0
MOT;0;1000.0;1;1000.0;2;1000.0;3;1000.0;4;0.0;5;0.0;6;0.0;7;0.0;
RC;ROLL;1494.0;PITCH;1530.0;YAW;1502.0;THROTTLE;1067.0;AUX1;1690.0;AUX2;1500.0;AUX3;1500.0;AUX4;1500.0
ALTITUDE;231.0
DEBUG;DEBUG1231.0;DEBUG2;0.0;DEBUG3;0.0;DEBUG4;0.0
ATTITUDE;ANGX;172.0;ANGY;-4.0;HEAD;9.0
STATUS;CYCLETIME;2892;I2CERR;0;PRESENT;23;MODE;2
RAW_IMU;AX;37.0;AY;-24.0;AZ;-255.0;GX;0.0;GY;0.0;GZ;0.0;MAGX;-1.0;MAGY;314.0;MAGZ;1.0
MOT;0;1000.0;1;1000.0;2;1000.0;3;1000.0;4;0.0;5;0.0;6;0.0;7;0.0;
RC;ROLL;1494.0;PITCH;1530.0;YAW;1502.0;THROTTLE;1067.0;AUX1;1690.0;AUX2;1500.0;AUX3;1500.0;AUX4;1500.0
ALTITUDE;231.0
DEBUG;DEBUG1231.0;DEBUG2;0.0;DEBUG3;0.0;DEBUG4;0.0
ATTITUDE;ANGX;172.0;ANGY;-4.0;HEAD;9.0
STATUS;CYCLETIME;3016;I2CERR;0;PRESENT;23;MODE;2
RAW_IMU;AX;37.0;AY;-23.0;AZ;-255.0;GX;0.0;GY;0.0;GZ;0.0;MAGX;0.0;MAGY;315.0;MAGZ;1.0
MOT;0;1000.0;1;1000.0;2;1000.0;3;1000.0;4;0.0;5;0.0;6;0.0;7;0.0;
RC;ROLL;1494.0;PITCH;1530.0;YAW;1502.0;THROTTLE;1067.0;AUX1;1690.0;AUX2;1500.0;AUX3;1500.0;AUX4;1500.0
ALTITUDE;231.0
DEBUG;DEBUG1231.0;DEBUG2;0.0;DEBUG3;0.0;DEBUG4;0.0
ATTITUDE;ANGX;172.0;ANGY;-4.0;HEAD;9.0
STATUS;CYCLETIME;2912;I2CERR;0;PRESENT;23;MODE;2
RAW_IMU;AX;36.0;AY;-23.0;AZ;-256.0;GX;0.0;GY;0.0;GZ;0.0;MAGX;0.0;MAGY;315.0;MAGZ;1.0
MOT;0;1000.0;1;1000.0;2;1000.0;3;1000.0;4;0.0;5;0.0;6;0.0;7;0.0;
RC;ROLL;1494.0;PITCH;1530.0;YAW;1502.0;THROTTLE;1067.0;AUX1;1690.0;AUX2;1500.0;AUX3;1500.0;AUX4;1500.0
ALTITUDE;231.0
DEBUG;DEBUG1231.0;DEBUG2;0.0;DEBUG3;0.0;DEBUG4;0.0
ATTITUDE;ANGX;172.0;ANGY;-4.0;HEAD;9.0
STATUS;CYCLETIME;2860;I2CERR;0;PRESENT;23;MODE;2
RAW_IMU;AX;38.0;AY;-25.0;AZ;-256.0;GX;0.0;GY;0.0;GZ;0.0;MAGX;-1.0;MAGY;314.0;MAGZ;2.0
MOT;0;1000.0;1;1000.0;2;1000.0;3;1000.0;4;0.0;5;0.0;6;0.0;7;0.0;
RC;ROLL;1494.0;PITCH;1530.0;YAW;1502.0;THROTTLE;1067.0;AUX1;1690.0;AUX2;1500.0;AUX3;1500.0;AUX4;1500.0
ALTITUDE;231.0
DEBUG;DEBUG1231.0;DEBUG2;0.0;DEBUG3;0.0;DEBUG4;0.0
ATTITUDE;ANGX;172.0;ANGY;-4.0;HEAD;9.0
STATUS;CYCLETIME;3012;I2CERR;0;PRESENT;23;MODE;2
RAW_IMU;AX;37.0;AY;-24.0;AZ;-255.0;GX;0.0;GY;0.0;GZ;0.0;MAGX;-1.0;MAGY;314.0;MAGZ;2.0
MOT;0;1000.0;1;1000.0;2;1000.0;3;1000.0;4;0.0;5;0.0;6;0.0;7;0.0;
RC;ROLL;1494.0;PITCH;1530.0;YAW;1502.0;THROTTLE;1067.0;AUX1;1690.0;AUX2;1500.0;AUX3;1500.0;AUX4;1500.0
ALTITUDE;231.0
DEBUG;DEBUG1231.0;DEBUG2;0.0;DEBUG3;0.0;DEBUG4;0.0
ATTITUDE;ANGX;172.0;ANGY;-4.0;HEAD;9.0
STATUS;CYCLETIME;2896;I2CERR;0;PRESENT;23;MODE;2
RAW_IMU;AX;37.0;AY;-23.0;AZ;-255.0;GX;0.0;GY;0.0;GZ;0.0;MAGX;-2.0;MAGY;314.0;MAGZ;2.0
MOT;0;1000.0;1;1000.0;2;1000.0;3;1000.0;4;0.0;5;0.0;6;0.0;7;0.0;
RC;ROLL;1494.0;PITCH;1530.0;YAW;1502.0;THROTTLE;1067.0;AUX1;1690.0;AUX2;1500.0;AUX3;1500.0;AUX4;1500.0
ALTITUDE;231.0
DEBUG;DEBUG1231.0;DEBUG2;0.0;DEBUG3;0.0;DEBUG4;0.0
ATTITUDE;ANGX;172.0;ANGY;-4.0;HEAD;9.0
STATUS;CYCLETIME;2896;I2CERR;0;PRESENT;23;MODE;2
RAW_IMU;AX;36.0;AY;-23.0;AZ;-255.0;GX;0.0;GY;0.0;GZ;0.0;MAGX;-2.0;MAGY;314.0;MAGZ;2.0
MOT;0;1000.0;1;1000.0;2;1000.0;3;1000.0;4;0.0;5;0.0;6;0.0;7;0.0;
RC;ROLL;1494.0;PITCH;1530.0;YAW;1502.0;THROTTLE;1067.0;AUX1;1690.0;AUX2;1500.0;AUX3;1500.0;AUX4;1500.0
ALTITUDE;231.0
DEBUG;DEBUG1231.0;DEBUG2;0.0;DEBUG3;0.0;DEBUG4;0.0
ATTITUDE;ANGX;172.0;ANGY;-4.0;HEAD;9.0
STATUS;CYCLETIME;2984;I2CERR;0;PRESENT;23;MODE;2
RAW_IMU;AX;35.0;AY;-23.0;AZ;-256.0;GX;0.0;GY;0.0;GZ;0.0;MAGX;-2.0;MAGY;314.0;MAGZ;2.0
MOT;0;1000.0;1;1000.0;2;1000.0;3;1000.0;4;0.0;5;0.0;6;0.0;7;0.0;
RC;ROLL;1494.0;PITCH;1530.0;YAW;1502.0;THROTTLE;1067.0;AUX1;1690.0;AUX2;1500.0;AUX3;1500.0;AUX4;1500.0
ALTITUDE;231.0
DEBUG;DEBUG1231.0;DEBUG2;0.0;DEBUG3;0.0;DEBUG4;0.0
ATTITUDE;ANGX;172.0;ANGY;-4.0;HEAD;9.0
STATUS;CYCLETIME;2872;I2CERR;0;PRESENT;23;MODE;2
RAW_IMU;AX;37.0;AY;-24.0;AZ;-258.0;GX;0.0;GY;0.0;GZ;0.0;MAGX;-2.0;MAGY;314.0;MAGZ;2.0
MOT;0;1000.0;1;1000.0;2;1000.0;3;1000.0;4;0.0;5;0.0;6;0.0;7;0.0;
RC;ROLL;1494.0;PITCH;1530.0;YAW;1502.0;THROTTLE;1067.0;AUX1;1690.0;AUX2;1500.0;AUX3;1500.0;AUX4;1500.0
ALTITUDE;231.0
DEBUG;DEBUG1231.0;DEBUG2;0.0;DEBUG3;0.0;DEBUG4;0.0
ATTITUDE;ANGX;172.0;ANGY;-4.0;HEAD;9.0
STATUS;CYCLETIME;3188;I2CERR;0;PRESENT;23;MODE;2
RAW_IMU;AX;37.0;AY;-22.0;AZ;-255.0;GX;0.0;GY;0.0;GZ;0.0;MAGX;-1.0;MAGY;315.0;MAGZ;1.0
MOT;0;1000.0;1;1000.0;2;1000.0;3;1000.0;4;0.0;5;0.0;6;0.0;7;0.0;
RC;ROLL;1494.0;PITCH;1530.0;YAW;1502.0;THROTTLE;1067.0;AUX1;1690.0;AUX2;1500.0;AUX3;1500.0;AUX4;1500.0
ALTITUDE;231.0
DEBUG;DEBUG1231.0;DEBUG2;0.0;DEBUG3;0.0;DEBUG4;0.0
ATTITUDE;ANGX;172.0;ANGY;-4.0;HEAD;9.0
STATUS;CYCLETIME;3040;I2CERR;0;PRESENT;23;MODE;2
RAW_IMU;AX;38.0;AY;-22.0;AZ;-256.0;GX;0.0;GY;0.0;GZ;0.0;MAGX;-1.0;MAGY;315.0;MAGZ;1.0
MOT;0;1000.0;1;1000.0;2;1000.0;3;1000.0;4;0.0;5;0.0;6;0.0;7;0.0;
RC;ROLL;1494.0;PITCH;1530.0;YAW;1502.0;THROTTLE;1067.0;AUX1;1690.0;AUX2;1500.0;AUX3;1500.0;AUX4;1500.0
ALTITUDE;231.0
DEBUG;DEBUG1231.0;DEBUG2;0.0;DEBUG3;0.0;DEBUG4;0.0
ATTITUDE;ANGX;172.0;ANGY;-4.0;HEAD;9.0
STATUS;CYCLETIME;2932;I2CERR;0;PRESENT;23;MODE;2
RAW_IMU;AX;35.0;AY;-22.0;AZ;-257.0;GX;0.0;GY;0.0;GZ;0.0;MAGX;-2.0;MAGY;315.0;MAGZ;3.0
MOT;0;1000.0;1;1000.0;2;1000.0;3;1000.0;4;0.0;5;0.0;6;0.0;7;0.0;
RC;ROLL;1494.0;PITCH;1530.0;YAW;1502.0;THROTTLE;1067.0;AUX1;1690.0;AUX2;1500.0;AUX3;1500.0;AUX4;1500.0
ALTITUDE;231.0
DEBUG;DEBUG1231.0;DEBUG2;0.0;DEBUG3;0.0;DEBUG4;0.0
ATTITUDE;ANGX;172.0;ANGY;-4.0;HEAD;9.0
STATUS;CYCLETIME;2920;I2CERR;0;PRESENT;23;MODE;2
RAW_IMU;AX;36.0;AY;-23.0;AZ;-257.0;GX;0.0;GY;0.0;GZ;0.0;MAGX;-2.0;MAGY;315.0;MAGZ;3.0
MOT;0;1000.0;1;1000.0;2;1000.0;3;1000.0;4;0.0;5;0.0;6;0.0;7;0.0;
RC;ROLL;1494.0;PITCH;1530.0;YAW;1502.0;THROTTLE;1067.0;AUX1;1690.0;AUX2;1500.0;AUX3;1500.0;AUX4;1500.0
ALTITUDE;231.0
DEBUG;DEBUG1231.0;DEBUG2;0.0;DEBUG3;0.0;DEBUG4;0.0
ATTITUDE;ANGX;172.0;ANGY;-4.0;HEAD;9.0
STATUS;CYCLETIME;2920;I2CERR;0;PRESENT;23;MODE;2
RAW_IMU;AX;36.0;AY;-24.0;AZ;-260.0;GX;0.0;GY;0.0;GZ;0.0;MAGX;-2.0;MAGY;315.0;MAGZ;3.0
MOT;0;1000.0;1;1000.0;2;1000.0;3;1000.0;4;0.0;5;0.0;6;0.0;7;0.0;
RC;ROLL;1494.0;PITCH;1530.0;YAW;1502.0;THROTTLE;1067.0;AUX1;1690.0;AUX2;1500.0;AUX3;1500.0;AUX4;1500.0
ALTITUDE;231.0
DEBUG;DEBUG1231.0;DEBUG2;0.0;DEBUG3;0.0;DEBUG4;0.0
ATTITUDE;ANGX;172.0;ANGY;-4.0;HEAD;9.0
STATUS;CYCLETIME;2912;I2CERR;0;PRESENT;23;MODE;2
RAW_IMU;AX;38.0;AY;-24.0;AZ;-258.0;GX;0.0;GY;0.0;GZ;0.0;MAGX;-1.0;MAGY;314.0;MAGZ;2.0
MOT;0;1000.0;1;1000.0;2;1000.0;3;1000.0;4;0.0;5;0.0;6;0.0;7;0.0;
RC;ROLL;1494.0;PITCH;1530.0;YAW;1502.0;THROTTLE;1067.0;AUX1;1690.0;AUX2;1500.0;AUX3;1500.0;AUX4;1500.0
ALTITUDE;231.0
DEBUG;DEBUG1231.0;DEBUG2;0.0;DEBUG3;0.0;DEBUG4;0.0
ATTITUDE;ANGX;172.0;ANGY;-4.0;HEAD;10.0
STATUS;CYCLETIME;3016;I2CERR;0;PRESENT;23;MODE;2
RAW_IMU;AX;37.0;AY;-22.0;AZ;-256.0;GX;0.0;GY;0.0;GZ;0.0;MAGX;-1.0;MAGY;314.0;MAGZ;2.0
MOT;0;1000.0;1;1000.0;2;1000.0;3;1000.0;4;0.0;5;0.0;6;0.0;7;0.0;
RC;ROLL;1494.0;PITCH;1530.0;YAW;1502.0;THROTTLE;1067.0;AUX1;1690.0;AUX2;1500.0;AUX3;1500.0;AUX4;1500.0
ALTITUDE;231.0
DEBUG;DEBUG1231.0;DEBUG2;0.0;DEBUG3;0.0;DEBUG4;0.0
ATTITUDE;ANGX;172.0;ANGY;-4.0;HEAD;10.0
STATUS;CYCLETIME;2916;I2CERR;0;PRESENT;23;MODE;2
RAW_IMU;AX;38.0;AY;-23.0;AZ;-256.0;GX;0.0;GY;0.0;GZ;0.0;MAGX;-2.0;MAGY;314.0;MAGZ;2.0
MOT;0;1000.0;1;1000.0;2;1000.0;3;1000.0;4;0.0;5;0.0;6;0.0;7;0.0;
RC;ROLL;1494.0;PITCH;1530.0;YAW;1502.0;THROTTLE;1067.0;AUX1;1690.0;AUX2;1500.0;AUX3;1500.0;AUX4;1500.0
ALTITUDE;231.0
DEBUG;DEBUG1231.0;DEBUG2;0.0;DEBUG3;0.0;DEBUG4;0.0
ATTITUDE;ANGX;172.0;ANGY;-4.0;HEAD;10.0
STATUS;CYCLETIME;2856;I2CERR;0;PRESENT;23;MODE;2
RAW_IMU;AX;35.0;AY;-24.0;AZ;-255.0;GX;0.0;GY;0.0;GZ;0.0;MAGX;-2.0;MAGY;314.0;MAGZ;2.0
MOT;0;1000.0;1;1000.0;2;1000.0;3;1000.0;4;0.0;5;0.0;6;0.0;7;0.0;
RC;ROLL;1494.0;PITCH;1530.0;YAW;1502.0;THROTTLE;1067.0;AUX1;1690.0;AUX2;1500.0;AUX3;1500.0;AUX4;1500.0
ALTITUDE;231.0
DEBUG;DEBUG1231.0;DEBUG2;0.0;DEBUG3;0.0;DEBUG4;0.0
ATTITUDE;ANGX;172.0;ANGY;-4.0;HEAD;10.0
STATUS;CYCLETIME;2900;I2CERR;0;PRESENT;23;MODE;2
RAW_IMU;AX;36.0;AY;-25.0;AZ;-255.0;GX;0.0;GY;0.0;GZ;0.0;MAGX;-2.0;MAGY;314.0;MAGZ;2.0
MOT;0;1000.0;1;1000.0;2;1000.0;3;1000.0;4;0.0;5;0.0;6;0.0;7;0.0;
RC;ROLL;1494.0;PITCH;1530.0;YAW;1502.0;THROTTLE;1067.0;AUX1;1690.0;AUX2;1500.0;AUX3;1500.0;AUX4;1500.0
ALTITUDE;231.0
DEBUG;DEBUG1231.0;DEBUG2;0.0;DEBUG3;0.0;DEBUG4;0.0
ATTITUDE;ANGX;172.0;ANGY;-4.0;HEAD;10.0
STATUS;CYCLETIME;2936;I2CERR;0;PRESENT;23;MODE;2
RAW_IMU;AX;38.0;AY;-22.0;AZ;-252.0;GX;0.0;GY;0.0;GZ;0.0;MAGX;-2.0;MAGY;314.0;MAGZ;2.0
MOT;0;1000.0;1;1000.0;2;1000.0;3;1000.0;4;0.0;5;0.0;6;0.0;7;0.0;
RC;ROLL;1494.0;PITCH;1530.0;YAW;1502.0;THROTTLE;1067.0;AUX1;1690.0;AUX2;1500.0;AUX3;1500.0;AUX4;1500.0
ALTITUDE;231.0
DEBUG;DEBUG1231.0;DEBUG2;0.0;DEBUG3;0.0;DEBUG4;0.0
ATTITUDE;ANGX;172.0;ANGY;-4.0;HEAD;9.0
STATUS;CYCLETIME;2880;I2CERR;0;PRESENT;23;MODE;2
RAW_IMU;AX;39.0;AY;-22.0;AZ;-254.0;GX;0.0;GY;0.0;GZ;0.0;MAGX;-2.0;MAGY;314.0;MAGZ;2.0
MOT;0;1000.0;1;1000.0;2;1000.0;3;1000.0;4;0.0;5;0.0;6;0.0;7;0.0;
RC;ROLL;1494.0;PITCH;1530.0;YAW;1502.0;THROTTLE;1067.0;AUX1;1690.0;AUX2;1500.0;AUX3;1500.0;AUX4;1500.0
ALTITUDE;231.0
DEBUG;DEBUG1231.0;DEBUG2;0.0;DEBUG3;0.0;DEBUG4;0.0
ATTITUDE;ANGX;172.0;ANGY;-4.0;HEAD;9.0
STATUS;CYCLETIME;3032;I2CERR;0;PRESENT;23;MODE;2
RAW_IMU;AX;37.0;AY;-22.0;AZ;-256.0;GX;0.0;GY;0.0;GZ;0.0;MAGX;-2.0;MAGY;314.0;MAGZ;2.0
MOT;0;1000.0;1;1000.0;2;1000.0;3;1000.0;4;0.0;5;0.0;6;0.0;7;0.0;
RC;ROLL;1494.0;PITCH;1530.0;YAW;1502.0;THROTTLE;1067.0;AUX1;1690.0;AUX2;1500.0;AUX3;1500.0;AUX4;1500.0
ALTITUDE;231.0
DEBUG;DEBUG1231.0;DEBUG2;0.0;DEBUG3;0.0;DEBUG4;0.0
ATTITUDE;ANGX;172.0;ANGY;-5.0;HEAD;9.0
STATUS;CYCLETIME;2912;I2CERR;0;PRESENT;23;MODE;2
RAW_IMU;AX;37.0;AY;-21.0;AZ;-257.0;GX;0.0;GY;0.0;GZ;0.0;MAGX;-1.0;MAGY;314.0;MAGZ;2.0
MOT;0;1000.0;1;1000.0;2;1000.0;3;1000.0;4;0.0;5;0.0;6;0.0;7;0.0;
RC;ROLL;1494.0;PITCH;1530.0;YAW;1502.0;THROTTLE;1067.0;AUX1;1690.0;AUX2;1500.0;AUX3;1500.0;AUX4;1500.0
ALTITUDE;231.0
DEBUG;DEBUG1231.0;DEBUG2;0.0;DEBUG3;0.0;DEBUG4;0.0
ATTITUDE;ANGX;172.0;ANGY;-4.0;HEAD;9.0
STATUS;CYCLETIME;2900;I2CERR;0;PRESENT;23;MODE;2
RAW_IMU;AX;37.0;AY;-22.0;AZ;-257.0;GX;0.0;GY;0.0;GZ;0.0;MAGX;-1.0;MAGY;314.0;MAGZ;2.0
MOT;0;1000.0;1;1000.0;2;1000.0;3;1000.0;4;0.0;5;0.0;6;0.0;7;0.0;
RC;ROLL;1494.0;PITCH;1530.0;YAW;1502.0;THROTTLE;1067.0;AUX1;1690.0;AUX2;1500.0;AUX3;1500.0;AUX4;1500.0
ALTITUDE;231.0
DEBUG;DEBUG1231.0;DEBUG2;0.0;DEBUG3;0.0;DEBUG4;0.0
ATTITUDE;ANGX;172.0;ANGY;-4.0;HEAD;10.0
STATUS;CYCLETIME;2928;I2CERR;0;PRESENT;23;MODE;2
RAW_IMU;AX;36.0;AY;-21.0;AZ;-256.0;GX;0.0;GY;0.0;GZ;0.0;MAGX;-1.0;MAGY;314.0;MAGZ;2.0
MOT;0;1000.0;1;1000.0;2;1000.0;3;1000.0;4;0.0;5;0.0;6;0.0;7;0.0;
RC;ROLL;1494.0;PITCH;1530.0;YAW;1502.0;THROTTLE;1067.0;AUX1;1690.0;AUX2;1500.0;AUX3;1500.0;AUX4;1500.0
ALTITUDE;231.0
DEBUG;DEBUG1231.0;DEBUG2;0.0;DEBUG3;0.0;DEBUG4;0.0
ATTITUDE;ANGX;172.0;ANGY;-4.0;HEAD;9.0
STATUS;CYCLETIME;2920;I2CERR;0;PRESENT;23;MODE;2
RAW_IMU;AX;36.0;AY;-26.0;AZ;-255.0;GX;0.0;GY;0.0;GZ;0.0;MAGX;-1.0;MAGY;314.0;MAGZ;2.0
MOT;0;1000.0;1;1000.0;2;1000.0;3;1000.0;4;0.0;5;0.0;6;0.0;7;0.0;
RC;ROLL;1494.0;PITCH;1530.0;YAW;1502.0;THROTTLE;1067.0;AUX1;1690.0;AUX2;1500.0;AUX3;1500.0;AUX4;1500.0
ALTITUDE;231.0
DEBUG;DEBUG1231.0;DEBUG2;0.0;DEBUG3;0.0;DEBUG4;0.0
ATTITUDE;ANGX;172.0;ANGY;-4.0;HEAD;9.0
STATUS;CYCLETIME;2896;I2CERR;0;PRESENT;23;MODE;2
RAW_IMU;AX;37.0;AY;-23.0;AZ;-254.0;GX;0.0;GY;0.0;GZ;0.0;MAGX;-2.0;MAGY;314.0;MAGZ;2.0
MOT;0;1000.0;1;1000.0;2;1000.0;3;1000.0;4;0.0;5;0.0;6;0.0;7;0.0;
RC;ROLL;1494.0;PITCH;1530.0;YAW;1502.0;THROTTLE;1067.0;AUX1;1690.0;AUX2;1500.0;AUX3;1500.0;AUX4;1500.0
ALTITUDE;231.0
DEBUG;DEBUG1231.0;DEBUG2;0.0;DEBUG3;0.0;DEBUG4;0.0
ATTITUDE;ANGX;172.0;ANGY;-4.0;HEAD;9.0
STATUS;CYCLETIME;2924;I2CERR;0;PRESENT;23;MODE;2
RAW_IMU;AX;37.0;AY;-21.0;AZ;-254.0;GX;0.0;GY;0.0;GZ;0.0;MAGX;-2.0;MAGY;314.0;MAGZ;2.0
MOT;0;1000.0;1;1000.0;2;1000.0;3;1000.0;4;0.0;5;0.0;6;0.0;7;0.0;
RC;ROLL;1494.0;PITCH;1530.0;YAW;1502.0;THROTTLE;1067.0;AUX1;1690.0;AUX2;1500.0;AUX3;1500.0;AUX4;1500.0
ALTITUDE;231.0
DEBUG;DEBUG1231.0;DEBUG2;0.0;DEBUG3;0.0;DEBUG4;0.0
ATTITUDE;ANGX;172.0;ANGY;-4.0;HEAD;9.0
STATUS;CYCLETIME;2932;I2CERR;0;PRESENT;23;MODE;2
RAW_IMU;AX;37.0;AY;-23.0;AZ;-256.0;GX;0.0;GY;0.0;GZ;0.0;MAGX;0.0;MAGY;314.0;MAGZ;2.0
MOT;0;1000.0;1;1000.0;2;1000.0;3;1000.0;4;0.0;5;0.0;6;0.0;7;0.0;
RC;ROLL;1494.0;PITCH;1530.0;YAW;1502.0;THROTTLE;1067.0;AUX1;1690.0;AUX2;1500.0;AUX3;1500.0;AUX4;1500.0
ALTITUDE;231.0
DEBUG;DEBUG1231.0;DEBUG2;0.0;DEBUG3;0.0;DEBUG4;0.0
ATTITUDE;ANGX;172.0;ANGY;-4.0;HEAD;9.0
STATUS;CYCLETIME;2956;I2CERR;0;PRESENT;23;MODE;2
RAW_IMU;AX;36.0;AY;-24.0;AZ;-259.0;GX;0.0;GY;0.0;GZ;0.0;MAGX;0.0;MAGY;314.0;MAGZ;2.0
MOT;0;1000.0;1;1000.0;2;1000.0;3;1000.0;4;0.0;5;0.0;6;0.0;7;0.0;
RC;ROLL;1494.0;PITCH;1530.0;YAW;1502.0;THROTTLE;1067.0;AUX1;1690.0;AUX2;1500.0;AUX3;1500.0;AUX4;1500.0
ALTITUDE;231.0
DEBUG;DEBUG1231.0;DEBUG2;0.0;DEBUG3;0.0;DEBUG4;0.0
ATTITUDE;ANGX;172.0;ANGY;-5.0;HEAD;10.0
STATUS;CYCLETIME;2892;I2CERR;0;PRESENT;23;MODE;2
RAW_IMU;AX;37.0;AY;-23.0;AZ;-258.0;GX;0.0;GY;0.0;GZ;0.0;MAGX;0.0;MAGY;315.0;MAGZ;2.0
MOT;0;1000.0;1;1000.0;2;1000.0;3;1000.0;4;0.0;5;0.0;6;0.0;7;0.0;
RC;ROLL;1494.0;PITCH;1530.0;YAW;1502.0;THROTTLE;1067.0;AUX1;1690.0;AUX2;1500.0;AUX3;1500.0;AUX4;1500.0
ALTITUDE;231.0
DEBUG;DEBUG1231.0;DEBUG2;0.0;DEBUG3;0.0;DEBUG4;0.0
ATTITUDE;ANGX;172.0;ANGY;-4.0;HEAD;10.0
STATUS;CYCLETIME;2924;I2CERR;0;PRESENT;23;MODE;2
RAW_IMU;AX;38.0;AY;-24.0;AZ;-257.0;GX;0.0;GY;0.0;GZ;0.0;MAGX;0.0;MAGY;315.0;MAGZ;2.0
MOT;0;1000.0;1;1000.0;2;1000.0;3;1000.0;4;0.0;5;0.0;6;0.0;7;0.0;
RC;ROLL;1494.0;PITCH;1530.0;YAW;1502.0;THROTTLE;1067.0;AUX1;1690.0;AUX2;1500.0;AUX3;1500.0;AUX4;1500.0
ALTITUDE;231.0
DEBUG;DEBUG1231.0;DEBUG2;0.0;DEBUG3;0.0;DEBUG4;0.0
ATTITUDE;ANGX;172.0;ANGY;-5.0;HEAD;10.0
STATUS;CYCLETIME;3008;I2CERR;0;PRESENT;23;MODE;2
RAW_IMU;AX;37.0;AY;-24.0;AZ;-256.0;GX;0.0;GY;0.0;GZ;0.0;MAGX;-1.0;MAGY;314.0;MAGZ;2.0
MOT;0;1000.0;1;1000.0;2;1000.0;3;1000.0;4;0.0;5;0.0;6;0.0;7;0.0;
RC;ROLL;1494.0;PITCH;1530.0;YAW;1502.0;THROTTLE;1067.0;AUX1;1690.0;AUX2;1500.0;AUX3;1500.0;AUX4;1500.0
ALTITUDE;231.0
DEBUG;DEBUG1231.0;DEBUG2;0.0;DEBUG3;0.0;DEBUG4;0.0
ATTITUDE;ANGX;172.0;ANGY;-5.0;HEAD;10.0
STATUS;CYCLETIME;2888;I2CERR;0;PRESENT;23;MODE;2
RAW_IMU;AX;35.0;AY;-25.0;AZ;-255.0;GX;0.0;GY;0.0;GZ;0.0;MAGX;-1.0;MAGY;314.0;MAGZ;2.0
MOT;0;1000.0;1;1000.0;2;1000.0;3;1000.0;4;0.0;5;0.0;6;0.0;7;0.0;
RC;ROLL;1494.0;PITCH;1530.0;YAW;1502.0;THROTTLE;1067.0;AUX1;1690.0;AUX2;1500.0;AUX3;1500.0;AUX4;1500.0
ALTITUDE;231.0
DEBUG;DEBUG1231.0;DEBUG2;0.0;DEBUG3;0.0;DEBUG4;0.0
ATTITUDE;ANGX;172.0;ANGY;-5.0;HEAD;10.0
STATUS;CYCLETIME;2988;I2CERR;0;PRESENT;23;MODE;2
RAW_IMU;AX;35.0;AY;-24.0;AZ;-256.0;GX;0.0;GY;0.0;GZ;0.0;MAGX;-1.0;MAGY;314.0;MAGZ;1.0
MOT;0;1000.0;1;1000.0;2;1000.0;3;1000.0;4;0.0;5;0.0;6;0.0;7;0.0;
RC;ROLL;1494.0;PITCH;1530.0;YAW;1502.0;THROTTLE;1067.0;AUX1;1690.0;AUX2;1500.0;AUX3;1500.0;AUX4;1500.0
ALTITUDE;231.0
DEBUG;DEBUG1231.0;DEBUG2;0.0;DEBUG3;0.0;DEBUG4;0.0
ATTITUDE;ANGX;172.0;ANGY;-5.0;HEAD;10.0
STATUS;CYCLETIME;2864;I2CERR;0;PRESENT;23;MODE;2
RAW_IMU;AX;37.0;AY;-20.0;AZ;-255.0;GX;0.0;GY;0.0;GZ;0.0;MAGX;-1.0;MAGY;314.0;MAGZ;1.0
MOT;0;1000.0;1;1000.0;2;1000.0;3;1000.0;4;0.0;5;0.0;6;0.0;7;0.0;
RC;ROLL;1494.0;PITCH;1530.0;YAW;1502.0;THROTTLE;1067.0;AUX1;1690.0;AUX2;1500.0;AUX3;1500.0;AUX4;1500.0
ALTITUDE;231.0
DEBUG;DEBUG1231.0;DEBUG2;0.0;DEBUG3;0.0;DEBUG4;0.0
ATTITUDE;ANGX;172.0;ANGY;-5.0;HEAD;10.0
STATUS;CYCLETIME;2900;I2CERR;0;PRESENT;23;MODE;2
RAW_IMU;AX;36.0;AY;-24.0;AZ;-257.0;GX;0.0;GY;0.0;GZ;0.0;MAGX;-1.0;MAGY;314.0;MAGZ;3.0
MOT;0;1000.0;1;1000.0;2;1000.0;3;1000.0;4;0.0;5;0.0;6;0.0;7;0.0;
RC;ROLL;1494.0;PITCH;1530.0;YAW;1502.0;THROTTLE;1067.0;AUX1;1690.0;AUX2;1500.0;AUX3;1500.0;AUX4;1500.0
ALTITUDE;231.0
DEBUG;DEBUG1231.0;DEBUG2;0.0;DEBUG3;0.0;DEBUG4;0.0
ATTITUDE;ANGX;172.0;ANGY;-4.0;HEAD;10.0
STATUS;CYCLETIME;2924;I2CERR;0;PRESENT;23;MODE;2
RAW_IMU;AX;35.0;AY;-23.0;AZ;-258.0;GX;1.0;GY;0.0;GZ;0.0;MAGX;-1.0;MAGY;314.0;MAGZ;3.0
MOT;0;1000.0;1;1000.0;2;1000.0;3;1000.0;4;0.0;5;0.0;6;0.0;7;0.0;
RC;ROLL;1494.0;PITCH;1530.0;YAW;1502.0;THROTTLE;1067.0;AUX1;1690.0;AUX2;1500.0;AUX3;1500.0;AUX4;1500.0
ALTITUDE;231.0
DEBUG;DEBUG1231.0;DEBUG2;0.0;DEBUG3;0.0;DEBUG4;0.0
ATTITUDE;ANGX;172.0;ANGY;-4.0;HEAD;10.0
STATUS;CYCLETIME;2924;I2CERR;0;PRESENT;23;MODE;2
RAW_IMU;AX;37.0;AY;-24.0;AZ;-257.0;GX;0.0;GY;0.0;GZ;0.0;MAGX;-2.0;MAGY;315.0;MAGZ;2.0
MOT;0;1000.0;1;1000.0;2;1000.0;3;1000.0;4;0.0;5;0.0;6;0.0;7;0.0;
RC;ROLL;1494.0;PITCH;1530.0;YAW;1502.0;THROTTLE;1067.0;AUX1;1690.0;AUX2;1500.0;AUX3;1500.0;AUX4;1500.0
ALTITUDE;231.0
DEBUG;DEBUG1231.0;DEBUG2;0.0;DEBUG3;0.0;DEBUG4;0.0
ATTITUDE;ANGX;172.0;ANGY;-4.0;HEAD;10.0
STATUS;CYCLETIME;2920;I2CERR;0;PRESENT;23;MODE;2
RAW_IMU;AX;37.0;AY;-23.0;AZ;-256.0;GX;0.0;GY;0.0;GZ;0.0;MAGX;-2.0;MAGY;315.0;MAGZ;2.0
MOT;0;1000.0;1;1000.0;2;1000.0;3;1000.0;4;0.0;5;0.0;6;0.0;7;0.0;
RC;ROLL;1494.0;PITCH;1530.0;YAW;1502.0;THROTTLE;1067.0;AUX1;1690.0;AUX2;1500.0;AUX3;1500.0;AUX4;1500.0
ALTITUDE;231.0
DEBUG;DEBUG1231.0;DEBUG2;0.0;DEBUG3;0.0;DEBUG4;0.0
ATTITUDE;ANGX;172.0;ANGY;-4.0;HEAD;10.0
STATUS;CYCLETIME;2904;I2CERR;0;PRESENT;23;MODE;2
RAW_IMU;AX;36.0;AY;-23.0;AZ;-255.0;GX;0.0;GY;0.0;GZ;0.0;MAGX;-1.0;MAGY;313.0;MAGZ;2.0
MOT;0;1000.0;1;1000.0;2;1000.0;3;1000.0;4;0.0;5;0.0;6;0.0;7;0.0;
RC;ROLL;1494.0;PITCH;1530.0;YAW;1502.0;THROTTLE;1067.0;AUX1;1690.0;AUX2;1500.0;AUX3;1500.0;AUX4;1500.0
ALTITUDE;231.0
DEBUG;DEBUG1231.0;DEBUG2;0.0;DEBUG3;0.0;DEBUG4;0.0
ATTITUDE;ANGX;172.0;ANGY;-4.0;HEAD;10.0
STATUS;CYCLETIME;3036;I2CERR;0;PRESENT;23;MODE;2
RAW_IMU;AX;37.0;AY;-22.0;AZ;-254.0;GX;0.0;GY;0.0;GZ;0.0;MAGX;-1.0;MAGY;313.0;MAGZ;2.0
MOT;0;1000.0;1;1000.0;2;1000.0;3;1000.0;4;0.0;5;0.0;6;0.0;7;0.0;
RC;ROLL;1494.0;PITCH;1530.0;YAW;1502.0;THROTTLE;1067.0;AUX1;1690.0;AUX2;1500.0;AUX3;1500.0;AUX4;1500.0
ALTITUDE;231.0
DEBUG;DEBUG1231.0;DEBUG2;0.0;DEBUG3;0.0;DEBUG4;0.0
ATTITUDE;ANGX;172.0;ANGY;-4.0;HEAD;10.0
STATUS;CYCLETIME;2924;I2CERR;0;PRESENT;23;MODE;2
RAW_IMU;AX;36.0;AY;-21.0;AZ;-253.0;GX;0.0;GY;0.0;GZ;0.0;MAGX;-1.0;MAGY;314.0;MAGZ;2.0
MOT;0;1000.0;1;1000.0;2;1000.0;3;1000.0;4;0.0;5;0.0;6;0.0;7;0.0;
RC;ROLL;1494.0;PITCH;1530.0;YAW;1502.0;THROTTLE;1067.0;AUX1;1690.0;AUX2;1500.0;AUX3;1500.0;AUX4;1500.0
ALTITUDE;231.0
DEBUG;DEBUG1231.0;DEBUG2;0.0;DEBUG3;0.0;DEBUG4;0.0
ATTITUDE;ANGX;172.0;ANGY;-4.0;HEAD;10.0
STATUS;CYCLETIME;3076;I2CERR;0;PRESENT;23;MODE;2
RAW_IMU;AX;36.0;AY;-21.0;AZ;-253.0;GX;0.0;GY;0.0;GZ;0.0;MAGX;-1.0;MAGY;314.0;MAGZ;2.0
MOT;0;1000.0;1;1000.0;2;1000.0;3;1000.0;4;0.0;5;0.0;6;0.0;7;0.0;
RC;ROLL;1494.0;PITCH;1530.0;YAW;1502.0;THROTTLE;1067.0;AUX1;1690.0;AUX2;1500.0;AUX3;1500.0;AUX4;1500.0
ALTITUDE;231.0
DEBUG;DEBUG1231.0;DEBUG2;0.0;DEBUG3;0.0;DEBUG4;0.0
ATTITUDE;ANGX;172.0;ANGY;-4.0;HEAD;10.0
STATUS;CYCLETIME;2936;I2CERR;0;PRESENT;23;MODE;2
RAW_IMU;AX;39.0;AY;-21.0;AZ;-258.0;GX;0.0;GY;0.0;GZ;0.0;MAGX;-2.0;MAGY;313.0;MAGZ;1.0
MOT;0;1000.0;1;1000.0;2;1000.0;3;1000.0;4;0.0;5;0.0;6;0.0;7;0.0;
RC;ROLL;1494.0;PITCH;1530.0;YAW;1502.0;THROTTLE;1067.0;AUX1;1690.0;AUX2;1500.0;AUX3;1500.0;AUX4;1500.0
ALTITUDE;231.0
DEBUG;DEBUG1231.0;DEBUG2;0.0;DEBUG3;0.0;DEBUG4;0.0
ATTITUDE;ANGX;172.0;ANGY;-4.0;HEAD;10.0
STATUS;CYCLETIME;2924;I2CERR;0;PRESENT;23;MODE;2
RAW_IMU;AX;37.0;AY;-23.0;AZ;-257.0;GX;0.0;GY;0.0;GZ;0.0;MAGX;-2.0;MAGY;313.0;MAGZ;1.0
MOT;0;1000.0;1;1000.0;2;1000.0;3;1000.0;4;0.0;5;0.0;6;0.0;7;0.0;
RC;ROLL;1494.0;PITCH;1530.0;YAW;1502.0;THROTTLE;1067.0;AUX1;1690.0;AUX2;1500.0;AUX3;1500.0;AUX4;1500.0
ALTITUDE;231.0
DEBUG;DEBUG1231.0;DEBUG2;0.0;DEBUG3;0.0;DEBUG4;0.0
ATTITUDE;ANGX;172.0;ANGY;-4.0;HEAD;10.0
STATUS;CYCLETIME;3196;I2CERR;0;PRESENT;23;MODE;2
RAW_IMU;AX;38.0;AY;-23.0;AZ;-257.0;GX;0.0;GY;0.0;GZ;0.0;MAGX;-1.0;MAGY;314.0;MAGZ;1.0
MOT;0;1000.0;1;1000.0;2;1000.0;3;1000.0;4;0.0;5;0.0;6;0.0;7;0.0;
RC;ROLL;1494.0;PITCH;1530.0;YAW;1502.0;THROTTLE;1067.0;AUX1;1690.0;AUX2;1500.0;AUX3;1500.0;AUX4;1500.0
ALTITUDE;231.0
DEBUG;DEBUG1231.0;DEBUG2;0.0;DEBUG3;0.0;DEBUG4;0.0
ATTITUDE;ANGX;172.0;ANGY;-4.0;HEAD;10.0
STATUS;CYCLETIME;3024;I2CERR;0;PRESENT;23;MODE;2
RAW_IMU;AX;37.0;AY;-23.0;AZ;-256.0;GX;0.0;GY;0.0;GZ;0.0;MAGX;-1.0;MAGY;314.0;MAGZ;1.0
MOT;0;1000.0;1;1000.0;2;1000.0;3;1000.0;4;0.0;5;0.0;6;0.0;7;0.0;
RC;ROLL;1494.0;PITCH;1530.0;YAW;1502.0;THROTTLE;1067.0;AUX1;1690.0;AUX2;1500.0;AUX3;1500.0;AUX4;1500.0
ALTITUDE;231.0
DEBUG;DEBUG1231.0;DEBUG2;0.0;DEBUG3;0.0;DEBUG4;0.0
ATTITUDE;ANGX;172.0;ANGY;-4.0;HEAD;10.0
STATUS;CYCLETIME;2868;I2CERR;0;PRESENT;23;MODE;2
RAW_IMU;AX;35.0;AY;-23.0;AZ;-256.0;GX;0.0;GY;0.0;GZ;0.0;MAGX;-1.0;MAGY;314.0;MAGZ;1.0
MOT;0;1000.0;1;1000.0;2;1000.0;3;1000.0;4;0.0;5;0.0;6;0.0;7;0.0;
RC;ROLL;1494.0;PITCH;1530.0;YAW;1502.0;THROTTLE;1067.0;AUX1;1690.0;AUX2;1500.0;AUX3;1500.0;AUX4;1500.0
ALTITUDE;231.0
DEBUG;DEBUG1231.0;DEBUG2;0.0;DEBUG3;0.0;DEBUG4;0.0
ATTITUDE;ANGX;172.0;ANGY;-4.0;HEAD;10.0
STATUS;CYCLETIME;2980;I2CERR;0;PRESENT;23;MODE;2
RAW_IMU;AX;38.0;AY;-22.0;AZ;-257.0;GX;0.0;GY;0.0;GZ;0.0;MAGX;-1.0;MAGY;313.0;MAGZ;1.0
MOT;0;1000.0;1;1000.0;2;1000.0;3;1000.0;4;0.0;5;0.0;6;0.0;7;0.0;
RC;ROLL;1494.0;PITCH;1530.0;YAW;1502.0;THROTTLE;1067.0;AUX1;1690.0;AUX2;1500.0;AUX3;1500.0;AUX4;1500.0
ALTITUDE;231.0
DEBUG;DEBUG1231.0;DEBUG2;0.0;DEBUG3;0.0;DEBUG4;0.0
ATTITUDE;ANGX;172.0;ANGY;-4.0;HEAD;10.0
STATUS;CYCLETIME;2888;I2CERR;0;PRESENT;23;MODE;2
RAW_IMU;AX;39.0;AY;-24.0;AZ;-255.0;GX;0.0;GY;0.0;GZ;0.0;MAGX;-1.0;MAGY;313.0;MAGZ;1.0
MOT;0;1000.0;1;1000.0;2;1000.0;3;1000.0;4;0.0;5;0.0;6;0.0;7;0.0;
RC;ROLL;1494.0;PITCH;1530.0;YAW;1502.0;THROTTLE;1067.0;AUX1;1690.0;AUX2;1500.0;AUX3;1500.0;AUX4;1500.0
ALTITUDE;231.0
DEBUG;DEBUG1231.0;DEBUG2;0.0;DEBUG3;0.0;DEBUG4;0.0
ATTITUDE;ANGX;172.0;ANGY;-4.0;HEAD;10.0
STATUS;CYCLETIME;3020;I2CERR;0;PRESENT;23;MODE;2
RAW_IMU;AX;37.0;AY;-24.0;AZ;-259.0;GX;0.0;GY;0.0;GZ;0.0;MAGX;-1.0;MAGY;314.0;MAGZ;2.0
MOT;0;1000.0;1;1000.0;2;1000.0;3;1000.0;4;0.0;5;0.0;6;0.0;7;0.0;
RC;ROLL;1494.0;PITCH;1530.0;YAW;1502.0;THROTTLE;1067.0;AUX1;1690.0;AUX2;1500.0;AUX3;1500.0;AUX4;1500.0
ALTITUDE;231.0
DEBUG;DEBUG1231.0;DEBUG2;0.0;DEBUG3;0.0;DEBUG4;0.0
ATTITUDE;ANGX;172.0;ANGY;-4.0;HEAD;10.0
STATUS;CYCLETIME;3004;I2CERR;0;PRESENT;23;MODE;2
RAW_IMU;AX;37.0;AY;-21.0;AZ;-256.0;GX;0.0;GY;0.0;GZ;0.0;MAGX;-1.0;MAGY;314.0;MAGZ;2.0
MOT;0;1000.0;1;1000.0;2;1000.0;3;1000.0;4;0.0;5;0.0;6;0.0;7;0.0;
RC;ROLL;1494.0;PITCH;1530.0;YAW;1502.0;THROTTLE;1067.0;AUX1;1690.0;AUX2;1500.0;AUX3;1500.0;AUX4;1500.0
ALTITUDE;231.0
DEBUG;DEBUG1231.0;DEBUG2;0.0;DEBUG3;0.0;DEBUG4;0.0
ATTITUDE;ANGX;172.0;ANGY;-4.0;HEAD;10.0
STATUS;CYCLETIME;2916;I2CERR;0;PRESENT;23;MODE;2
RAW_IMU;AX;38.0;AY;-23.0;AZ;-255.0;GX;0.0;GY;0.0;GZ;0.0;MAGX;-1.0;MAGY;314.0;MAGZ;3.0
MOT;0;1000.0;1;1000.0;2;1000.0;3;1000.0;4;0.0;5;0.0;6;0.0;7;0.0;
RC;ROLL;1494.0;PITCH;1530.0;YAW;1502.0;THROTTLE;1067.0;AUX1;1690.0;AUX2;1500.0;AUX3;1500.0;AUX4;1500.0
ALTITUDE;231.0
DEBUG;DEBUG1231.0;DEBUG2;0.0;DEBUG3;0.0;DEBUG4;0.0
ATTITUDE;ANGX;172.0;ANGY;-4.0;HEAD;10.0
STATUS;CYCLETIME;2976;I2CERR;0;PRESENT;23;MODE;2
RAW_IMU;AX;37.0;AY;-22.0;AZ;-256.0;GX;0.0;GY;0.0;GZ;0.0;MAGX;-1.0;MAGY;314.0;MAGZ;3.0
MOT;0;1000.0;1;1000.0;2;1000.0;3;1000.0;4;0.0;5;0.0;6;0.0;7;0.0;
RC;ROLL;1494.0;PITCH;1530.0;YAW;1502.0;THROTTLE;1067.0;AUX1;1690.0;AUX2;1500.0;AUX3;1500.0;AUX4;1500.0
ALTITUDE;231.0
DEBUG;DEBUG1231.0;DEBUG2;0.0;DEBUG3;0.0;DEBUG4;0.0
ATTITUDE;ANGX;172.0;ANGY;-4.0;HEAD;10.0
STATUS;CYCLETIME;2920;I2CERR;0;PRESENT;23;MODE;2
RAW_IMU;AX;38.0;AY;-21.0;AZ;-255.0;GX;0.0;GY;0.0;GZ;0.0;MAGX;-1.0;MAGY;314.0;MAGZ;2.0
MOT;0;1000.0;1;1000.0;2;1000.0;3;1000.0;4;0.0;5;0.0;6;0.0;7;0.0;
RC;ROLL;1494.0;PITCH;1530.0;YAW;1502.0;THROTTLE;1067.0;AUX1;1690.0;AUX2;1500.0;AUX3;1500.0;AUX4;1500.0
ALTITUDE;231.0
DEBUG;DEBUG1231.0;DEBUG2;0.0;DEBUG3;0.0;DEBUG4;0.0
ATTITUDE;ANGX;172.0;ANGY;-4.0;HEAD;10.0
STATUS;CYCLETIME;2928;I2CERR;0;PRESENT;23;MODE;2
RAW_IMU;AX;37.0;AY;-24.0;AZ;-254.0;GX;0.0;GY;0.0;GZ;0.0;MAGX;-1.0;MAGY;314.0;MAGZ;2.0
MOT;0;1000.0;1;1000.0;2;1000.0;3;1000.0;4;0.0;5;0.0;6;0.0;7;0.0;
RC;ROLL;1494.0;PITCH;1530.0;YAW;1502.0;THROTTLE;1067.0;AUX1;1690.0;AUX2;1500.0;AUX3;1500.0;AUX4;1500.0
ALTITUDE;231.0
DEBUG;DEBUG1231.0;DEBUG2;0.0;DEBUG3;0.0;DEBUG4;0.0
ATTITUDE;ANGX;172.0;ANGY;-4.0;HEAD;10.0
STATUS;CYCLETIME;3012;I2CERR;0;PRESENT;23;MODE;2
RAW_IMU;AX;37.0;AY;-24.0;AZ;-256.0;GX;0.0;GY;0.0;GZ;0.0;MAGX;0.0;MAGY;314.0;MAGZ;2.0
MOT;0;1000.0;1;1000.0;2;1000.0;3;1000.0;4;0.0;5;0.0;6;0.0;7;0.0;
RC;ROLL;1494.0;PITCH;1530.0;YAW;1502.0;THROTTLE;1067.0;AUX1;1690.0;AUX2;1500.0;AUX3;1500.0;AUX4;1500.0
ALTITUDE;231.0
DEBUG;DEBUG1231.0;DEBUG2;0.0;DEBUG3;0.0;DEBUG4;0.0
ATTITUDE;ANGX;172.0;ANGY;-4.0;HEAD;10.0
STATUS;CYCLETIME;2924;I2CERR;0;PRESENT;23;MODE;2
RAW_IMU;AX;38.0;AY;-23.0;AZ;-259.0;GX;0.0;GY;0.0;GZ;0.0;MAGX;0.0;MAGY;314.0;MAGZ;2.0
MOT;0;1000.0;1;1000.0;2;1000.0;3;1000.0;4;0.0;5;0.0;6;0.0;7;0.0;
RC;ROLL;1494.0;PITCH;1530.0;YAW;1502.0;THROTTLE;1067.0;AUX1;1690.0;AUX2;1500.0;AUX3;1500.0;AUX4;1500.0
ALTITUDE;231.0
DEBUG;DEBUG1231.0;DEBUG2;0.0;DEBUG3;0.0;DEBUG4;0.0
ATTITUDE;ANGX;172.0;ANGY;-4.0;HEAD;10.0
STATUS;CYCLETIME;2888;I2CERR;0;PRESENT;23;MODE;2
RAW_IMU;AX;39.0;AY;-24.0;AZ;-256.0;GX;0.0;GY;0.0;GZ;0.0;MAGX;-2.0;MAGY;313.0;MAGZ;2.0
MOT;0;1000.0;1;1000.0;2;1000.0;3;1000.0;4;0.0;5;0.0;6;0.0;7;0.0;
RC;ROLL;1494.0;PITCH;1530.0;YAW;1502.0;THROTTLE;1067.0;AUX1;1690.0;AUX2;1500.0;AUX3;1500.0;AUX4;1500.0
ALTITUDE;231.0
DEBUG;DEBUG1231.0;DEBUG2;0.0;DEBUG3;0.0;DEBUG4;0.0
ATTITUDE;ANGX;172.0;ANGY;-4.0;HEAD;10.0
STATUS;CYCLETIME;2864;I2CERR;0;PRESENT;23;MODE;2
RAW_IMU;AX;34.0;AY;-23.0;AZ;-257.0;GX;0.0;GY;0.0;GZ;0.0;MAGX;-2.0;MAGY;313.0;MAGZ;2.0
MOT;0;1000.0;1;1000.0;2;1000.0;3;1000.0;4;0.0;5;0.0;6;0.0;7;0.0;
RC;ROLL;1494.0;PITCH;1530.0;YAW;1502.0;THROTTLE;1067.0;AUX1;1690.0;AUX2;1500.0;AUX3;1500.0;AUX4;1500.0
ALTITUDE;231.0
DEBUG;DEBUG1231.0;DEBUG2;0.0;DEBUG3;0.0;DEBUG4;0.0
ATTITUDE;ANGX;172.0;ANGY;-4.0;HEAD;10.0
STATUS;CYCLETIME;2848;I2CERR;0;PRESENT;23;MODE;2
RAW_IMU;AX;38.0;AY;-21.0;AZ;-257.0;GX;0.0;GY;0.0;GZ;0.0;MAGX;-1.0;MAGY;314.0;MAGZ;2.0
MOT;0;1000.0;1;1000.0;2;1000.0;3;1000.0;4;0.0;5;0.0;6;0.0;7;0.0;
RC;ROLL;1494.0;PITCH;1530.0;YAW;1502.0;THROTTLE;1067.0;AUX1;1690.0;AUX2;1500.0;AUX3;1500.0;AUX4;1500.0
ALTITUDE;231.0
DEBUG;DEBUG1231.0;DEBUG2;0.0;DEBUG3;0.0;DEBUG4;0.0
ATTITUDE;ANGX;172.0;ANGY;-4.0;HEAD;10.0
STATUS;CYCLETIME;2984;I2CERR;0;PRESENT;23;MODE;2
RAW_IMU;AX;39.0;AY;-23.0;AZ;-255.0;GX;0.0;GY;0.0;GZ;0.0;MAGX;-1.0;MAGY;314.0;MAGZ;2.0
MOT;0;1000.0;1;1000.0;2;1000.0;3;1000.0;4;0.0;5;0.0;6;0.0;7;0.0;
RC;ROLL;1494.0;PITCH;1530.0;YAW;1502.0;THROTTLE;1067.0;AUX1;1690.0;AUX2;1500.0;AUX3;1500.0;AUX4;1500.0
ALTITUDE;231.0
DEBUG;DEBUG1231.0;DEBUG2;0.0;DEBUG3;0.0;DEBUG4;0.0
ATTITUDE;ANGX;172.0;ANGY;-4.0;HEAD;10.0
STATUS;CYCLETIME;2892;I2CERR;0;PRESENT;23;MODE;2
RAW_IMU;AX;37.0;AY;-24.0;AZ;-254.0;GX;0.0;GY;0.0;GZ;0.0;MAGX;-1.0;MAGY;313.0;MAGZ;1.0
MOT;0;1000.0;1;1000.0;2;1000.0;3;1000.0;4;0.0;5;0.0;6;0.0;7;0.0;
RC;ROLL;1494.0;PITCH;1530.0;YAW;1502.0;THROTTLE;1067.0;AUX1;1690.0;AUX2;1500.0;AUX3;1500.0;AUX4;1500.0
ALTITUDE;231.0
DEBUG;DEBUG1231.0;DEBUG2;0.0;DEBUG3;0.0;DEBUG4;0.0
ATTITUDE;ANGX;172.0;ANGY;-4.0;HEAD;10.0
STATUS;CYCLETIME;2892;I2CERR;0;PRESENT;23;MODE;2
RAW_IMU;AX;39.0;AY;-24.0;AZ;-255.0;GX;0.0;GY;0.0;GZ;0.0;MAGX;-1.0;MAGY;313.0;MAGZ;1.0
MOT;0;1000.0;1;1000.0;2;1000.0;3;1000.0;4;0.0;5;0.0;6;0.0;7;0.0;
RC;ROLL;1494.0;PITCH;1530.0;YAW;1502.0;THROTTLE;1067.0;AUX1;1690.0;AUX2;1500.0;AUX3;1500.0;AUX4;1500.0
ALTITUDE;231.0
DEBUG;DEBUG1231.0;DEBUG2;0.0;DEBUG3;0.0;DEBUG4;0.0
ATTITUDE;ANGX;172.0;ANGY;-4.0;HEAD;10.0
STATUS;CYCLETIME;3012;I2CERR;0;PRESENT;23;MODE;2
RAW_IMU;AX;40.0;AY;-23.0;AZ;-258.0;GX;0.0;GY;0.0;GZ;0.0;MAGX;-1.0;MAGY;313.0;MAGZ;2.0
MOT;0;1000.0;1;1000.0;2;1000.0;3;1000.0;4;0.0;5;0.0;6;0.0;7;0.0;
RC;ROLL;1494.0;PITCH;1530.0;YAW;1502.0;THROTTLE;1067.0;AUX1;1690.0;AUX2;1500.0;AUX3;1500.0;AUX4;1500.0
ALTITUDE;231.0
DEBUG;DEBUG1231.0;DEBUG2;0.0;DEBUG3;0.0;DEBUG4;0.0
ATTITUDE;ANGX;172.0;ANGY;-4.0;HEAD;10.0
STATUS;CYCLETIME;3024;I2CERR;0;PRESENT;23;MODE;2
RAW_IMU;AX;37.0;AY;-24.0;AZ;-257.0;GX;0.0;GY;0.0;GZ;0.0;MAGX;-1.0;MAGY;313.0;MAGZ;2.0
MOT;0;1000.0;1;1000.0;2;1000.0;3;1000.0;4;0.0;5;0.0;6;0.0;7;0.0;
RC;ROLL;1494.0;PITCH;1530.0;YAW;1502.0;THROTTLE;1067.0;AUX1;1690.0;AUX2;1500.0;AUX3;1500.0;AUX4;1500.0
ALTITUDE;231.0
DEBUG;DEBUG1231.0;DEBUG2;0.0;DEBUG3;0.0;DEBUG4;0.0
ATTITUDE;ANGX;172.0;ANGY;-4.0;HEAD;10.0
STATUS;CYCLETIME;2888;I2CERR;0;PRESENT;23;MODE;2
RAW_IMU;AX;37.0;AY;-27.0;AZ;-257.0;GX;0.0;GY;0.0;GZ;0.0;MAGX;-1.0;MAGY;314.0;MAGZ;2.0
MOT;0;1000.0;1;1000.0;2;1000.0;3;1000.0;4;0.0;5;0.0;6;0.0;7;0.0;
RC;ROLL;1494.0;PITCH;1530.0;YAW;1502.0;THROTTLE;1067.0;AUX1;1690.0;AUX2;1500.0;AUX3;1500.0;AUX4;1500.0
ALTITUDE;231.0
DEBUG;DEBUG1231.0;DEBUG2;0.0;DEBUG3;0.0;DEBUG4;0.0
ATTITUDE;ANGX;172.0;ANGY;-4.0;HEAD;10.0
STATUS;CYCLETIME;2892;I2CERR;0;PRESENT;23;MODE;2
RAW_IMU;AX;36.0;AY;-24.0;AZ;-256.0;GX;0.0;GY;0.0;GZ;0.0;MAGX;-1.0;MAGY;314.0;MAGZ;2.0
MOT;0;1000.0;1;1000.0;2;1000.0;3;1000.0;4;0.0;5;0.0;6;0.0;7;0.0;
RC;ROLL;1494.0;PITCH;1530.0;YAW;1502.0;THROTTLE;1067.0;AUX1;1690.0;AUX2;1500.0;AUX3;1500.0;AUX4;1500.0
ALTITUDE;231.0
DEBUG;DEBUG1231.0;DEBUG2;0.0;DEBUG3;0.0;DEBUG4;0.0
ATTITUDE;ANGX;172.0;ANGY;-4.0;HEAD;10.0
STATUS;CYCLETIME;2880;I2CERR;0;PRESENT;23;MODE;2
RAW_IMU;AX;37.0;AY;-23.0;AZ;-255.0;GX;0.0;GY;0.0;GZ;0.0;MAGX;-1.0;MAGY;314.0;MAGZ;2.0
MOT;0;1000.0;1;1000.0;2;1000.0;3;1000.0;4;0.0;5;0.0;6;0.0;7;0.0;
RC;ROLL;1494.0;PITCH;1530.0;YAW;1502.0;THROTTLE;1067.0;AUX1;1690.0;AUX2;1500.0;AUX3;1500.0;AUX4;1500.0
ALTITUDE;231.0
DEBUG;DEBUG1231.0;DEBUG2;0.0;DEBUG3;0.0;DEBUG4;0.0
ATTITUDE;ANGX;172.0;ANGY;-4.0;HEAD;10.0
STATUS;CYCLETIME;2920;I2CERR;0;PRESENT;23;MODE;2
RAW_IMU;AX;37.0;AY;-22.0;AZ;-256.0;GX;0.0;GY;0.0;GZ;0.0;MAGX;-1.0;MAGY;314.0;MAGZ;2.0
MOT;0;1000.0;1;1000.0;2;1000.0;3;1000.0;4;0.0;5;0.0;6;0.0;7;0.0;
RC;ROLL;1494.0;PITCH;1530.0;YAW;1502.0;THROTTLE;1067.0;AUX1;1690.0;AUX2;1500.0;AUX3;1500.0;AUX4;1500.0
ALTITUDE;231.0
DEBUG;DEBUG1231.0;DEBUG2;0.0;DEBUG3;0.0;DEBUG4;0.0
ATTITUDE;ANGX;172.0;ANGY;-4.0;HEAD;10.0
STATUS;CYCLETIME;3212;I2CERR;0;PRESENT;23;MODE;2
RAW_IMU;AX;37.0;AY;-23.0;AZ;-254.0;GX;0.0;GY;0.0;GZ;0.0;MAGX;0.0;MAGY;313.0;MAGZ;2.0
MOT;0;1000.0;1;1000.0;2;1000.0;3;1000.0;4;0.0;5;0.0;6;0.0;7;0.0;
RC;ROLL;1494.0;PITCH;1530.0;YAW;1502.0;THROTTLE;1067.0;AUX1;1690.0;AUX2;1500.0;AUX3;1500.0;AUX4;1500.0
ALTITUDE;231.0
DEBUG;DEBUG1231.0;DEBUG2;0.0;DEBUG3;0.0;DEBUG4;0.0
ATTITUDE;ANGX;172.0;ANGY;-4.0;HEAD;10.0
STATUS;CYCLETIME;2928;I2CERR;0;PRESENT;23;MODE;2
RAW_IMU;AX;35.0;AY;-21.0;AZ;-257.0;GX;0.0;GY;0.0;GZ;0.0;MAGX;0.0;MAGY;313.0;MAGZ;2.0
MOT;0;1000.0;1;1000.0;2;1000.0;3;1000.0;4;0.0;5;0.0;6;0.0;7;0.0;
RC;ROLL;1494.0;PITCH;1530.0;YAW;1502.0;THROTTLE;1067.0;AUX1;1690.0;AUX2;1500.0;AUX3;1500.0;AUX4;1500.0
ALTITUDE;231.0
DEBUG;DEBUG1231.0;DEBUG2;0.0;DEBUG3;0.0;DEBUG4;0.0
ATTITUDE;ANGX;172.0;ANGY;-4.0;HEAD;10.0
STATUS;CYCLETIME;3008;I2CERR;0;PRESENT;23;MODE;2
RAW_IMU;AX;38.0;AY;-24.0;AZ;-257.0;GX;0.0;GY;0.0;GZ;0.0;MAGX;0.0;MAGY;313.0;MAGZ;2.0
MOT;0;1000.0;1;1000.0;2;1000.0;3;1000.0;4;0.0;5;0.0;6;0.0;7;0.0;
RC;ROLL;1494.0;PITCH;1530.0;YAW;1502.0;THROTTLE;1067.0;AUX1;1690.0;AUX2;1500.0;AUX3;1500.0;AUX4;1500.0
ALTITUDE;231.0
DEBUG;DEBUG1231.0;DEBUG2;0.0;DEBUG3;0.0;DEBUG4;0.0
ATTITUDE;ANGX;172.0;ANGY;-5.0;HEAD;10.0
STATUS;CYCLETIME;2924;I2CERR;0;PRESENT;23;MODE;2
RAW_IMU;AX;37.0;AY;-24.0;AZ;-256.0;GX;1.0;GY;0.0;GZ;0.0;MAGX;-1.0;MAGY;313.0;MAGZ;3.0
MOT;0;1000.0;1;1000.0;2;1000.0;3;1000.0;4;0.0;5;0.0;6;0.0;7;0.0;
RC;ROLL;1494.0;PITCH;1530.0;YAW;1502.0;THROTTLE;1067.0;AUX1;1690.0;AUX2;1500.0;AUX3;1500.0;AUX4;1500.0
ALTITUDE;231.0
DEBUG;DEBUG1231.0;DEBUG2;0.0;DEBUG3;0.0;DEBUG4;0.0
ATTITUDE;ANGX;172.0;ANGY;-4.0;HEAD;10.0
STATUS;CYCLETIME;2924;I2CERR;0;PRESENT;23;MODE;2
RAW_IMU;AX;37.0;AY;-22.0;AZ;-254.0;GX;1.0;GY;0.0;GZ;0.0;MAGX;-1.0;MAGY;313.0;MAGZ;3.0
MOT;0;1000.0;1;1000.0;2;1000.0;3;1000.0;4;0.0;5;0.0;6;0.0;7;0.0;
RC;ROLL;1494.0;PITCH;1530.0;YAW;1502.0;THROTTLE;1067.0;AUX1;1690.0;AUX2;1500.0;AUX3;1500.0;AUX4;1500.0
ALTITUDE;231.0
DEBUG;DEBUG1231.0;DEBUG2;0.0;DEBUG3;0.0;DEBUG4;0.0
ATTITUDE;ANGX;172.0;ANGY;-4.0;HEAD;10.0
STATUS;CYCLETIME;2952;I2CERR;0;PRESENT;23;MODE;2
RAW_IMU;AX;36.0;AY;-23.0;AZ;-254.0;GX;0.0;GY;0.0;GZ;0.0;MAGX;-1.0;MAGY;314.0;MAGZ;2.0
MOT;0;1000.0;1;1000.0;2;1000.0;3;1000.0;4;0.0;5;0.0;6;0.0;7;0.0;
RC;ROLL;1494.0;PITCH;1530.0;YAW;1502.0;THROTTLE;1067.0;AUX1;1690.0;AUX2;1500.0;AUX3;1500.0;AUX4;1500.0
ALTITUDE;231.0
DEBUG;DEBUG1231.0;DEBUG2;0.0;DEBUG3;0.0;DEBUG4;0.0
ATTITUDE;ANGX;172.0;ANGY;-4.0;HEAD;10.0
STATUS;CYCLETIME;2860;I2CERR;0;PRESENT;23;MODE;2
RAW_IMU;AX;37.0;AY;-24.0;AZ;-252.0;GX;0.0;GY;0.0;GZ;0.0;MAGX;-1.0;MAGY;314.0;MAGZ;2.0
MOT;0;1000.0;1;1000.0;2;1000.0;3;1000.0;4;0.0;5;0.0;6;0.0;7;0.0;
RC;ROLL;1494.0;PITCH;1530.0;YAW;1502.0;THROTTLE;1067.0;AUX1;1690.0;AUX2;1500.0;AUX3;1500.0;AUX4;1500.0
ALTITUDE;231.0
DEBUG;DEBUG1231.0;DEBUG2;0.0;DEBUG3;0.0;DEBUG4;0.0
ATTITUDE;ANGX;172.0;ANGY;-4.0;HEAD;10.0
STATUS;CYCLETIME;2988;I2CERR;0;PRESENT;23;MODE;2
RAW_IMU;AX;35.0;AY;-23.0;AZ;-255.0;GX;0.0;GY;0.0;GZ;0.0;MAGX;-1.0;MAGY;313.0;MAGZ;2.0
MOT;0;1000.0;1;1000.0;2;1000.0;3;1000.0;4;0.0;5;0.0;6;0.0;7;0.0;
RC;ROLL;1494.0;PITCH;1530.0;YAW;1502.0;THROTTLE;1067.0;AUX1;1690.0;AUX2;1500.0;AUX3;1500.0;AUX4;1500.0
ALTITUDE;231.0
DEBUG;DEBUG1231.0;DEBUG2;0.0;DEBUG3;0.0;DEBUG4;0.0
ATTITUDE;ANGX;172.0;ANGY;-4.0;HEAD;10.0
STATUS;CYCLETIME;2852;I2CERR;0;PRESENT;23;MODE;2
RAW_IMU;AX;36.0;AY;-21.0;AZ;-257.0;GX;0.0;GY;0.0;GZ;0.0;MAGX;-1.0;MAGY;313.0;MAGZ;2.0
MOT;0;1000.0;1;1000.0;2;1000.0;3;1000.0;4;0.0;5;0.0;6;0.0;7;0.0;
RC;ROLL;1494.0;PITCH;1530.0;YAW;1502.0;THROTTLE;1067.0;AUX1;1690.0;AUX2;1500.0;AUX3;1500.0;AUX4;1500.0
ALTITUDE;231.0
DEBUG;DEBUG1231.0;DEBUG2;0.0;DEBUG3;0.0;DEBUG4;0.0
ATTITUDE;ANGX;172.0;ANGY;-4.0;HEAD;10.0
STATUS;CYCLETIME;2916;I2CERR;0;PRESENT;23;MODE;2
RAW_IMU;AX;37.0;AY;-22.0;AZ;-260.0;GX;0.0;GY;0.0;GZ;0.0;MAGX;-1.0;MAGY;314.0;MAGZ;2.0
MOT;0;1000.0;1;1000.0;2;1000.0;3;1000.0;4;0.0;5;0.0;6;0.0;7;0.0;
RC;ROLL;1494.0;PITCH;1530.0;YAW;1502.0;THROTTLE;1067.0;AUX1;1690.0;AUX2;1500.0;AUX3;1500.0;AUX4;1500.0
ALTITUDE;231.0
DEBUG;DEBUG1231.0;DEBUG2;0.0;DEBUG3;0.0;DEBUG4;0.0
ATTITUDE;ANGX;172.0;ANGY;-4.0;HEAD;10.0
STATUS;CYCLETIME;2928;I2CERR;0;PRESENT;23;MODE;2
RAW_IMU;AX;38.0;AY;-21.0;AZ;-259.0;GX;0.0;GY;0.0;GZ;0.0;MAGX;-1.0;MAGY;314.0;MAGZ;2.0
MOT;0;1000.0;1;1000.0;2;1000.0;3;1000.0;4;0.0;5;0.0;6;0.0;7;0.0;
RC;ROLL;1494.0;PITCH;1530.0;YAW;1502.0;THROTTLE;1067.0;AUX1;1690.0;AUX2;1500.0;AUX3;1500.0;AUX4;1500.0
ALTITUDE;231.0
DEBUG;DEBUG1231.0;DEBUG2;0.0;DEBUG3;0.0;DEBUG4;0.0
ATTITUDE;ANGX;172.0;ANGY;-4.0;HEAD;10.0
STATUS;CYCLETIME;2916;I2CERR;0;PRESENT;23;MODE;2
RAW_IMU;AX;36.0;AY;-23.0;AZ;-256.0;GX;0.0;GY;0.0;GZ;0.0;MAGX;-1.0;MAGY;313.0;MAGZ;1.0
MOT;0;1000.0;1;1000.0;2;1000.0;3;1000.0;4;0.0;5;0.0;6;0.0;7;0.0;
RC;ROLL;1516.0;PITCH;1500.0;YAW;1502.0;THROTTLE;1084.0;AUX1;1686.0;AUX2;1500.0;AUX3;1500.0;AUX4;1500.0
ALTITUDE;231.0
DEBUG;DEBUG1231.0;DEBUG2;0.0;DEBUG3;0.0;DEBUG4;0.0
ATTITUDE;ANGX;172.0;ANGY;-4.0;HEAD;10.0
STATUS;CYCLETIME;2928;I2CERR;0;PRESENT;23;MODE;2
RAW_IMU;AX;35.0;AY;-25.0;AZ;-256.0;GX;0.0;GY;0.0;GZ;0.0;MAGX;-1.0;MAGY;313.0;MAGZ;1.0
MOT;0;1000.0;1;1000.0;2;1000.0;3;1000.0;4;0.0;5;0.0;6;0.0;7;0.0;
RC;ROLL;1538.0;PITCH;1469.0;YAW;1506.0;THROTTLE;1101.0;AUX1;1681.0;AUX2;1500.0;AUX3;1500.0;AUX4;1500.0
ALTITUDE;231.0
DEBUG;DEBUG1231.0;DEBUG2;0.0;DEBUG3;0.0;DEBUG4;0.0
ATTITUDE;ANGX;172.0;ANGY;-4.0;HEAD;10.0
STATUS;CYCLETIME;2904;I2CERR;0;PRESENT;23;MODE;2
RAW_IMU;AX;35.0;AY;-23.0;AZ;-257.0;GX;0.0;GY;0.0;GZ;0.0;MAGX;-1.0;MAGY;314.0;MAGZ;2.0
MOT;0;1000.0;1;1000.0;2;1000.0;3;1000.0;4;0.0;5;0.0;6;0.0;7;0.0;
RC;ROLL;1523.0;PITCH;1481.0;YAW;1508.0;THROTTLE;1099.0;AUX1;1681.0;AUX2;1500.0;AUX3;1500.0;AUX4;1500.0
ALTITUDE;231.0
DEBUG;DEBUG1231.0;DEBUG2;0.0;DEBUG3;0.0;DEBUG4;0.0
ATTITUDE;ANGX;172.0;ANGY;-4.0;HEAD;10.0
STATUS;CYCLETIME;2960;I2CERR;0;PRESENT;23;MODE;2
RAW_IMU;AX;36.0;AY;-23.0;AZ;-254.0;GX;0.0;GY;0.0;GZ;0.0;MAGX;-1.0;MAGY;314.0;MAGZ;2.0
MOT;0;1000.0;1;1000.0;2;1000.0;3;1000.0;4;0.0;5;0.0;6;0.0;7;0.0;
RC;ROLL;1505.0;PITCH;1500.0;YAW;1504.0;THROTTLE;1097.0;AUX1;1681.0;AUX2;1500.0;AUX3;1500.0;AUX4;1500.0
ALTITUDE;231.0
DEBUG;DEBUG1231.0;DEBUG2;0.0;DEBUG3;0.0;DEBUG4;0.0
ATTITUDE;ANGX;172.0;ANGY;-4.0;HEAD;10.0
STATUS;CYCLETIME;2920;I2CERR;0;PRESENT;23;MODE;2
RAW_IMU;AX;35.0;AY;-21.0;AZ;-255.0;GX;0.0;GY;0.0;GZ;0.0;MAGX;-1.0;MAGY;314.0;MAGZ;2.0
MOT;0;1000.0;1;1000.0;2;1000.0;3;1000.0;4;0.0;5;0.0;6;0.0;7;0.0;
RC;ROLL;1505.0;PITCH;1500.0;YAW;1502.0;THROTTLE;1097.0;AUX1;1681.0;AUX2;1500.0;AUX3;1500.0;AUX4;1500.0
ALTITUDE;231.0
DEBUG;DEBUG1231.0;DEBUG2;0.0;DEBUG3;0.0;DEBUG4;0.0
ATTITUDE;ANGX;172.0;ANGY;-4.0;HEAD;10.0
STATUS;CYCLETIME;2996;I2CERR;0;PRESENT;23;MODE;2
RAW_IMU;AX;35.0;AY;-20.0;AZ;-258.0;GX;0.0;GY;0.0;GZ;0.0;MAGX;-1.0;MAGY;314.0;MAGZ;2.0
MOT;0;1000.0;1;1000.0;2;1000.0;3;1000.0;4;0.0;5;0.0;6;0.0;7;0.0;
RC;ROLL;1503.0;PITCH;1500.0;YAW;1502.0;THROTTLE;1097.0;AUX1;1681.0;AUX2;1500.0;AUX3;1500.0;AUX4;1500.0
ALTITUDE;231.0
DEBUG;DEBUG1231.0;DEBUG2;0.0;DEBUG3;0.0;DEBUG4;0.0
ATTITUDE;ANGX;172.0;ANGY;-4.0;HEAD;10.0
STATUS;CYCLETIME;2824;I2CERR;0;PRESENT;23;MODE;2
RAW_IMU;AX;35.0;AY;-22.0;AZ;-256.0;GX;0.0;GY;0.0;GZ;0.0;MAGX;-1.0;MAGY;313.0;MAGZ;3.0
MOT;0;1000.0;1;1000.0;2;1000.0;3;1000.0;4;0.0;5;0.0;6;0.0;7;0.0;
RC;ROLL;1503.0;PITCH;1500.0;YAW;1502.0;THROTTLE;1097.0;AUX1;1681.0;AUX2;1500.0;AUX3;1500.0;AUX4;1500.0
ALTITUDE;231.0
DEBUG;DEBUG1231.0;DEBUG2;0.0;DEBUG3;0.0;DEBUG4;0.0
ATTITUDE;ANGX;172.0;ANGY;-4.0;HEAD;10.0
STATUS;CYCLETIME;3064;I2CERR;0;PRESENT;23;MODE;2
RAW_IMU;AX;38.0;AY;-22.0;AZ;-257.0;GX;0.0;GY;0.0;GZ;0.0;MAGX;-1.0;MAGY;313.0;MAGZ;3.0
MOT;0;1000.0;1;1000.0;2;1000.0;3;1000.0;4;0.0;5;0.0;6;0.0;7;0.0;
RC;ROLL;1503.0;PITCH;1500.0;YAW;1502.0;THROTTLE;1097.0;AUX1;1681.0;AUX2;1500.0;AUX3;1500.0;AUX4;1500.0
ALTITUDE;231.0
DEBUG;DEBUG1231.0;DEBUG2;0.0;DEBUG3;0.0;DEBUG4;0.0
ATTITUDE;ANGX;172.0;ANGY;-4.0;HEAD;10.0
STATUS;CYCLETIME;2988;I2CERR;0;PRESENT;23;MODE;2
RAW_IMU;AX;38.0;AY;-21.0;AZ;-255.0;GX;0.0;GY;0.0;GZ;0.0;MAGX;-1.0;MAGY;314.0;MAGZ;3.0
MOT;0;1000.0;1;1000.0;2;1000.0;3;1000.0;4;0.0;5;0.0;6;0.0;7;0.0;
RC;ROLL;1503.0;PITCH;1500.0;YAW;1502.0;THROTTLE;1097.0;AUX1;1681.0;AUX2;1500.0;AUX3;1500.0;AUX4;1500.0
ALTITUDE;231.0
DEBUG;DEBUG1231.0;DEBUG2;0.0;DEBUG3;0.0;DEBUG4;0.0
ATTITUDE;ANGX;172.0;ANGY;-4.0;HEAD;10.0
STATUS;CYCLETIME;2900;I2CERR;0;PRESENT;23;MODE;2
RAW_IMU;AX;38.0;AY;-21.0;AZ;-255.0;GX;0.0;GY;0.0;GZ;0.0;MAGX;-1.0;MAGY;314.0;MAGZ;3.0
MOT;0;1000.0;1;1000.0;2;1000.0;3;1000.0;4;0.0;5;0.0;6;0.0;7;0.0;
RC;ROLL;1503.0;PITCH;1500.0;YAW;1502.0;THROTTLE;1097.0;AUX1;1681.0;AUX2;1500.0;AUX3;1500.0;AUX4;1500.0
ALTITUDE;231.0
DEBUG;DEBUG1231.0;DEBUG2;0.0;DEBUG3;0.0;DEBUG4;0.0
ATTITUDE;ANGX;172.0;ANGY;-4.0;HEAD;10.0
STATUS;CYCLETIME;2892;I2CERR;0;PRESENT;23;MODE;2
RAW_IMU;AX;37.0;AY;-22.0;AZ;-256.0;GX;0.0;GY;0.0;GZ;0.0;MAGX;-2.0;MAGY;314.0;MAGZ;1.0
MOT;0;1000.0;1;1000.0;2;1000.0;3;1000.0;4;0.0;5;0.0;6;0.0;7;0.0;
RC;ROLL;1503.0;PITCH;1500.0;YAW;1502.0;THROTTLE;1097.0;AUX1;1681.0;AUX2;1500.0;AUX3;1500.0;AUX4;1500.0
ALTITUDE;231.0
DEBUG;DEBUG1231.0;DEBUG2;0.0;DEBUG3;0.0;DEBUG4;0.0
ATTITUDE;ANGX;172.0;ANGY;-4.0;HEAD;10.0
STATUS;CYCLETIME;3024;I2CERR;0;PRESENT;23;MODE;2
RAW_IMU;AX;38.0;AY;-23.0;AZ;-254.0;GX;0.0;GY;0.0;GZ;0.0;MAGX;-2.0;MAGY;314.0;MAGZ;1.0
MOT;0;1000.0;1;1000.0;2;1000.0;3;1000.0;4;0.0;5;0.0;6;0.0;7;0.0;
RC;ROLL;1503.0;PITCH;1500.0;YAW;1502.0;THROTTLE;1095.0;AUX1;1681.0;AUX2;1500.0;AUX3;1500.0;AUX4;1500.0
ALTITUDE;231.0
DEBUG;DEBUG1231.0;DEBUG2;0.0;DEBUG3;0.0;DEBUG4;0.0
ATTITUDE;ANGX;172.0;ANGY;-4.0;HEAD;10.0
STATUS;CYCLETIME;2916;I2CERR;0;PRESENT;23;MODE;2
RAW_IMU;AX;38.0;AY;-23.0;AZ;-256.0;GX;0.0;GY;0.0;GZ;0.0;MAGX;-1.0;MAGY;314.0;MAGZ;2.0
MOT;0;1000.0;1;1000.0;2;1000.0;3;1000.0;4;0.0;5;0.0;6;0.0;7;0.0;
RC;ROLL;1503.0;PITCH;1502.0;YAW;1502.0;THROTTLE;1095.0;AUX1;1681.0;AUX2;1500.0;AUX3;1500.0;AUX4;1500.0
ALTITUDE;231.0
DEBUG;DEBUG1231.0;DEBUG2;0.0;DEBUG3;0.0;DEBUG4;0.0
ATTITUDE;ANGX;172.0;ANGY;-4.0;HEAD;10.0
STATUS;CYCLETIME;2896;I2CERR;0;PRESENT;23;MODE;2
RAW_IMU;AX;39.0;AY;-25.0;AZ;-257.0;GX;0.0;GY;0.0;GZ;0.0;MAGX;-1.0;MAGY;314.0;MAGZ;2.0
MOT;0;1000.0;1;1000.0;2;1000.0;3;1000.0;4;0.0;5;0.0;6;0.0;7;0.0;
RC;ROLL;1503.0;PITCH;1502.0;YAW;1502.0;THROTTLE;1095.0;AUX1;1681.0;AUX2;1500.0;AUX3;1500.0;AUX4;1500.0
ALTITUDE;231.0
DEBUG;DEBUG1231.0;DEBUG2;0.0;DEBUG3;0.0;DEBUG4;0.0
ATTITUDE;ANGX;172.0;ANGY;-4.0;HEAD;10.0
STATUS;CYCLETIME;2888;I2CERR;0;PRESENT;23;MODE;2
RAW_IMU;AX;39.0;AY;-22.0;AZ;-255.0;GX;0.0;GY;0.0;GZ;0.0;MAGX;-1.0;MAGY;314.0;MAGZ;3.0
MOT;0;1000.0;1;1000.0;2;1000.0;3;1000.0;4;0.0;5;0.0;6;0.0;7;0.0;
RC;ROLL;1503.0;PITCH;1502.0;YAW;1502.0;THROTTLE;1095.0;AUX1;1681.0;AUX2;1500.0;AUX3;1500.0;AUX4;1500.0
ALTITUDE;231.0
DEBUG;DEBUG1231.0;DEBUG2;0.0;DEBUG3;0.0;DEBUG4;0.0
ATTITUDE;ANGX;172.0;ANGY;-4.0;HEAD;10.0
STATUS;CYCLETIME;3004;I2CERR;0;PRESENT;23;MODE;2
RAW_IMU;AX;38.0;AY;-22.0;AZ;-256.0;GX;0.0;GY;0.0;GZ;0.0;MAGX;-1.0;MAGY;314.0;MAGZ;3.0
MOT;0;1000.0;1;1000.0;2;1000.0;3;1000.0;4;0.0;5;0.0;6;0.0;7;0.0;
RC;ROLL;1503.0;PITCH;1502.0;YAW;1502.0;THROTTLE;1095.0;AUX1;1681.0;AUX2;1500.0;AUX3;1500.0;AUX4;1500.0
ALTITUDE;231.0
DEBUG;DEBUG1231.0;DEBUG2;0.0;DEBUG3;0.0;DEBUG4;0.0
ATTITUDE;ANGX;172.0;ANGY;-4.0;HEAD;10.0
STATUS;CYCLETIME;2936;I2CERR;0;PRESENT;23;MODE;2
RAW_IMU;AX;35.0;AY;-23.0;AZ;-257.0;GX;0.0;GY;0.0;GZ;0.0;MAGX;0.0;MAGY;313.0;MAGZ;3.0
MOT;0;1000.0;1;1000.0;2;1000.0;3;1000.0;4;0.0;5;0.0;6;0.0;7;0.0;
RC;ROLL;1503.0;PITCH;1502.0;YAW;1502.0;THROTTLE;1095.0;AUX1;1681.0;AUX2;1500.0;AUX3;1500.0;AUX4;1500.0
ALTITUDE;231.0
DEBUG;DEBUG1231.0;DEBUG2;0.0;DEBUG3;0.0;DEBUG4;0.0
ATTITUDE;ANGX;172.0;ANGY;-4.0;HEAD;10.0
STATUS;CYCLETIME;3104;I2CERR;0;PRESENT;23;MODE;2
RAW_IMU;AX;36.0;AY;-21.0;AZ;-257.0;GX;0.0;GY;0.0;GZ;0.0;MAGX;0.0;MAGY;313.0;MAGZ;3.0
MOT;0;1000.0;1;1000.0;2;1000.0;3;1000.0;4;0.0;5;0.0;6;0.0;7;0.0;
RC;ROLL;1503.0;PITCH;1502.0;YAW;1502.0;THROTTLE;1095.0;AUX1;1681.0;AUX2;1500.0;AUX3;1500.0;AUX4;1500.0
ALTITUDE;231.0
DEBUG;DEBUG1231.0;DEBUG2;0.0;DEBUG3;0.0;DEBUG4;0.0
ATTITUDE;ANGX;172.0;ANGY;-4.0;HEAD;10.0
STATUS;CYCLETIME;2912;I2CERR;0;PRESENT;23;MODE;2
RAW_IMU;AX;38.0;AY;-24.0;AZ;-255.0;GX;0.0;GY;0.0;GZ;0.0;MAGX;-1.0;MAGY;314.0;MAGZ;2.0
MOT;0;1000.0;1;1000.0;2;1000.0;3;1000.0;4;0.0;5;0.0;6;0.0;7;0.0;
RC;ROLL;1503.0;PITCH;1502.0;YAW;1502.0;THROTTLE;1095.0;AUX1;1681.0;AUX2;1500.0;AUX3;1500.0;AUX4;1500.0
ALTITUDE;231.0
DEBUG;DEBUG1231.0;DEBUG2;0.0;DEBUG3;0.0;DEBUG4;0.0
ATTITUDE;ANGX;172.0;ANGY;-4.0;HEAD;10.0
STATUS;CYCLETIME;2904;I2CERR;0;PRESENT;23;MODE;2
RAW_IMU;AX;37.0;AY;-21.0;AZ;-257.0;GX;0.0;GY;0.0;GZ;0.0;MAGX;-1.0;MAGY;314.0;MAGZ;2.0
MOT;0;1000.0;1;1000.0;2;1000.0;3;1000.0;4;0.0;5;0.0;6;0.0;7;0.0;
RC;ROLL;1503.0;PITCH;1502.0;YAW;1502.0;THROTTLE;1095.0;AUX1;1681.0;AUX2;1500.0;AUX3;1500.0;AUX4;1500.0
ALTITUDE;231.0
DEBUG;DEBUG1231.0;DEBUG2;0.0;DEBUG3;0.0;DEBUG4;0.0
ATTITUDE;ANGX;172.0;ANGY;-4.0;HEAD;10.0
STATUS;CYCLETIME;2900;I2CERR;0;PRESENT;23;MODE;2
RAW_IMU;AX;37.0;AY;-22.0;AZ;-258.0;GX;0.0;GY;0.0;GZ;0.0;MAGX;-1.0;MAGY;313.0;MAGZ;2.0
MOT;0;1000.0;1;1000.0;2;1000.0;3;1000.0;4;0.0;5;0.0;6;0.0;7;0.0;
RC;ROLL;1503.0;PITCH;1502.0;YAW;1502.0;THROTTLE;1095.0;AUX1;1681.0;AUX2;1500.0;AUX3;1500.0;AUX4;1500.0
ALTITUDE;231.0
DEBUG;DEBUG1231.0;DEBUG2;0.0;DEBUG3;0.0;DEBUG4;0.0
ATTITUDE;ANGX;172.0;ANGY;-4.0;HEAD;10.0
STATUS;CYCLETIME;3020;I2CERR;0;PRESENT;23;MODE;2
RAW_IMU;AX;37.0;AY;-21.0;AZ;-257.0;GX;0.0;GY;0.0;GZ;0.0;MAGX;-1.0;MAGY;313.0;MAGZ;2.0
MOT;0;1000.0;1;1000.0;2;1000.0;3;1000.0;4;0.0;5;0.0;6;0.0;7;0.0;
RC;ROLL;1503.0;PITCH;1502.0;YAW;1502.0;THROTTLE;1095.0;AUX1;1681.0;AUX2;1500.0;AUX3;1500.0;AUX4;1500.0
ALTITUDE;231.0
DEBUG;DEBUG1231.0;DEBUG2;0.0;DEBUG3;0.0;DEBUG4;0.0
ATTITUDE;ANGX;172.0;ANGY;-4.0;HEAD;10.0
STATUS;CYCLETIME;3156;I2CERR;0;PRESENT;23;MODE;2
RAW_IMU;AX;36.0;AY;-22.0;AZ;-254.0;GX;0.0;GY;0.0;GZ;0.0;MAGX;-1.0;MAGY;314.0;MAGZ;1.0
MOT;0;1000.0;1;1000.0;2;1000.0;3;1000.0;4;0.0;5;0.0;6;0.0;7;0.0;
RC;ROLL;1503.0;PITCH;1502.0;YAW;1502.0;THROTTLE;1095.0;AUX1;1681.0;AUX2;1500.0;AUX3;1500.0;AUX4;1500.0
ALTITUDE;231.0
DEBUG;DEBUG1231.0;DEBUG2;0.0;DEBUG3;0.0;DEBUG4;0.0
ATTITUDE;ANGX;172.0;ANGY;-4.0;HEAD;10.0
STATUS;CYCLETIME;3068;I2CERR;0;PRESENT;23;MODE;2
RAW_IMU;AX;36.0;AY;-22.0;AZ;-254.0;GX;0.0;GY;0.0;GZ;0.0;MAGX;-1.0;MAGY;314.0;MAGZ;1.0
MOT;0;1000.0;1;1000.0;2;1000.0;3;1000.0;4;0.0;5;0.0;6;0.0;7;0.0;
RC;ROLL;1503.0;PITCH;1502.0;YAW;1502.0;THROTTLE;1095.0;AUX1;1681.0;AUX2;1500.0;AUX3;1500.0;AUX4;1500.0
ALTITUDE;231.0
DEBUG;DEBUG1231.0;DEBUG2;0.0;DEBUG3;0.0;DEBUG4;0.0
ATTITUDE;ANGX;172.0;ANGY;-4.0;HEAD;10.0
STATUS;CYCLETIME;2900;I2CERR;0;PRESENT;23;MODE;2
RAW_IMU;AX;38.0;AY;-22.0;AZ;-255.0;GX;0.0;GY;0.0;GZ;0.0;MAGX;-1.0;MAGY;314.0;MAGZ;1.0
MOT;0;1000.0;1;1000.0;2;1000.0;3;1000.0;4;0.0;5;0.0;6;0.0;7;0.0;
RC;ROLL;1503.0;PITCH;1502.0;YAW;1500.0;THROTTLE;1095.0;AUX1;1683.0;AUX2;1500.0;AUX3;1500.0;AUX4;1500.0
ALTITUDE;231.0
DEBUG;DEBUG1231.0;DEBUG2;0.0;DEBUG3;0.0;DEBUG4;0.0
ATTITUDE;ANGX;172.0;ANGY;-4.0;HEAD;10.0
STATUS;CYCLETIME;2928;I2CERR;0;PRESENT;23;MODE;2
RAW_IMU;AX;36.0;AY;-22.0;AZ;-256.0;GX;0.0;GY;0.0;GZ;0.0;MAGX;-2.0;MAGY;314.0;MAGZ;2.0
MOT;0;1000.0;1;1000.0;2;1000.0;3;1000.0;4;0.0;5;0.0;6;0.0;7;0.0;
RC;ROLL;1503.0;PITCH;1502.0;YAW;1498.0;THROTTLE;1097.0;AUX1;1683.0;AUX2;1500.0;AUX3;1500.0;AUX4;1500.0
ALTITUDE;231.0
DEBUG;DEBUG1231.0;DEBUG2;0.0;DEBUG3;0.0;DEBUG4;0.0
ATTITUDE;ANGX;172.0;ANGY;-4.0;HEAD;10.0
STATUS;CYCLETIME;2952;I2CERR;0;PRESENT;23;MODE;2
RAW_IMU;AX;36.0;AY;-24.0;AZ;-256.0;GX;0.0;GY;0.0;GZ;0.0;MAGX;-2.0;MAGY;314.0;MAGZ;2.0
MOT;0;1000.0;1;1000.0;2;1000.0;3;1000.0;4;0.0;5;0.0;6;0.0;7;0.0;
RC;ROLL;1503.0;PITCH;1502.0;YAW;1498.0;THROTTLE;1097.0;AUX1;1680.0;AUX2;1500.0;AUX3;1500.0;AUX4;1500.0
ALTITUDE;231.0
DEBUG;DEBUG1231.0;DEBUG2;0.0;DEBUG3;0.0;DEBUG4;0.0
ATTITUDE;ANGX;172.0;ANGY;-4.0;HEAD;10.0
STATUS;CYCLETIME;3036;I2CERR;0;PRESENT;23;MODE;2
RAW_IMU;AX;36.0;AY;-22.0;AZ;-256.0;GX;0.0;GY;0.0;GZ;0.0;MAGX;-1.0;MAGY;314.0;MAGZ;2.0
MOT;0;1000.0;1;1000.0;2;1000.0;3;1000.0;4;0.0;5;0.0;6;0.0;7;0.0;
RC;ROLL;1503.0;PITCH;1502.0;YAW;1501.0;THROTTLE;1097.0;AUX1;1680.0;AUX2;1500.0;AUX3;1500.0;AUX4;1500.0
ALTITUDE;231.0
DEBUG;DEBUG1231.0;DEBUG2;0.0;DEBUG3;0.0;DEBUG4;0.0
ATTITUDE;ANGX;172.0;ANGY;-4.0;HEAD;10.0
STATUS;CYCLETIME;3024;I2CERR;0;PRESENT;23;MODE;2
RAW_IMU;AX;38.0;AY;-24.0;AZ;-255.0;GX;1.0;GY;0.0;GZ;0.0;MAGX;-1.0;MAGY;314.0;MAGZ;2.0
MOT;0;1000.0;1;1000.0;2;1000.0;3;1000.0;4;0.0;5;0.0;6;0.0;7;0.0;
RC;ROLL;1503.0;PITCH;1502.0;YAW;1501.0;THROTTLE;1097.0;AUX1;1682.0;AUX2;1500.0;AUX3;1500.0;AUX4;1500.0
ALTITUDE;231.0
DEBUG;DEBUG1231.0;DEBUG2;0.0;DEBUG3;0.0;DEBUG4;0.0
ATTITUDE;ANGX;172.0;ANGY;-4.0;HEAD;10.0
STATUS;CYCLETIME;2900;I2CERR;0;PRESENT;23;MODE;2
RAW_IMU;AX;37.0;AY;-23.0;AZ;-253.0;GX;4.0;GY;0.0;GZ;0.0;MAGX;-1.0;MAGY;314.0;MAGZ;2.0
MOT;0;1000.0;1;1000.0;2;1000.0;3;1000.0;4;0.0;5;0.0;6;0.0;7;0.0;
RC;ROLL;1503.0;PITCH;1502.0;YAW;1501.0;THROTTLE;1097.0;AUX1;1682.0;AUX2;1500.0;AUX3;1500.0;AUX4;1500.0
ALTITUDE;231.0
DEBUG;DEBUG1231.0;DEBUG2;0.0;DEBUG3;0.0;DEBUG4;0.0
ATTITUDE;ANGX;172.0;ANGY;-4.0;HEAD;10.0
STATUS;CYCLETIME;2936;I2CERR;0;PRESENT;23;MODE;2
RAW_IMU;AX;35.0;AY;-22.0;AZ;-255.0;GX;2.0;GY;0.0;GZ;0.0;MAGX;-1.0;MAGY;314.0;MAGZ;2.0
MOT;0;1000.0;1;1000.0;2;1000.0;3;1000.0;4;0.0;5;0.0;6;0.0;7;0.0;
RC;ROLL;1503.0;PITCH;1502.0;YAW;1501.0;THROTTLE;1097.0;AUX1;1682.0;AUX2;1500.0;AUX3;1500.0;AUX4;1500.0
ALTITUDE;231.0
DEBUG;DEBUG1231.0;DEBUG2;0.0;DEBUG3;0.0;DEBUG4;0.0
ATTITUDE;ANGX;172.0;ANGY;-4.0;HEAD;10.0
STATUS;CYCLETIME;3072;I2CERR;0;PRESENT;23;MODE;2
RAW_IMU;AX;35.0;AY;-18.0;AZ;-254.0;GX;0.0;GY;0.0;GZ;0.0;MAGX;-2.0;MAGY;314.0;MAGZ;2.0
MOT;0;1000.0;1;1000.0;2;1000.0;3;1000.0;4;0.0;5;0.0;6;0.0;7;0.0;
RC;ROLL;1503.0;PITCH;1502.0;YAW;1501.0;THROTTLE;1097.0;AUX1;1682.0;AUX2;1500.0;AUX3;1500.0;AUX4;1500.0
ALTITUDE;231.0
DEBUG;DEBUG1231.0;DEBUG2;0.0;DEBUG3;0.0;DEBUG4;0.0
ATTITUDE;ANGX;173.0;ANGY;-4.0;HEAD;10.0
STATUS;CYCLETIME;2892;I2CERR;0;PRESENT;23;MODE;2
RAW_IMU;AX;35.0;AY;-22.0;AZ;-255.0;GX;-2.0;GY;0.0;GZ;0.0;MAGX;-2.0;MAGY;314.0;MAGZ;2.0
MOT;0;1000.0;1;1000.0;2;1000.0;3;1000.0;4;0.0;5;0.0;6;0.0;7;0.0;
RC;ROLL;1503.0;PITCH;1502.0;YAW;1501.0;THROTTLE;1097.0;AUX1;1682.0;AUX2;1500.0;AUX3;1500.0;AUX4;1500.0
ALTITUDE;231.0
DEBUG;DEBUG1231.0;DEBUG2;0.0;DEBUG3;0.0;DEBUG4;0.0
ATTITUDE;ANGX;172.0;ANGY;-4.0;HEAD;10.0
STATUS;CYCLETIME;2888;I2CERR;0;PRESENT;23;MODE;2
RAW_IMU;AX;35.0;AY;-24.0;AZ;-254.0;GX;-3.0;GY;0.0;GZ;0.0;MAGX;-2.0;MAGY;314.0;MAGZ;1.0
MOT;0;1000.0;1;1000.0;2;1000.0;3;1000.0;4;0.0;5;0.0;6;0.0;7;0.0;
RC;ROLL;1503.0;PITCH;1500.0;YAW;1501.0;THROTTLE;1097.0;AUX1;1666.0;AUX2;1500.0;AUX3;1500.0;AUX4;1500.0
ALTITUDE;231.0
DEBUG;DEBUG1231.0;DEBUG2;0.0;DEBUG3;0.0;DEBUG4;0.0
ATTITUDE;ANGX;172.0;ANGY;-4.0;HEAD;10.0
STATUS;CYCLETIME;3032;I2CERR;0;PRESENT;23;MODE;2
RAW_IMU;AX;38.0;AY;-21.0;AZ;-257.0;GX;-2.0;GY;1.0;GZ;0.0;MAGX;-2.0;MAGY;314.0;MAGZ;1.0
MOT;0;1000.0;1;1000.0;2;1000.0;3;1000.0;4;0.0;5;0.0;6;0.0;7;0.0;
RC;ROLL;1503.0;PITCH;1500.0;YAW;1501.0;THROTTLE;1097.0;AUX1;1666.0;AUX2;1500.0;AUX3;1500.0;AUX4;1500.0
ALTITUDE;231.0
DEBUG;DEBUG1231.0;DEBUG2;0.0;DEBUG3;0.0;DEBUG4;0.0
ATTITUDE;ANGX;172.0;ANGY;-4.0;HEAD;10.0
STATUS;CYCLETIME;2944;I2CERR;0;PRESENT;23;MODE;2
RAW_IMU;AX;36.0;AY;-22.0;AZ;-255.0;GX;0.0;GY;0.0;GZ;0.0;MAGX;-1.0;MAGY;313.0;MAGZ;1.0
MOT;0;1000.0;1;1000.0;2;1000.0;3;1000.0;4;0.0;5;0.0;6;0.0;7;0.0;
RC;ROLL;1503.0;PITCH;1500.0;YAW;1501.0;THROTTLE;1097.0;AUX1;1679.0;AUX2;1500.0;AUX3;1500.0;AUX4;1500.0
ALTITUDE;231.0
DEBUG;DEBUG1231.0;DEBUG2;0.0;DEBUG3;0.0;DEBUG4;0.0
ATTITUDE;ANGX;171.0;ANGY;-4.0;HEAD;10.0
STATUS;CYCLETIME;2928;I2CERR;0;PRESENT;23;MODE;2
RAW_IMU;AX;39.0;AY;-25.0;AZ;-257.0;GX;1.0;GY;-1.0;GZ;0.0;MAGX;-1.0;MAGY;313.0;MAGZ;1.0
MOT;0;1000.0;1;1000.0;2;1000.0;3;1000.0;4;0.0;5;0.0;6;0.0;7;0.0;
RC;ROLL;1503.0;PITCH;1500.0;YAW;1501.0;THROTTLE;1097.0;AUX1;1681.0;AUX2;1500.0;AUX3;1500.0;AUX4;1500.0
ALTITUDE;231.0
DEBUG;DEBUG1231.0;DEBUG2;0.0;DEBUG3;0.0;DEBUG4;0.0
ATTITUDE;ANGX;172.0;ANGY;-4.0;HEAD;10.0
STATUS;CYCLETIME;2928;I2CERR;0;PRESENT;23;MODE;2
RAW_IMU;AX;36.0;AY;-24.0;AZ;-253.0;GX;2.0;GY;0.0;GZ;0.0;MAGX;-1.0;MAGY;314.0;MAGZ;3.0
MOT;0;1000.0;1;1000.0;2;1000.0;3;1000.0;4;0.0;5;0.0;6;0.0;7;0.0;
RC;ROLL;1503.0;PITCH;1500.0;YAW;1501.0;THROTTLE;1097.0;AUX1;1681.0;AUX2;1500.0;AUX3;1500.0;AUX4;1500.0
ALTITUDE;231.0
DEBUG;DEBUG1231.0;DEBUG2;0.0;DEBUG3;0.0;DEBUG4;0.0
ATTITUDE;ANGX;172.0;ANGY;-4.0;HEAD;10.0
STATUS;CYCLETIME;2932;I2CERR;0;PRESENT;23;MODE;2
RAW_IMU;AX;36.0;AY;-23.0;AZ;-253.0;GX;2.0;GY;0.0;GZ;0.0;MAGX;-1.0;MAGY;314.0;MAGZ;3.0
MOT;0;1000.0;1;1000.0;2;1000.0;3;1000.0;4;0.0;5;0.0;6;0.0;7;0.0;
RC;ROLL;1503.0;PITCH;1500.0;YAW;1501.0;THROTTLE;1097.0;AUX1;1681.0;AUX2;1500.0;AUX3;1500.0;AUX4;1500.0
ALTITUDE;231.0
DEBUG;DEBUG1231.0;DEBUG2;0.0;DEBUG3;0.0;DEBUG4;0.0
ATTITUDE;ANGX;172.0;ANGY;-4.0;HEAD;10.0
STATUS;CYCLETIME;2924;I2CERR;0;PRESENT;23;MODE;2
RAW_IMU;AX;35.0;AY;-18.0;AZ;-252.0;GX;1.0;GY;0.0;GZ;0.0;MAGX;-1.0;MAGY;314.0;MAGZ;2.0
MOT;0;1000.0;1;1000.0;2;1000.0;3;1000.0;4;0.0;5;0.0;6;0.0;7;0.0;
RC;ROLL;1503.0;PITCH;1502.0;YAW;1501.0;THROTTLE;1095.0;AUX1;1681.0;AUX2;1500.0;AUX3;1500.0;AUX4;1500.0
ALTITUDE;231.0
DEBUG;DEBUG1231.0;DEBUG2;0.0;DEBUG3;0.0;DEBUG4;0.0
ATTITUDE;ANGX;172.0;ANGY;-4.0;HEAD;10.0
STATUS;CYCLETIME;3068;I2CERR;0;PRESENT;23;MODE;2
RAW_IMU;AX;36.0;AY;-20.0;AZ;-254.0;GX;0.0;GY;0.0;GZ;0.0;MAGX;-1.0;MAGY;314.0;MAGZ;2.0
MOT;0;1000.0;1;1000.0;2;1000.0;3;1000.0;4;0.0;5;0.0;6;0.0;7;0.0;
RC;ROLL;1503.0;PITCH;1502.0;YAW;1501.0;THROTTLE;1095.0;AUX1;1683.0;AUX2;1500.0;AUX3;1500.0;AUX4;1500.0
ALTITUDE;231.0
DEBUG;DEBUG1231.0;DEBUG2;0.0;DEBUG3;0.0;DEBUG4;0.0
ATTITUDE;ANGX;172.0;ANGY;-4.0;HEAD;10.0
STATUS;CYCLETIME;2932;I2CERR;0;PRESENT;23;MODE;2
RAW_IMU;AX;33.0;AY;-23.0;AZ;-259.0;GX;-5.0;GY;1.0;GZ;0.0;MAGX;-2.0;MAGY;314.0;MAGZ;2.0
MOT;0;1000.0;1;1000.0;2;1000.0;3;1000.0;4;0.0;5;0.0;6;0.0;7;0.0;
