IDENT;V;220;TYPE;3
MSP_MOTOR_PINS
STATUS;CYCLETIME;3156;I2CERR;0;PRESENT;23;MODE;2
RAW_IMU;AX;41.0;AY;-16.0;AZ;249.0;GX;0.0;GY;0.0;GZ;0.0;MAGX;-11.0;MAGY;-5.0;MAGZ;-16.0
MOT;0;1000.0;1;1000.0;2;1000.0;3;1000.0;4;0.0;5;0.0;6;0.0;7;0.0;
RC;ROLL;1507.0;PITCH;1505.0;YAW;1522.0;THROTTLE;1062.0;AUX1;1540.0;AUX2;1500.0;AUX3;1500.0;AUX4;1500.0
ALTITUDE;36.0
DEBUG;DEBUG136.0;DEBUG2;0.0;DEBUG3;0.0;DEBUG4;0.0
ATTITUDE;ANGX;7.0;ANGY;-3.0;HEAD;132.0
STATUS;CYCLETIME;2864;I2CERR;0;PRESENT;23;MODE;2
RAW_IMU;AX;40.0;AY;-16.0;AZ;249.0;GX;0.0;GY;0.0;GZ;0.0;MAGX;-12.0;MAGY;-5.0;MAGZ;-17.0
MOT;0;1000.0;1;1000.0;2;1000.0;3;1000.0;4;0.0;5;0.0;6;0.0;7;0.0;
RC;ROLL;1505.0;PITCH;1505.0;YAW;1522.0;THROTTLE;1060.0;AUX1;1540.0;AUX2;1500.0;AUX3;1500.0;AUX4;1500.0
ALTITUDE;36.0
DEBUG;DEBUG136.0;DEBUG2;0.0;DEBUG3;0.0;DEBUG4;0.0
ATTITUDE;ANGX;7.0;ANGY;-3.0;HEAD;132.0
ATTITUDE;ANGX;7.0;ANGY;-3.0;HEAD;132.0
STATUS;CYCLETIME;3148;I2CERR;0;PRESENT;23;MODE;2
RAW_IMU;AX;40.0;AY;-16.0;AZ;249.0;GX;0.0;GY;0.0;GZ;0.0;MAGX;-11.0;MAGY;-4.0;MAGZ;-17.0
MOT;0;1000.0;1;1000.0;2;1000.0;3;1000.0;4;0.0;5;0.0;6;0.0;7;0.0;
RC;ROLL;1502.0;PITCH;1509.0;YAW;1522.0;THROTTLE;1060.0;AUX1;1540.0;AUX2;1500.0;AUX3;1500.0;AUX4;1500.0
ALTITUDE;36.0
DEBUG;DEBUG136.0;DEBUG2;0.0;DEBUG3;0.0;DEBUG4;0.0
ATTITUDE;ANGX;7.0;ANGY;-3.0;HEAD;132.0
STATUS;CYCLETIME;2860;I2CERR;0;PRESENT;23;MODE;2
RAW_IMU;AX;41.0;AY;-17.0;AZ;249.0;GX;0.0;GY;0.0;GZ;0.0;MAGX;-11.0;MAGY;-4.0;MAGZ;-17.0
MOT;0;1000.0;1;1000.0;2;1000.0;3;1000.0;4;0.0;5;0.0;6;0.0;7;0.0;
RC;ROLL;1502.0;PITCH;1509.0;YAW;1522.0;THROTTLE;1060.0;AUX1;1540.0;AUX2;1500.0;AUX3;1500.0;AUX4;1500.0
ALTITUDE;36.0
DEBUG;DEBUG136.0;DEBUG2;0.0;DEBUG3;0.0;DEBUG4;0.0
ATTITUDE;ANGX;7.0;ANGY;-3.0;HEAD;132.0
STATUS;CYCLETIME;3144;I2CERR;0;PRESENT;23;MODE;2
RAW_IMU;AX;41.0;AY;-17.0;AZ;250.0;GX;0.0;GY;0.0;GZ;0.0;MAGX;-12.0;MAGY;-5.0;MAGZ;-16.0
MOT;0;1000.0;1;1000.0;2;1000.0;3;1000.0;4;0.0;5;0.0;6;0.0;7;0.0;
RC;ROLL;1502.0;PITCH;1509.0;YAW;1522.0;THROTTLE;1060.0;AUX1;1540.0;AUX2;1500.0;AUX3;1500.0;AUX4;1500.0
ALTITUDE;36.0
DEBUG;DEBUG136.0;DEBUG2;0.0;DEBUG3;0.0;DEBUG4;0.0
ATTITUDE;ANGX;7.0;ANGY;-3.0;HEAD;132.0
STATUS;CYCLETIME;2864;I2CERR;0;PRESENT;23;MODE;2
RAW_IMU;AX;41.0;AY;-17.0;AZ;250.0;GX;0.0;GY;0.0;GZ;0.0;MAGX;-12.0;MAGY;-5.0;MAGZ;-16.0
MOT;0;1000.0;1;1000.0;2;1000.0;3;1000.0;4;0.0;5;0.0;6;0.0;7;0.0;
RC;ROLL;1502.0;PITCH;1509.0;YAW;1522.0;THROTTLE;1060.0;AUX1;1542.0;AUX2;1500.0;AUX3;1500.0;AUX4;1500.0
ALTITUDE;36.0
DEBUG;DEBUG136.0;DEBUG2;0.0;DEBUG3;0.0;DEBUG4;0.0
ATTITUDE;ANGX;7.0;ANGY;-3.0;HEAD;132.0
STATUS;CYCLETIME;2964;I2CERR;0;PRESENT;23;MODE;2
RAW_IMU;AX;41.0;AY;-17.0;AZ;249.0;GX;0.0;GY;0.0;GZ;0.0;MAGX;-12.0;MAGY;-5.0;MAGZ;-16.0
MOT;0;1000.0;1;1000.0;2;1000.0;3;1000.0;4;0.0;5;0.0;6;0.0;7;0.0;
RC;ROLL;1502.0;PITCH;1509.0;YAW;1522.0;THROTTLE;1060.0;AUX1;1542.0;AUX2;1500.0;AUX3;1500.0;AUX4;1500.0
ALTITUDE;36.0
DEBUG;DEBUG136.0;DEBUG2;0.0;DEBUG3;0.0;DEBUG4;0.0
ATTITUDE;ANGX;7.0;ANGY;-3.0;HEAD;132.0
STATUS;CYCLETIME;2888;I2CERR;0;PRESENT;23;MODE;2
RAW_IMU;AX;41.0;AY;-17.0;AZ;249.0;GX;0.0;GY;0.0;GZ;0.0;MAGX;-12.0;MAGY;-5.0;MAGZ;-16.0
MOT;0;1000.0;1;1000.0;2;1000.0;3;1000.0;4;0.0;5;0.0;6;0.0;7;0.0;
RC;ROLL;1502.0;PITCH;1509.0;YAW;1522.0;THROTTLE;1060.0;AUX1;1542.0;AUX2;1500.0;AUX3;1500.0;AUX4;1500.0
ALTITUDE;36.0
DEBUG;DEBUG136.0;DEBUG2;0.0;DEBUG3;0.0;DEBUG4;0.0
ATTITUDE;ANGX;7.0;ANGY;-3.0;HEAD;132.0
STATUS;CYCLETIME;3176;I2CERR;0;PRESENT;23;MODE;2
RAW_IMU;AX;42.0;AY;-17.0;AZ;249.0;GX;0.0;GY;0.0;GZ;0.0;MAGX;-12.0;MAGY;-5.0;MAGZ;-16.0
MOT;0;1000.0;1;1000.0;2;1000.0;3;1000.0;4;0.0;5;0.0;6;0.0;7;0.0;
RC;ROLL;1502.0;PITCH;1509.0;YAW;1522.0;THROTTLE;1060.0;AUX1;1542.0;AUX2;1500.0;AUX3;1500.0;AUX4;1500.0
ALTITUDE;36.0
DEBUG;DEBUG136.0;DEBUG2;0.0;DEBUG3;0.0;DEBUG4;0.0
ATTITUDE;ANGX;7.0;ANGY;-3.0;HEAD;132.0
STATUS;CYCLETIME;3084;I2CERR;0;PRESENT;23;MODE;2
RAW_IMU;AX;42.0;AY;-17.0;AZ;250.0;GX;-1.0;GY;0.0;GZ;0.0;MAGX;-12.0;MAGY;-4.0;MAGZ;-17.0
MOT;0;1000.0;1;1000.0;2;1000.0;3;1000.0;4;0.0;5;0.0;6;0.0;7;0.0;
RC;ROLL;1502.0;PITCH;1509.0;YAW;1522.0;THROTTLE;1060.0;AUX1;1542.0;AUX2;1500.0;AUX3;1500.0;AUX4;1500.0
ALTITUDE;36.0
DEBUG;DEBUG136.0;DEBUG2;0.0;DEBUG3;0.0;DEBUG4;0.0
ATTITUDE;ANGX;7.0;ANGY;-3.0;HEAD;132.0
STATUS;CYCLETIME;2864;I2CERR;0;PRESENT;23;MODE;2
RAW_IMU;AX;41.0;AY;-17.0;AZ;250.0;GX;-1.0;GY;0.0;GZ;0.0;MAGX;-12.0;MAGY;-4.0;MAGZ;-17.0
MOT;0;1000.0;1;1000.0;2;1000.0;3;1000.0;4;0.0;5;0.0;6;0.0;7;0.0;
RC;ROLL;1502.0;PITCH;1505.0;YAW;1522.0;THROTTLE;1060.0;AUX1;1542.0;AUX2;1500.0;AUX3;1500.0;AUX4;1500.0
ALTITUDE;36.0
DEBUG;DEBUG136.0;DEBUG2;0.0;DEBUG3;0.0;DEBUG4;0.0
ATTITUDE;ANGX;7.0;ANGY;-3.0;HEAD;131.0
STATUS;CYCLETIME;2836;I2CERR;0;PRESENT;23;MODE;2
RAW_IMU;AX;41.0;AY;-16.0;AZ;250.0;GX;-1.0;GY;0.0;GZ;0.0;MAGX;-12.0;MAGY;-4.0;MAGZ;-16.0
MOT;0;1000.0;1;1000.0;2;1000.0;3;1000.0;4;0.0;5;0.0;6;0.0;7;0.0;
RC;ROLL;1502.0;PITCH;1505.0;YAW;1522.0;THROTTLE;1060.0;AUX1;1542.0;AUX2;1500.0;AUX3;1500.0;AUX4;1500.0
ALTITUDE;36.0
DEBUG;DEBUG136.0;DEBUG2;0.0;DEBUG3;0.0;DEBUG4;0.0
ATTITUDE;ANGX;7.0;ANGY;-3.0;HEAD;131.0
STATUS;CYCLETIME;2824;I2CERR;0;PRESENT;23;MODE;2
RAW_IMU;AX;41.0;AY;-17.0;AZ;250.0;GX;-1.0;GY;0.0;GZ;0.0;MAGX;-12.0;MAGY;-4.0;MAGZ;-16.0
MOT;0;1000.0;1;1000.0;2;1000.0;3;1000.0;4;0.0;5;0.0;6;0.0;7;0.0;
RC;ROLL;1502.0;PITCH;1505.0;YAW;1522.0;THROTTLE;1060.0;AUX1;1542.0;AUX2;1500.0;AUX3;1500.0;AUX4;1500.0
ALTITUDE;36.0
DEBUG;DEBUG136.0;DEBUG2;0.0;DEBUG3;0.0;DEBUG4;0.0
ATTITUDE;ANGX;7.0;ANGY;-3.0;HEAD;131.0
STATUS;CYCLETIME;2824;I2CERR;0;PRESENT;23;MODE;2
RAW_IMU;AX;41.0;AY;-17.0;AZ;250.0;GX;0.0;GY;0.0;GZ;0.0;MAGX;-11.0;MAGY;-4.0;MAGZ;-16.0
MOT;0;1000.0;1;1000.0;2;1000.0;3;1000.0;4;0.0;5;0.0;6;0.0;7;0.0;
RC;ROLL;1502.0;PITCH;1507.0;YAW;1522.0;THROTTLE;1060.0;AUX1;1542.0;AUX2;1500.0;AUX3;1500.0;AUX4;1500.0
ALTITUDE;36.0
DEBUG;DEBUG136.0;DEBUG2;0.0;DEBUG3;0.0;DEBUG4;0.0
ATTITUDE;ANGX;7.0;ANGY;-3.0;HEAD;131.0
STATUS;CYCLETIME;2948;I2CERR;0;PRESENT;23;MODE;2
RAW_IMU;AX;41.0;AY;-17.0;AZ;250.0;GX;0.0;GY;0.0;GZ;0.0;MAGX;-11.0;MAGY;-4.0;MAGZ;-16.0
MOT;0;1000.0;1;1000.0;2;1000.0;3;1000.0;4;0.0;5;0.0;6;0.0;7;0.0;
RC;ROLL;1502.0;PITCH;1507.0;YAW;1520.0;THROTTLE;1060.0;AUX1;1542.0;AUX2;1500.0;AUX3;1500.0;AUX4;1500.0
ALTITUDE;36.0
DEBUG;DEBUG136.0;DEBUG2;0.0;DEBUG3;0.0;DEBUG4;0.0
ATTITUDE;ANGX;7.0;ANGY;-3.0;HEAD;131.0
STATUS;CYCLETIME;2872;I2CERR;0;PRESENT;23;MODE;2
RAW_IMU;AX;41.0;AY;-17.0;AZ;250.0;GX;0.0;GY;0.0;GZ;0.0;MAGX;-12.0;MAGY;-6.0;MAGZ;-15.0
MOT;0;1000.0;1;1000.0;2;1000.0;3;1000.0;4;0.0;5;0.0;6;0.0;7;0.0;
RC;ROLL;1502.0;PITCH;1507.0;YAW;1520.0;THROTTLE;1060.0;AUX1;1540.0;AUX2;1500.0;AUX3;1500.0;AUX4;1500.0
ALTITUDE;36.0
DEBUG;DEBUG136.0;DEBUG2;0.0;DEBUG3;0.0;DEBUG4;0.0
ATTITUDE;ANGX;7.0;ANGY;-3.0;HEAD;131.0
STATUS;CYCLETIME;2876;I2CERR;0;PRESENT;23;MODE;2
RAW_IMU;AX;41.0;AY;-16.0;AZ;249.0;GX;0.0;GY;0.0;GZ;0.0;MAGX;-12.0;MAGY;-6.0;MAGZ;-15.0
MOT;0;1000.0;1;1000.0;2;1000.0;3;1000.0;4;0.0;5;0.0;6;0.0;7;0.0;
RC;ROLL;1502.0;PITCH;1507.0;YAW;1520.0;THROTTLE;1060.0;AUX1;1540.0;AUX2;1500.0;AUX3;1500.0;AUX4;1500.0
ALTITUDE;36.0
DEBUG;DEBUG136.0;DEBUG2;0.0;DEBUG3;0.0;DEBUG4;0.0
ATTITUDE;ANGX;7.0;ANGY;-3.0;HEAD;131.0
STATUS;CYCLETIME;2924;I2CERR;0;PRESENT;23;MODE;2
RAW_IMU;AX;41.0;AY;-16.0;AZ;250.0;GX;0.0;GY;0.0;GZ;0.0;MAGX;-11.0;MAGY;-4.0;MAGZ;-17.0
MOT;0;1000.0;1;1000.0;2;1000.0;3;1000.0;4;0.0;5;0.0;6;0.0;7;0.0;
RC;ROLL;1502.0;PITCH;1507.0;YAW;1520.0;THROTTLE;1060.0;AUX1;1540.0;AUX2;1500.0;AUX3;1500.0;AUX4;1500.0
ALTITUDE;36.0
DEBUG;DEBUG136.0;DEBUG2;0.0;DEBUG3;0.0;DEBUG4;0.0
ATTITUDE;ANGX;7.0;ANGY;-3.0;HEAD;132.0
STATUS;CYCLETIME;2816;I2CERR;0;PRESENT;23;MODE;2
RAW_IMU;AX;41.0;AY;-17.0;AZ;249.0;GX;0.0;GY;0.0;GZ;0.0;MAGX;-11.0;MAGY;-4.0;MAGZ;-17.0
MOT;0;1000.0;1;1000.0;2;1000.0;3;1000.0;4;0.0;5;0.0;6;0.0;7;0.0;
RC;ROLL;1502.0;PITCH;1507.0;YAW;1520.0;THROTTLE;1062.0;AUX1;1540.0;AUX2;1500.0;AUX3;1500.0;AUX4;1500.0
ALTITUDE;36.0
DEBUG;DEBUG136.0;DEBUG2;0.0;DEBUG3;0.0;DEBUG4;0.0
ATTITUDE;ANGX;7.0;ANGY;-3.0;HEAD;132.0
STATUS;CYCLETIME;2860;I2CERR;0;PRESENT;23;MODE;2
RAW_IMU;AX;41.0;AY;-16.0;AZ;249.0;GX;0.0;GY;0.0;GZ;0.0;MAGX;-12.0;MAGY;-4.0;MAGZ;-16.0
MOT;0;1000.0;1;1000.0;2;1000.0;3;1000.0;4;0.0;5;0.0;6;0.0;7;0.0;
RC;ROLL;1502.0;PITCH;1507.0;YAW;1520.0;THROTTLE;1062.0;AUX1;1540.0;AUX2;1500.0;AUX3;1500.0;AUX4;1500.0
ALTITUDE;36.0
DEBUG;DEBUG136.0;DEBUG2;0.0;DEBUG3;0.0;DEBUG4;0.0
ATTITUDE;ANGX;7.0;ANGY;-3.0;HEAD;132.0
STATUS;CYCLETIME;2864;I2CERR;0;PRESENT;23;MODE;2
RAW_IMU;AX;41.0;AY;-17.0;AZ;249.0;GX;0.0;GY;0.0;GZ;0.0;MAGX;-12.0;MAGY;-4.0;MAGZ;-16.0
MOT;0;1000.0;1;1000.0;2;1000.0;3;1000.0;4;0.0;5;0.0;6;0.0;7;0.0;
RC;ROLL;1502.0;PITCH;1507.0;YAW;1520.0;THROTTLE;1062.0;AUX1;1538.0;AUX2;1500.0;AUX3;1500.0;AUX4;1500.0
ALTITUDE;36.0
DEBUG;DEBUG136.0;DEBUG2;0.0;DEBUG3;0.0;DEBUG4;0.0
ATTITUDE;ANGX;7.0;ANGY;-3.0;HEAD;131.0
STATUS;CYCLETIME;2848;I2CERR;0;PRESENT;23;MODE;2
RAW_IMU;AX;41.0;AY;-17.0;AZ;249.0;GX;0.0;GY;0.0;GZ;0.0;MAGX;-12.0;MAGY;-6.0;MAGZ;-17.0
MOT;0;1000.0;1;1000.0;2;1000.0;3;1000.0;4;0.0;5;0.0;6;0.0;7;0.0;
RC;ROLL;1502.0;PITCH;1505.0;YAW;1520.0;THROTTLE;1062.0;AUX1;1538.0;AUX2;1500.0;AUX3;1500.0;AUX4;1500.0
ALTITUDE;36.0
DEBUG;DEBUG136.0;DEBUG2;0.0;DEBUG3;0.0;DEBUG4;0.0
ATTITUDE;ANGX;7.0;ANGY;-3.0;HEAD;132.0
STATUS;CYCLETIME;2972;I2CERR;0;PRESENT;23;MODE;2
RAW_IMU;AX;41.0;AY;-17.0;AZ;250.0;GX;0.0;GY;0.0;GZ;0.0;MAGX;-12.0;MAGY;-6.0;MAGZ;-17.0
MOT;0;1000.0;1;1000.0;2;1000.0;3;1000.0;4;0.0;5;0.0;6;0.0;7;0.0;
RC;ROLL;1502.0;PITCH;1505.0;YAW;1520.0;THROTTLE;1062.0;AUX1;1540.0;AUX2;1500.0;AUX3;1500.0;AUX4;1500.0
ALTITUDE;36.0
DEBUG;DEBUG136.0;DEBUG2;0.0;DEBUG3;0.0;DEBUG4;0.0
ATTITUDE;ANGX;7.0;ANGY;-3.0;HEAD;132.0
STATUS;CYCLETIME;3112;I2CERR;0;PRESENT;23;MODE;2
RAW_IMU;AX;41.0;AY;-17.0;AZ;249.0;GX;0.0;GY;0.0;GZ;0.0;MAGX;-11.0;MAGY;-5.0;MAGZ;-16.0
MOT;0;1000.0;1;1000.0;2;1000.0;3;1000.0;4;0.0;5;0.0;6;0.0;7;0.0;
RC;ROLL;1502.0;PITCH;1505.0;YAW;1520.0;THROTTLE;1062.0;AUX1;1540.0;AUX2;1500.0;AUX3;1500.0;AUX4;1500.0
ALTITUDE;36.0
DEBUG;DEBUG136.0;DEBUG2;0.0;DEBUG3;0.0;DEBUG4;0.0
ATTITUDE;ANGX;7.0;ANGY;-3.0;HEAD;133.0
STATUS;CYCLETIME;2864;I2CERR;0;PRESENT;23;MODE;2
RAW_IMU;AX;41.0;AY;-16.0;AZ;249.0;GX;0.0;GY;0.0;GZ;0.0;MAGX;-11.0;MAGY;-5.0;MAGZ;-16.0
MOT;0;1000.0;1;1000.0;2;1000.0;3;1000.0;4;0.0;5;0.0;6;0.0;7;0.0;
RC;ROLL;1502.0;PITCH;1505.0;YAW;1520.0;THROTTLE;1062.0;AUX1;1540.0;AUX2;1500.0;AUX3;1500.0;AUX4;1500.0
ALTITUDE;36.0
DEBUG;DEBUG136.0;DEBUG2;0.0;DEBUG3;0.0;DEBUG4;0.0
ATTITUDE;ANGX;7.0;ANGY;-3.0;HEAD;133.0
STATUS;CYCLETIME;2856;I2CERR;0;PRESENT;23;MODE;2
RAW_IMU;AX;41.0;AY;-16.0;AZ;249.0;GX;-1.0;GY;0.0;GZ;0.0;MAGX;-11.0;MAGY;-4.0;MAGZ;-16.0
MOT;0;1000.0;1;1000.0;2;1000.0;3;1000.0;4;0.0;5;0.0;6;0.0;7;0.0;
RC;ROLL;1502.0;PITCH;1505.0;YAW;1520.0;THROTTLE;1062.0;AUX1;1540.0;AUX2;1500.0;AUX3;1500.0;AUX4;1500.0
ALTITUDE;36.0
DEBUG;DEBUG136.0;DEBUG2;0.0;DEBUG3;0.0;DEBUG4;0.0
ATTITUDE;ANGX;7.0;ANGY;-3.0;HEAD;133.0
STATUS;CYCLETIME;2828;I2CERR;0;PRESENT;23;MODE;2
RAW_IMU;AX;41.0;AY;-16.0;AZ;249.0;GX;-1.0;GY;0.0;GZ;0.0;MAGX;-11.0;MAGY;-4.0;MAGZ;-16.0
MOT;0;1000.0;1;1000.0;2;1000.0;3;1000.0;4;0.0;5;0.0;6;0.0;7;0.0;
RC;ROLL;1502.0;PITCH;1505.0;YAW;1520.0;THROTTLE;1062.0;AUX1;1540.0;AUX2;1500.0;AUX3;1500.0;AUX4;1500.0
ALTITUDE;36.0
DEBUG;DEBUG136.0;DEBUG2;0.0;DEBUG3;0.0;DEBUG4;0.0
ATTITUDE;ANGX;7.0;ANGY;-3.0;HEAD;133.0
STATUS;CYCLETIME;3152;I2CERR;0;PRESENT;23;MODE;2
RAW_IMU;AX;41.0;AY;-16.0;AZ;250.0;GX;0.0;GY;0.0;GZ;0.0;MAGX;-11.0;MAGY;-5.0;MAGZ;-16.0
MOT;0;1000.0;1;1000.0;2;1000.0;3;1000.0;4;0.0;5;0.0;6;0.0;7;0.0;
RC;ROLL;1502.0;PITCH;1505.0;YAW;1520.0;THROTTLE;1062.0;AUX1;1540.0;AUX2;1500.0;AUX3;1500.0;AUX4;1500.0
ALTITUDE;36.0
DEBUG;DEBUG136.0;DEBUG2;0.0;DEBUG3;0.0;DEBUG4;0.0
ATTITUDE;ANGX;7.0;ANGY;-3.0;HEAD;133.0
STATUS;CYCLETIME;3116;I2CERR;0;PRESENT;23;MODE;2
RAW_IMU;AX;41.0;AY;-16.0;AZ;250.0;GX;0.0;GY;0.0;GZ;0.0;MAGX;-11.0;MAGY;-5.0;MAGZ;-16.0
MOT;0;1000.0;1;1000.0;2;1000.0;3;1000.0;4;0.0;5;0.0;6;0.0;7;0.0;
RC;ROLL;1504.0;PITCH;1507.0;YAW;1520.0;THROTTLE;1062.0;AUX1;1540.0;AUX2;1500.0;AUX3;1500.0;AUX4;1500.0
ALTITUDE;36.0
DEBUG;DEBUG136.0;DEBUG2;0.0;DEBUG3;0.0;DEBUG4;0.0
ATTITUDE;ANGX;7.0;ANGY;-3.0;HEAD;133.0
STATUS;CYCLETIME;2880;I2CERR;0;PRESENT;23;MODE;2
RAW_IMU;AX;41.0;AY;-17.0;AZ;249.0;GX;0.0;GY;0.0;GZ;0.0;MAGX;-11.0;MAGY;-5.0;MAGZ;-16.0
MOT;0;1000.0;1;1000.0;2;1000.0;3;1000.0;4;0.0;5;0.0;6;0.0;7;0.0;
RC;ROLL;1504.0;PITCH;1507.0;YAW;1520.0;THROTTLE;1062.0;AUX1;1540.0;AUX2;1500.0;AUX3;1500.0;AUX4;1500.0
ALTITUDE;36.0
DEBUG;DEBUG136.0;DEBUG2;0.0;DEBUG3;0.0;DEBUG4;0.0
ATTITUDE;ANGX;7.0;ANGY;-3.0;HEAD;133.0
STATUS;CYCLETIME;2872;I2CERR;0;PRESENT;23;MODE;2
RAW_IMU;AX;41.0;AY;-16.0;AZ;249.0;GX;0.0;GY;0.0;GZ;0.0;MAGX;-12.0;MAGY;-5.0;MAGZ;-16.0
MOT;0;1000.0;1;1000.0;2;1000.0;3;1000.0;4;0.0;5;0.0;6;0.0;7;0.0;
RC;ROLL;1504.0;PITCH;1507.0;YAW;1520.0;THROTTLE;1062.0;AUX1;1540.0;AUX2;1500.0;AUX3;1500.0;AUX4;1500.0
ALTITUDE;36.0
DEBUG;DEBUG136.0;DEBUG2;0.0;DEBUG3;0.0;DEBUG4;0.0
ATTITUDE;ANGX;7.0;ANGY;-3.0;HEAD;134.0
STATUS;CYCLETIME;2900;I2CERR;0;PRESENT;23;MODE;2
RAW_IMU;AX;41.0;AY;-16.0;AZ;249.0;GX;-1.0;GY;0.0;GZ;0.0;MAGX;-12.0;MAGY;-5.0;MAGZ;-16.0
MOT;0;1000.0;1;1000.0;2;1000.0;3;1000.0;4;0.0;5;0.0;6;0.0;7;0.0;
RC;ROLL;1504.0;PITCH;1507.0;YAW;1520.0;THROTTLE;1059.0;AUX1;1542.0;AUX2;1500.0;AUX3;1500.0;AUX4;1500.0
ALTITUDE;36.0
DEBUG;DEBUG136.0;DEBUG2;0.0;DEBUG3;0.0;DEBUG4;0.0
ATTITUDE;ANGX;7.0;ANGY;-3.0;HEAD;134.0
STATUS;CYCLETIME;2820;I2CERR;0;PRESENT;23;MODE;2
RAW_IMU;AX;41.0;AY;-16.0;AZ;250.0;GX;0.0;GY;0.0;GZ;0.0;MAGX;-12.0;MAGY;-5.0;MAGZ;-16.0
MOT;0;1000.0;1;1000.0;2;1000.0;3;1000.0;4;0.0;5;0.0;6;0.0;7;0.0;
RC;ROLL;1502.0;PITCH;1507.0;YAW;1520.0;THROTTLE;1059.0;AUX1;1542.0;AUX2;1500.0;AUX3;1500.0;AUX4;1500.0
ALTITUDE;36.0
DEBUG;DEBUG136.0;DEBUG2;0.0;DEBUG3;0.0;DEBUG4;0.0
ATTITUDE;ANGX;7.0;ANGY;-3.0;HEAD;134.0
STATUS;CYCLETIME;2864;I2CERR;0;PRESENT;23;MODE;2
RAW_IMU;AX;41.0;AY;-16.0;AZ;250.0;GX;0.0;GY;0.0;GZ;0.0;MAGX;-12.0;MAGY;-5.0;MAGZ;-16.0
MOT;0;1000.0;1;1000.0;2;1000.0;3;1000.0;4;0.0;5;0.0;6;0.0;7;0.0;
RC;ROLL;1502.0;PITCH;1507.0;YAW;1520.0;THROTTLE;1059.0;AUX1;1542.0;AUX2;1500.0;AUX3;1500.0;AUX4;1500.0
ALTITUDE;36.0
DEBUG;DEBUG136.0;DEBUG2;0.0;DEBUG3;0.0;DEBUG4;0.0
ATTITUDE;ANGX;7.0;ANGY;-3.0;HEAD;134.0
STATUS;CYCLETIME;2836;I2CERR;0;PRESENT;23;MODE;2
RAW_IMU;AX;40.0;AY;-16.0;AZ;249.0;GX;0.0;GY;0.0;GZ;0.0;MAGX;-11.0;MAGY;-5.0;MAGZ;-16.0
MOT;0;1000.0;1;1000.0;2;1000.0;3;1000.0;4;0.0;5;0.0;6;0.0;7;0.0;
RC;ROLL;1502.0;PITCH;1507.0;YAW;1520.0;THROTTLE;1059.0;AUX1;1542.0;AUX2;1500.0;AUX3;1500.0;AUX4;1500.0
ALTITUDE;36.0
DEBUG;DEBUG136.0;DEBUG2;0.0;DEBUG3;0.0;DEBUG4;0.0
ATTITUDE;ANGX;7.0;ANGY;-3.0;HEAD;134.0
STATUS;CYCLETIME;2960;I2CERR;0;PRESENT;23;MODE;2
RAW_IMU;AX;40.0;AY;-16.0;AZ;249.0;GX;0.0;GY;0.0;GZ;0.0;MAGX;-11.0;MAGY;-5.0;MAGZ;-16.0
MOT;0;1000.0;1;1000.0;2;1000.0;3;1000.0;4;0.0;5;0.0;6;0.0;7;0.0;
RC;ROLL;1502.0;PITCH;1507.0;YAW;1520.0;THROTTLE;1059.0;AUX1;1542.0;AUX2;1500.0;AUX3;1500.0;AUX4;1500.0
ALTITUDE;36.0
DEBUG;DEBUG136.0;DEBUG2;0.0;DEBUG3;0.0;DEBUG4;0.0
ATTITUDE;ANGX;7.0;ANGY;-3.0;HEAD;134.0
STATUS;CYCLETIME;2920;I2CERR;0;PRESENT;23;MODE;2
RAW_IMU;AX;40.0;AY;-16.0;AZ;250.0;GX;0.0;GY;0.0;GZ;0.0;MAGX;-11.0;MAGY;-5.0;MAGZ;-16.0
MOT;0;1000.0;1;1000.0;2;1000.0;3;1000.0;4;0.0;5;0.0;6;0.0;7;0.0;
RC;ROLL;1502.0;PITCH;1507.0;YAW;1520.0;THROTTLE;1059.0;AUX1;1542.0;AUX2;1500.0;AUX3;1500.0;AUX4;1500.0
ALTITUDE;36.0
DEBUG;DEBUG136.0;DEBUG2;0.0;DEBUG3;0.0;DEBUG4;0.0
ATTITUDE;ANGX;7.0;ANGY;-3.0;HEAD;134.0
STATUS;CYCLETIME;2796;I2CERR;0;PRESENT;23;MODE;2
RAW_IMU;AX;40.0;AY;-16.0;AZ;250.0;GX;0.0;GY;0.0;GZ;0.0;MAGX;-11.0;MAGY;-5.0;MAGZ;-16.0
MOT;0;1000.0;1;1000.0;2;1000.0;3;1000.0;4;0.0;5;0.0;6;0.0;7;0.0;
RC;ROLL;1502.0;PITCH;1505.0;YAW;1522.0;THROTTLE;1059.0;AUX1;1542.0;AUX2;1500.0;AUX3;1500.0;AUX4;1500.0
ALTITUDE;36.0
DEBUG;DEBUG136.0;DEBUG2;0.0;DEBUG3;0.0;DEBUG4;0.0
ATTITUDE;ANGX;7.0;ANGY;-3.0;HEAD;134.0
STATUS;CYCLETIME;2876;I2CERR;0;PRESENT;23;MODE;2
RAW_IMU;AX;40.0;AY;-16.0;AZ;249.0;GX;0.0;GY;0.0;GZ;0.0;MAGX;-11.0;MAGY;-5.0;MAGZ;-17.0
MOT;0;1000.0;1;1000.0;2;1000.0;3;1000.0;4;0.0;5;0.0;6;0.0;7;0.0;
RC;ROLL;1502.0;PITCH;1505.0;YAW;1522.0;THROTTLE;1061.0;AUX1;1542.0;AUX2;1500.0;AUX3;1500.0;AUX4;1500.0
ALTITUDE;36.0
DEBUG;DEBUG136.0;DEBUG2;0.0;DEBUG3;0.0;DEBUG4;0.0
ATTITUDE;ANGX;7.0;ANGY;-3.0;HEAD;134.0
STATUS;CYCLETIME;2840;I2CERR;0;PRESENT;23;MODE;2
RAW_IMU;AX;40.0;AY;-16.0;AZ;249.0;GX;0.0;GY;0.0;GZ;0.0;MAGX;-11.0;MAGY;-5.0;MAGZ;-17.0
MOT;0;1000.0;1;1000.0;2;1000.0;3;1000.0;4;0.0;5;0.0;6;0.0;7;0.0;
RC;ROLL;1502.0;PITCH;1505.0;YAW;1520.0;THROTTLE;1061.0;AUX1;1540.0;AUX2;1500.0;AUX3;1500.0;AUX4;1500.0
ALTITUDE;36.0
DEBUG;DEBUG136.0;DEBUG2;0.0;DEBUG3;0.0;DEBUG4;0.0
ATTITUDE;ANGX;7.0;ANGY;-3.0;HEAD;134.0
STATUS;CYCLETIME;2964;I2CERR;0;PRESENT;23;MODE;2
RAW_IMU;AX;40.0;AY;-17.0;AZ;249.0;GX;0.0;GY;0.0;GZ;0.0;MAGX;-11.0;MAGY;-5.0;MAGZ;-16.0
MOT;0;1000.0;1;1000.0;2;1000.0;3;1000.0;4;0.0;5;0.0;6;0.0;7;0.0;
RC;ROLL;1502.0;PITCH;1505.0;YAW;1520.0;THROTTLE;1061.0;AUX1;1540.0;AUX2;1500.0;AUX3;1500.0;AUX4;1500.0
ALTITUDE;36.0
DEBUG;DEBUG136.0;DEBUG2;0.0;DEBUG3;0.0;DEBUG4;0.0
ATTITUDE;ANGX;7.0;ANGY;-3.0;HEAD;134.0
STATUS;CYCLETIME;2864;I2CERR;0;PRESENT;23;MODE;2
RAW_IMU;AX;41.0;AY;-16.0;AZ;250.0;GX;0.0;GY;0.0;GZ;0.0;MAGX;-11.0;MAGY;-5.0;MAGZ;-16.0
MOT;0;1000.0;1;1000.0;2;1000.0;3;1000.0;4;0.0;5;0.0;6;0.0;7;0.0;
RC;ROLL;1502.0;PITCH;1505.0;YAW;1520.0;THROTTLE;1061.0;AUX1;1540.0;AUX2;1500.0;AUX3;1500.0;AUX4;1500.0
ALTITUDE;36.0
DEBUG;DEBUG136.0;DEBUG2;0.0;DEBUG3;0.0;DEBUG4;0.0
ATTITUDE;ANGX;7.0;ANGY;-3.0;HEAD;134.0
STATUS;CYCLETIME;3116;I2CERR;0;PRESENT;23;MODE;2
RAW_IMU;AX;41.0;AY;-17.0;AZ;250.0;GX;-1.0;GY;0.0;GZ;0.0;MAGX;-12.0;MAGY;-4.0;MAGZ;-17.0
MOT;0;1000.0;1;1000.0;2;1000.0;3;1000.0;4;0.0;5;0.0;6;0.0;7;0.0;
RC;ROLL;1502.0;PITCH;1505.0;YAW;1520.0;THROTTLE;1063.0;AUX1;1540.0;AUX2;1500.0;AUX3;1500.0;AUX4;1500.0
ALTITUDE;36.0
DEBUG;DEBUG136.0;DEBUG2;0.0;DEBUG3;0.0;DEBUG4;0.0
ATTITUDE;ANGX;7.0;ANGY;-3.0;HEAD;134.0
STATUS;CYCLETIME;2840;I2CERR;0;PRESENT;23;MODE;2
RAW_IMU;AX;41.0;AY;-17.0;AZ;250.0;GX;-1.0;GY;0.0;GZ;0.0;MAGX;-12.0;MAGY;-4.0;MAGZ;-17.0
MOT;0;1000.0;1;1000.0;2;1000.0;3;1000.0;4;0.0;5;0.0;6;0.0;7;0.0;
RC;ROLL;1502.0;PITCH;1505.0;YAW;1520.0;THROTTLE;1061.0;AUX1;1540.0;AUX2;1500.0;AUX3;1500.0;AUX4;1500.0
ALTITUDE;36.0
DEBUG;DEBUG136.0;DEBUG2;0.0;DEBUG3;0.0;DEBUG4;0.0
ATTITUDE;ANGX;7.0;ANGY;-3.0;HEAD;134.0
STATUS;CYCLETIME;3168;I2CERR;0;PRESENT;23;MODE;2
RAW_IMU;AX;41.0;AY;-17.0;AZ;250.0;GX;-1.0;GY;0.0;GZ;0.0;MAGX;-11.0;MAGY;-5.0;MAGZ;-16.0
MOT;0;1000.0;1;1000.0;2;1000.0;3;1000.0;4;0.0;5;0.0;6;0.0;7;0.0;
RC;ROLL;1502.0;PITCH;1507.0;YAW;1520.0;THROTTLE;1061.0;AUX1;1542.0;AUX2;1500.0;AUX3;1500.0;AUX4;1500.0
ALTITUDE;36.0
DEBUG;DEBUG136.0;DEBUG2;0.0;DEBUG3;0.0;DEBUG4;0.0
ATTITUDE;ANGX;7.0;ANGY;-3.0;HEAD;134.0
STATUS;CYCLETIME;2872;I2CERR;0;PRESENT;23;MODE;2
RAW_IMU;AX;41.0;AY;-16.0;AZ;250.0;GX;-1.0;GY;0.0;GZ;0.0;MAGX;-11.0;MAGY;-5.0;MAGZ;-16.0
MOT;0;1000.0;1;1000.0;2;1000.0;3;1000.0;4;0.0;5;0.0;6;0.0;7;0.0;
RC;ROLL;1502.0;PITCH;1507.0;YAW;1520.0;THROTTLE;1061.0;AUX1;1542.0;AUX2;1500.0;AUX3;1500.0;AUX4;1500.0
ALTITUDE;36.0
DEBUG;DEBUG136.0;DEBUG2;0.0;DEBUG3;0.0;DEBUG4;0.0
ATTITUDE;ANGX;7.0;ANGY;-3.0;HEAD;134.0
STATUS;CYCLETIME;2868;I2CERR;0;PRESENT;23;MODE;2
RAW_IMU;AX;40.0;AY;-16.0;AZ;250.0;GX;0.0;GY;0.0;GZ;0.0;MAGX;-12.0;MAGY;-5.0;MAGZ;-17.0
MOT;0;1000.0;1;1000.0;2;1000.0;3;1000.0;4;0.0;5;0.0;6;0.0;7;0.0;
RC;ROLL;1502.0;PITCH;1507.0;YAW;1520.0;THROTTLE;1061.0;AUX1;1542.0;AUX2;1500.0;AUX3;1500.0;AUX4;1500.0
ALTITUDE;36.0
DEBUG;DEBUG136.0;DEBUG2;0.0;DEBUG3;0.0;DEBUG4;0.0
ATTITUDE;ANGX;7.0;ANGY;-3.0;HEAD;134.0
STATUS;CYCLETIME;2996;I2CERR;0;PRESENT;23;MODE;2
RAW_IMU;AX;41.0;AY;-17.0;AZ;250.0;GX;0.0;GY;0.0;GZ;0.0;MAGX;-12.0;MAGY;-5.0;MAGZ;-17.0
MOT;0;1000.0;1;1000.0;2;1000.0;3;1000.0;4;0.0;5;0.0;6;0.0;7;0.0;
RC;ROLL;1502.0;PITCH;1507.0;YAW;1520.0;THROTTLE;1061.0;AUX1;1542.0;AUX2;1500.0;AUX3;1500.0;AUX4;1500.0
ALTITUDE;36.0
DEBUG;DEBUG136.0;DEBUG2;0.0;DEBUG3;0.0;DEBUG4;0.0
ATTITUDE;ANGX;7.0;ANGY;-3.0;HEAD;134.0
STATUS;CYCLETIME;2856;I2CERR;0;PRESENT;23;MODE;2
RAW_IMU;AX;41.0;AY;-16.0;AZ;249.0;GX;0.0;GY;0.0;GZ;0.0;MAGX;-11.0;MAGY;-5.0;MAGZ;-15.0
MOT;0;1000.0;1;1000.0;2;1000.0;3;1000.0;4;0.0;5;0.0;6;0.0;7;0.0;
RC;ROLL;1502.0;PITCH;1507.0;YAW;1520.0;THROTTLE;1061.0;AUX1;1542.0;AUX2;1500.0;AUX3;1500.0;AUX4;1500.0
ALTITUDE;36.0
DEBUG;DEBUG136.0;DEBUG2;0.0;DEBUG3;0.0;DEBUG4;0.0
ATTITUDE;ANGX;7.0;ANGY;-3.0;HEAD;135.0
STATUS;CYCLETIME;2868;I2CERR;0;PRESENT;23;MODE;2
RAW_IMU;AX;41.0;AY;-17.0;AZ;250.0;GX;0.0;GY;0.0;GZ;0.0;MAGX;-11.0;MAGY;-5.0;MAGZ;-15.0
MOT;0;1000.0;1;1000.0;2;1000.0;3;1000.0;4;0.0;5;0.0;6;0.0;7;0.0;
RC;ROLL;1502.0;PITCH;1507.0;YAW;1520.0;THROTTLE;1061.0;AUX1;1542.0;AUX2;1500.0;AUX3;1500.0;AUX4;1500.0
ALTITUDE;36.0
DEBUG;DEBUG136.0;DEBUG2;0.0;DEBUG3;0.0;DEBUG4;0.0
ATTITUDE;ANGX;7.0;ANGY;-3.0;HEAD;135.0
STATUS;CYCLETIME;2936;I2CERR;0;PRESENT;23;MODE;2
RAW_IMU;AX;40.0;AY;-16.0;AZ;250.0;GX;0.0;GY;0.0;GZ;0.0;MAGX;-12.0;MAGY;-6.0;MAGZ;-16.0
MOT;0;1000.0;1;1000.0;2;1000.0;3;1000.0;4;0.0;5;0.0;6;0.0;7;0.0;
RC;ROLL;1502.0;PITCH;1507.0;YAW;1520.0;THROTTLE;1061.0;AUX1;1542.0;AUX2;1500.0;AUX3;1500.0;AUX4;1500.0
ALTITUDE;36.0
DEBUG;DEBUG136.0;DEBUG2;0.0;DEBUG3;0.0;DEBUG4;0.0
ATTITUDE;ANGX;7.0;ANGY;-3.0;HEAD;135.0
STATUS;CYCLETIME;2876;I2CERR;0;PRESENT;23;MODE;2
RAW_IMU;AX;40.0;AY;-16.0;AZ;250.0;GX;0.0;GY;0.0;GZ;0.0;MAGX;-12.0;MAGY;-6.0;MAGZ;-16.0
MOT;0;1000.0;1;1000.0;2;1000.0;3;1000.0;4;0.0;5;0.0;6;0.0;7;0.0;
RC;ROLL;1502.0;PITCH;1507.0;YAW;1520.0;THROTTLE;1061.0;AUX1;1542.0;AUX2;1500.0;AUX3;1500.0;AUX4;1500.0
ALTITUDE;36.0
DEBUG;DEBUG136.0;DEBUG2;0.0;DEBUG3;0.0;DEBUG4;0.0
ATTITUDE;ANGX;7.0;ANGY;-3.0;HEAD;135.0
STATUS;CYCLETIME;3108;I2CERR;0;PRESENT;23;MODE;2
RAW_IMU;AX;40.0;AY;-16.0;AZ;250.0;GX;0.0;GY;0.0;GZ;0.0;MAGX;-12.0;MAGY;-6.0;MAGZ;-16.0
MOT;0;1000.0;1;1000.0;2;1000.0;3;1000.0;4;0.0;5;0.0;6;0.0;7;0.0;
RC;ROLL;1502.0;PITCH;1507.0;YAW;1520.0;THROTTLE;1061.0;AUX1;1542.0;AUX2;1500.0;AUX3;1500.0;AUX4;1500.0
ALTITUDE;36.0
DEBUG;DEBUG136.0;DEBUG2;0.0;DEBUG3;0.0;DEBUG4;0.0
ATTITUDE;ANGX;7.0;ANGY;-3.0;HEAD;134.0
STATUS;CYCLETIME;2864;I2CERR;0;PRESENT;23;MODE;2
RAW_IMU;AX;40.0;AY;-16.0;AZ;250.0;GX;0.0;GY;0.0;GZ;0.0;MAGX;-12.0;MAGY;-4.0;MAGZ;-16.0
MOT;0;1000.0;1;1000.0;2;1000.0;3;1000.0;4;0.0;5;0.0;6;0.0;7;0.0;
RC;ROLL;1502.0;PITCH;1507.0;YAW;1520.0;THROTTLE;1061.0;AUX1;1540.0;AUX2;1500.0;AUX3;1500.0;AUX4;1500.0
ALTITUDE;36.0
DEBUG;DEBUG136.0;DEBUG2;0.0;DEBUG3;0.0;DEBUG4;0.0
ATTITUDE;ANGX;7.0;ANGY;-3.0;HEAD;134.0
STATUS;CYCLETIME;2832;I2CERR;0;PRESENT;23;MODE;2
RAW_IMU;AX;40.0;AY;-16.0;AZ;250.0;GX;0.0;GY;0.0;GZ;0.0;MAGX;-12.0;MAGY;-4.0;MAGZ;-16.0
MOT;0;1000.0;1;1000.0;2;1000.0;3;1000.0;4;0.0;5;0.0;6;0.0;7;0.0;
RC;ROLL;1502.0;PITCH;1507.0;YAW;1520.0;THROTTLE;1061.0;AUX1;1540.0;AUX2;1500.0;AUX3;1500.0;AUX4;1500.0
ALTITUDE;36.0
DEBUG;DEBUG136.0;DEBUG2;0.0;DEBUG3;0.0;DEBUG4;0.0
ATTITUDE;ANGX;7.0;ANGY;-3.0;HEAD;134.0
STATUS;CYCLETIME;2896;I2CERR;0;PRESENT;23;MODE;2
RAW_IMU;AX;40.0;AY;-16.0;AZ;250.0;GX;0.0;GY;0.0;GZ;0.0;MAGX;-12.0;MAGY;-5.0;MAGZ;-17.0
MOT;0;1000.0;1;1000.0;2;1000.0;3;1000.0;4;0.0;5;0.0;6;0.0;7;0.0;
RC;ROLL;1502.0;PITCH;1507.0;YAW;1520.0;THROTTLE;1061.0;AUX1;1540.0;AUX2;1500.0;AUX3;1500.0;AUX4;1500.0
ALTITUDE;36.0
DEBUG;DEBUG136.0;DEBUG2;0.0;DEBUG3;0.0;DEBUG4;0.0
ATTITUDE;ANGX;7.0;ANGY;-3.0;HEAD;134.0
STATUS;CYCLETIME;2964;I2CERR;0;PRESENT;23;MODE;2
RAW_IMU;AX;40.0;AY;-16.0;AZ;250.0;GX;0.0;GY;0.0;GZ;0.0;MAGX;-12.0;MAGY;-5.0;MAGZ;-17.0
MOT;0;1000.0;1;1000.0;2;1000.0;3;1000.0;4;0.0;5;0.0;6;0.0;7;0.0;
RC;ROLL;1502.0;PITCH;1507.0;YAW;1520.0;THROTTLE;1061.0;AUX1;1540.0;AUX2;1500.0;AUX3;1500.0;AUX4;1500.0
ALTITUDE;36.0
DEBUG;DEBUG136.0;DEBUG2;0.0;DEBUG3;0.0;DEBUG4;0.0
ATTITUDE;ANGX;7.0;ANGY;-3.0;HEAD;134.0
STATUS;CYCLETIME;3100;I2CERR;0;PRESENT;23;MODE;2
RAW_IMU;AX;40.0;AY;-16.0;AZ;250.0;GX;0.0;GY;0.0;GZ;0.0;MAGX;-12.0;MAGY;-4.0;MAGZ;-15.0
MOT;0;1000.0;1;1000.0;2;1000.0;3;1000.0;4;0.0;5;0.0;6;0.0;7;0.0;
RC;ROLL;1502.0;PITCH;1507.0;YAW;1523.0;THROTTLE;1061.0;AUX1;1540.0;AUX2;1500.0;AUX3;1500.0;AUX4;1500.0
ALTITUDE;36.0
DEBUG;DEBUG136.0;DEBUG2;0.0;DEBUG3;0.0;DEBUG4;0.0
ATTITUDE;ANGX;7.0;ANGY;-3.0;HEAD;134.0
STATUS;CYCLETIME;2832;I2CERR;0;PRESENT;23;MODE;2
RAW_IMU;AX;40.0;AY;-16.0;AZ;250.0;GX;0.0;GY;0.0;GZ;0.0;MAGX;-12.0;MAGY;-4.0;MAGZ;-15.0
MOT;0;1000.0;1;1000.0;2;1000.0;3;1000.0;4;0.0;5;0.0;6;0.0;7;0.0;
RC;ROLL;1502.0;PITCH;1507.0;YAW;1523.0;THROTTLE;1061.0;AUX1;1540.0;AUX2;1500.0;AUX3;1500.0;AUX4;1500.0
ALTITUDE;36.0
DEBUG;DEBUG136.0;DEBUG2;0.0;DEBUG3;0.0;DEBUG4;0.0
ATTITUDE;ANGX;7.0;ANGY;-2.0;HEAD;133.0
STATUS;CYCLETIME;3056;I2CERR;0;PRESENT;23;MODE;2
RAW_IMU;AX;40.0;AY;-17.0;AZ;250.0;GX;0.0;GY;0.0;GZ;0.0;MAGX;-11.0;MAGY;-5.0;MAGZ;-17.0
MOT;0;1000.0;1;1000.0;2;1000.0;3;1000.0;4;0.0;5;0.0;6;0.0;7;0.0;
RC;ROLL;1502.0;PITCH;1507.0;YAW;1523.0;THROTTLE;1061.0;AUX1;1540.0;AUX2;1500.0;AUX3;1500.0;AUX4;1500.0
ALTITUDE;36.0
DEBUG;DEBUG136.0;DEBUG2;0.0;DEBUG3;0.0;DEBUG4;0.0
ATTITUDE;ANGX;7.0;ANGY;-2.0;HEAD;133.0
STATUS;CYCLETIME;2856;I2CERR;0;PRESENT;23;MODE;2
RAW_IMU;AX;41.0;AY;-17.0;AZ;250.0;GX;0.0;GY;0.0;GZ;0.0;MAGX;-11.0;MAGY;-5.0;MAGZ;-17.0
MOT;0;1000.0;1;1000.0;2;1000.0;3;1000.0;4;0.0;5;0.0;6;0.0;7;0.0;
RC;ROLL;1504.0;PITCH;1507.0;YAW;1523.0;THROTTLE;1061.0;AUX1;1540.0;AUX2;1500.0;AUX3;1500.0;AUX4;1500.0
ALTITUDE;36.0
DEBUG;DEBUG136.0;DEBUG2;0.0;DEBUG3;0.0;DEBUG4;0.0
ATTITUDE;ANGX;7.0;ANGY;-2.0;HEAD;133.0
STATUS;CYCLETIME;2956;I2CERR;0;PRESENT;23;MODE;2
RAW_IMU;AX;41.0;AY;-17.0;AZ;250.0;GX;0.0;GY;0.0;GZ;0.0;MAGX;-12.0;MAGY;-4.0;MAGZ;-17.0
MOT;0;1000.0;1;1000.0;2;1000.0;3;1000.0;4;0.0;5;0.0;6;0.0;7;0.0;
RC;ROLL;1504.0;PITCH;1507.0;YAW;1523.0;THROTTLE;1061.0;AUX1;1540.0;AUX2;1500.0;AUX3;1500.0;AUX4;1500.0
ALTITUDE;36.0
DEBUG;DEBUG136.0;DEBUG2;0.0;DEBUG3;0.0;DEBUG4;0.0
ATTITUDE;ANGX;7.0;ANGY;-2.0;HEAD;133.0
STATUS;CYCLETIME;3072;I2CERR;0;PRESENT;23;MODE;2
RAW_IMU;AX;41.0;AY;-17.0;AZ;249.0;GX;0.0;GY;0.0;GZ;0.0;MAGX;-12.0;MAGY;-4.0;MAGZ;-17.0
MOT;0;1000.0;1;1000.0;2;1000.0;3;1000.0;4;0.0;5;0.0;6;0.0;7;0.0;
RC;ROLL;1504.0;PITCH;1507.0;YAW;1521.0;THROTTLE;1061.0;AUX1;1540.0;AUX2;1500.0;AUX3;1500.0;AUX4;1500.0
ALTITUDE;36.0
DEBUG;DEBUG136.0;DEBUG2;0.0;DEBUG3;0.0;DEBUG4;0.0
ATTITUDE;ANGX;7.0;ANGY;-2.0;HEAD;133.0
STATUS;CYCLETIME;2844;I2CERR;0;PRESENT;23;MODE;2
RAW_IMU;AX;41.0;AY;-17.0;AZ;249.0;GX;-1.0;GY;0.0;GZ;0.0;MAGX;-11.0;MAGY;-6.0;MAGZ;-16.0
MOT;0;1000.0;1;1000.0;2;1000.0;3;1000.0;4;0.0;5;0.0;6;0.0;7;0.0;
RC;ROLL;1504.0;PITCH;1505.0;YAW;1521.0;THROTTLE;1061.0;AUX1;1540.0;AUX2;1500.0;AUX3;1500.0;AUX4;1500.0
ALTITUDE;36.0
DEBUG;DEBUG136.0;DEBUG2;0.0;DEBUG3;0.0;DEBUG4;0.0
ATTITUDE;ANGX;7.0;ANGY;-3.0;HEAD;133.0
STATUS;CYCLETIME;3040;I2CERR;0;PRESENT;23;MODE;2
RAW_IMU;AX;41.0;AY;-17.0;AZ;249.0;GX;-1.0;GY;0.0;GZ;0.0;MAGX;-11.0;MAGY;-6.0;MAGZ;-16.0
MOT;0;1000.0;1;1000.0;2;1000.0;3;1000.0;4;0.0;5;0.0;6;0.0;7;0.0;
RC;ROLL;1504.0;PITCH;1505.0;YAW;1519.0;THROTTLE;1061.0;AUX1;1540.0;AUX2;1500.0;AUX3;1500.0;AUX4;1500.0
ALTITUDE;36.0
DEBUG;DEBUG136.0;DEBUG2;0.0;DEBUG3;0.0;DEBUG4;0.0
ATTITUDE;ANGX;7.0;ANGY;-3.0;HEAD;134.0
STATUS;CYCLETIME;2868;I2CERR;0;PRESENT;23;MODE;2
RAW_IMU;AX;41.0;AY;-17.0;AZ;249.0;GX;-1.0;GY;0.0;GZ;0.0;MAGX;-11.0;MAGY;-5.0;MAGZ;-15.0
MOT;0;1000.0;1;1000.0;2;1000.0;3;1000.0;4;0.0;5;0.0;6;0.0;7;0.0;
RC;ROLL;1502.0;PITCH;1505.0;YAW;1519.0;THROTTLE;1061.0;AUX1;1540.0;AUX2;1500.0;AUX3;1500.0;AUX4;1500.0
ALTITUDE;36.0
DEBUG;DEBUG136.0;DEBUG2;0.0;DEBUG3;0.0;DEBUG4;0.0
ATTITUDE;ANGX;7.0;ANGY;-3.0;HEAD;134.0
STATUS;CYCLETIME;2856;I2CERR;0;PRESENT;23;MODE;2
RAW_IMU;AX;41.0;AY;-17.0;AZ;249.0;GX;0.0;GY;0.0;GZ;0.0;MAGX;-11.0;MAGY;-5.0;MAGZ;-15.0
MOT;0;1000.0;1;1000.0;2;1000.0;3;1000.0;4;0.0;5;0.0;6;0.0;7;0.0;
RC;ROLL;1504.0;PITCH;1505.0;YAW;1519.0;THROTTLE;1061.0;AUX1;1540.0;AUX2;1500.0;AUX3;1500.0;AUX4;1500.0
ALTITUDE;36.0
DEBUG;DEBUG136.0;DEBUG2;0.0;DEBUG3;0.0;DEBUG4;0.0
ATTITUDE;ANGX;7.0;ANGY;-3.0;HEAD;134.0
STATUS;CYCLETIME;2824;I2CERR;0;PRESENT;23;MODE;2
RAW_IMU;AX;41.0;AY;-17.0;AZ;249.0;GX;0.0;GY;0.0;GZ;0.0;MAGX;-12.0;MAGY;-6.0;MAGZ;-16.0
MOT;0;1000.0;1;1000.0;2;1000.0;3;1000.0;4;0.0;5;0.0;6;0.0;7;0.0;
RC;ROLL;1504.0;PITCH;1505.0;YAW;1519.0;THROTTLE;1061.0;AUX1;1540.0;AUX2;1500.0;AUX3;1500.0;AUX4;1500.0
ALTITUDE;36.0
DEBUG;DEBUG136.0;DEBUG2;0.0;DEBUG3;0.0;DEBUG4;0.0
ATTITUDE;ANGX;7.0;ANGY;-3.0;HEAD;134.0
STATUS;CYCLETIME;2872;I2CERR;0;PRESENT;23;MODE;2
RAW_IMU;AX;41.0;AY;-17.0;AZ;249.0;GX;0.0;GY;0.0;GZ;0.0;MAGX;-12.0;MAGY;-6.0;MAGZ;-16.0
MOT;0;1000.0;1;1000.0;2;1000.0;3;1000.0;4;0.0;5;0.0;6;0.0;7;0.0;
RC;ROLL;1502.0;PITCH;1505.0;YAW;1519.0;THROTTLE;1061.0;AUX1;1540.0;AUX2;1500.0;AUX3;1500.0;AUX4;1500.0
ALTITUDE;36.0
DEBUG;DEBUG136.0;DEBUG2;0.0;DEBUG3;0.0;DEBUG4;0.0
ATTITUDE;ANGX;7.0;ANGY;-3.0;HEAD;135.0
STATUS;CYCLETIME;3136;I2CERR;0;PRESENT;23;MODE;2
RAW_IMU;AX;40.0;AY;-17.0;AZ;250.0;GX;0.0;GY;0.0;GZ;0.0;MAGX;-12.0;MAGY;-6.0;MAGZ;-16.0
MOT;0;1000.0;1;1000.0;2;1000.0;3;1000.0;4;0.0;5;0.0;6;0.0;7;0.0;
RC;ROLL;1502.0;PITCH;1505.0;YAW;1521.0;THROTTLE;1061.0;AUX1;1540.0;AUX2;1500.0;AUX3;1500.0;AUX4;1500.0
ALTITUDE;36.0
DEBUG;DEBUG136.0;DEBUG2;0.0;DEBUG3;0.0;DEBUG4;0.0
ATTITUDE;ANGX;7.0;ANGY;-3.0;HEAD;135.0
STATUS;CYCLETIME;2872;I2CERR;0;PRESENT;23;MODE;2
RAW_IMU;AX;40.0;AY;-17.0;AZ;250.0;GX;0.0;GY;0.0;GZ;0.0;MAGX;-12.0;MAGY;-6.0;MAGZ;-16.0
MOT;0;1000.0;1;1000.0;2;1000.0;3;1000.0;4;0.0;5;0.0;6;0.0;7;0.0;
RC;ROLL;1502.0;PITCH;1505.0;YAW;1521.0;THROTTLE;1061.0;AUX1;1540.0;AUX2;1500.0;AUX3;1500.0;AUX4;1500.0
ALTITUDE;36.0
DEBUG;DEBUG136.0;DEBUG2;0.0;DEBUG3;0.0;DEBUG4;0.0
ATTITUDE;ANGX;7.0;ANGY;-3.0;HEAD;135.0
STATUS;CYCLETIME;2820;I2CERR;0;PRESENT;23;MODE;2
RAW_IMU;AX;40.0;AY;-17.0;AZ;249.0;GX;0.0;GY;0.0;GZ;0.0;MAGX;-12.0;MAGY;-6.0;MAGZ;-16.0
MOT;0;1000.0;1;1000.0;2;1000.0;3;1000.0;4;0.0;5;0.0;6;0.0;7;0.0;
RC;ROLL;1502.0;PITCH;1505.0;YAW;1521.0;THROTTLE;1061.0;AUX1;1538.0;AUX2;1500.0;AUX3;1500.0;AUX4;1500.0
ALTITUDE;36.0
DEBUG;DEBUG136.0;DEBUG2;0.0;DEBUG3;0.0;DEBUG4;0.0
ATTITUDE;ANGX;7.0;ANGY;-3.0;HEAD;135.0
STATUS;CYCLETIME;2864;I2CERR;0;PRESENT;23;MODE;2
RAW_IMU;AX;40.0;AY;-17.0;AZ;249.0;GX;0.0;GY;0.0;GZ;0.0;MAGX;-11.0;MAGY;-5.0;MAGZ;-16.0
MOT;0;1000.0;1;1000.0;2;1000.0;3;1000.0;4;0.0;5;0.0;6;0.0;7;0.0;
RC;ROLL;1502.0;PITCH;1505.0;YAW;1524.0;THROTTLE;1061.0;AUX1;1538.0;AUX2;1500.0;AUX3;1500.0;AUX4;1500.0
ALTITUDE;36.0
DEBUG;DEBUG136.0;DEBUG2;0.0;DEBUG3;0.0;DEBUG4;0.0
ATTITUDE;ANGX;7.0;ANGY;-3.0;HEAD;135.0
STATUS;CYCLETIME;2880;I2CERR;0;PRESENT;23;MODE;2
RAW_IMU;AX;41.0;AY;-16.0;AZ;250.0;GX;0.0;GY;0.0;GZ;0.0;MAGX;-11.0;MAGY;-5.0;MAGZ;-16.0
MOT;0;1000.0;1;1000.0;2;1000.0;3;1000.0;4;0.0;5;0.0;6;0.0;7;0.0;
RC;ROLL;1502.0;PITCH;1505.0;YAW;1547.0;THROTTLE;1061.0;AUX1;1538.0;AUX2;1500.0;AUX3;1500.0;AUX4;1500.0
ALTITUDE;36.0
DEBUG;DEBUG136.0;DEBUG2;0.0;DEBUG3;0.0;DEBUG4;0.0
ATTITUDE;ANGX;7.0;ANGY;-3.0;HEAD;135.0
STATUS;CYCLETIME;2944;I2CERR;0;PRESENT;23;MODE;2
RAW_IMU;AX;41.0;AY;-17.0;AZ;250.0;GX;0.0;GY;0.0;GZ;0.0;MAGX;-11.0;MAGY;-5.0;MAGZ;-17.0
MOT;0;1000.0;1;1000.0;2;1000.0;3;1000.0;4;0.0;5;0.0;6;0.0;7;0.0;
RC;ROLL;1502.0;PITCH;1505.0;YAW;1622.0;THROTTLE;1061.0;AUX1;1540.0;AUX2;1500.0;AUX3;1500.0;AUX4;1500.0
ALTITUDE;36.0
DEBUG;DEBUG136.0;DEBUG2;0.0;DEBUG3;0.0;DEBUG4;0.0
ATTITUDE;ANGX;7.0;ANGY;-3.0;HEAD;135.0
STATUS;CYCLETIME;2864;I2CERR;0;PRESENT;23;MODE;2
RAW_IMU;AX;41.0;AY;-17.0;AZ;250.0;GX;0.0;GY;0.0;GZ;0.0;MAGX;-11.0;MAGY;-5.0;MAGZ;-17.0
MOT;0;1000.0;1;1000.0;2;1000.0;3;1000.0;4;0.0;5;0.0;6;0.0;7;0.0;
RC;ROLL;1502.0;PITCH;1505.0;YAW;1662.0;THROTTLE;1061.0;AUX1;1540.0;AUX2;1500.0;AUX3;1500.0;AUX4;1500.0
ALTITUDE;36.0
DEBUG;DEBUG136.0;DEBUG2;0.0;DEBUG3;0.0;DEBUG4;0.0
ATTITUDE;ANGX;7.0;ANGY;-3.0;HEAD;135.0
STATUS;CYCLETIME;3104;I2CERR;0;PRESENT;23;MODE;2
RAW_IMU;AX;41.0;AY;-16.0;AZ;249.0;GX;0.0;GY;0.0;GZ;0.0;MAGX;-11.0;MAGY;-4.0;MAGZ;-17.0
MOT;0;1000.0;1;1000.0;2;1000.0;3;1000.0;4;0.0;5;0.0;6;0.0;7;0.0;
RC;ROLL;1502.0;PITCH;1505.0;YAW;1698.0;THROTTLE;1061.0;AUX1;1540.0;AUX2;1500.0;AUX3;1500.0;AUX4;1500.0
ALTITUDE;36.0
DEBUG;DEBUG136.0;DEBUG2;0.0;DEBUG3;0.0;DEBUG4;0.0
ATTITUDE;ANGX;7.0;ANGY;-3.0;HEAD;134.0
STATUS;CYCLETIME;2864;I2CERR;0;PRESENT;23;MODE;2
RAW_IMU;AX;41.0;AY;-16.0;AZ;250.0;GX;-1.0;GY;0.0;GZ;0.0;MAGX;-11.0;MAGY;-4.0;MAGZ;-17.0
MOT;0;1000.0;1;1000.0;2;1000.0;3;1000.0;4;0.0;5;0.0;6;0.0;7;0.0;
RC;ROLL;1502.0;PITCH;1505.0;YAW;1714.0;THROTTLE;1061.0;AUX1;1540.0;AUX2;1500.0;AUX3;1500.0;AUX4;1500.0
ALTITUDE;36.0
DEBUG;DEBUG136.0;DEBUG2;0.0;DEBUG3;0.0;DEBUG4;0.0
ATTITUDE;ANGX;7.0;ANGY;-3.0;HEAD;134.0
STATUS;CYCLETIME;2920;I2CERR;0;PRESENT;23;MODE;2
RAW_IMU;AX;41.0;AY;-17.0;AZ;250.0;GX;0.0;GY;0.0;GZ;0.0;MAGX;-11.0;MAGY;-5.0;MAGZ;-17.0
MOT;0;1000.0;1;1000.0;2;1000.0;3;1000.0;4;0.0;5;0.0;6;0.0;7;0.0;
RC;ROLL;1502.0;PITCH;1505.0;YAW;1754.0;THROTTLE;1061.0;AUX1;1540.0;AUX2;1500.0;AUX3;1500.0;AUX4;1500.0
ALTITUDE;36.0
DEBUG;DEBUG136.0;DEBUG2;0.0;DEBUG3;0.0;DEBUG4;0.0
ATTITUDE;ANGX;7.0;ANGY;-3.0;HEAD;135.0
STATUS;CYCLETIME;2860;I2CERR;0;PRESENT;23;MODE;2
RAW_IMU;AX;41.0;AY;-17.0;AZ;250.0;GX;0.0;GY;0.0;GZ;0.0;MAGX;-11.0;MAGY;-5.0;MAGZ;-17.0
MOT;0;1000.0;1;1000.0;2;1000.0;3;1000.0;4;0.0;5;0.0;6;0.0;7;0.0;
RC;ROLL;1502.0;PITCH;1505.0;YAW;1855.0;THROTTLE;1061.0;AUX1;1540.0;AUX2;1500.0;AUX3;1500.0;AUX4;1500.0
ALTITUDE;36.0
DEBUG;DEBUG136.0;DEBUG2;0.0;DEBUG3;0.0;DEBUG4;0.0
ATTITUDE;ANGX;7.0;ANGY;-3.0;HEAD;135.0
STATUS;CYCLETIME;2924;I2CERR;0;PRESENT;23;MODE;2
RAW_IMU;AX;40.0;AY;-17.0;AZ;250.0;GX;0.0;GY;0.0;GZ;0.0;MAGX;-12.0;MAGY;-5.0;MAGZ;-17.0
MOT;0;1000.0;1;1000.0;2;1000.0;3;1000.0;4;0.0;5;0.0;6;0.0;7;0.0;
RC;ROLL;1502.0;PITCH;1505.0;YAW;1898.0;THROTTLE;1061.0;AUX1;1540.0;AUX2;1500.0;AUX3;1500.0;AUX4;1500.0
ALTITUDE;36.0
DEBUG;DEBUG136.0;DEBUG2;0.0;DEBUG3;0.0;DEBUG4;0.0
ATTITUDE;ANGX;7.0;ANGY;-3.0;HEAD;135.0
STATUS;CYCLETIME;3108;I2CERR;0;PRESENT;23;MODE;2
RAW_IMU;AX;40.0;AY;-17.0;AZ;250.0;GX;0.0;GY;0.0;GZ;0.0;MAGX;-12.0;MAGY;-5.0;MAGZ;-17.0
MOT;0;1000.0;1;1000.0;2;1000.0;3;1000.0;4;0.0;5;0.0;6;0.0;7;0.0;
RC;ROLL;1502.0;PITCH;1505.0;YAW;1907.0;THROTTLE;1061.0;AUX1;1540.0;AUX2;1500.0;AUX3;1500.0;AUX4;1500.0
ALTITUDE;36.0
DEBUG;DEBUG136.0;DEBUG2;0.0;DEBUG3;0.0;DEBUG4;0.0
ATTITUDE;ANGX;7.0;ANGY;-3.0;HEAD;135.0
STATUS;CYCLETIME;2884;I2CERR;0;PRESENT;23;MODE;2
RAW_IMU;AX;41.0;AY;-17.0;AZ;250.0;GX;0.0;GY;0.0;GZ;0.0;MAGX;-11.0;MAGY;-5.0;MAGZ;-17.0
MOT;0;1000.0;1;1000.0;2;1000.0;3;1000.0;4;0.0;5;0.0;6;0.0;7;0.0;
RC;ROLL;1502.0;PITCH;1505.0;YAW;1907.0;THROTTLE;1061.0;AUX1;1540.0;AUX2;1500.0;AUX3;1500.0;AUX4;1500.0
ALTITUDE;36.0
DEBUG;DEBUG136.0;DEBUG2;0.0;DEBUG3;0.0;DEBUG4;0.0
ATTITUDE;ANGX;7.0;ANGY;-3.0;HEAD;135.0
STATUS;CYCLETIME;2912;I2CERR;0;PRESENT;23;MODE;2
RAW_IMU;AX;41.0;AY;-17.0;AZ;250.0;GX;-1.0;GY;0.0;GZ;0.0;MAGX;-11.0;MAGY;-5.0;MAGZ;-17.0
MOT;0;1000.0;1;1000.0;2;1000.0;3;1000.0;4;0.0;5;0.0;6;0.0;7;0.0;
RC;ROLL;1502.0;PITCH;1505.0;YAW;1907.0;THROTTLE;1061.0;AUX1;1540.0;AUX2;1500.0;AUX3;1500.0;AUX4;1500.0
ALTITUDE;36.0
DEBUG;DEBUG136.0;DEBUG2;0.0;DEBUG3;0.0;DEBUG4;0.0
ATTITUDE;ANGX;7.0;ANGY;-3.0;HEAD;135.0
STATUS;CYCLETIME;2828;I2CERR;0;PRESENT;23;MODE;2
RAW_IMU;AX;41.0;AY;-17.0;AZ;250.0;GX;0.0;GY;0.0;GZ;0.0;MAGX;-11.0;MAGY;-5.0;MAGZ;-16.0
MOT;0;1000.0;1;1000.0;2;1000.0;3;1000.0;4;0.0;5;0.0;6;0.0;7;0.0;
RC;ROLL;1504.0;PITCH;1505.0;YAW;1907.0;THROTTLE;1061.0;AUX1;1540.0;AUX2;1500.0;AUX3;1500.0;AUX4;1500.0
ALTITUDE;36.0
DEBUG;DEBUG136.0;DEBUG2;0.0;DEBUG3;0.0;DEBUG4;0.0
ATTITUDE;ANGX;7.0;ANGY;-3.0;HEAD;135.0
STATUS;CYCLETIME;3116;I2CERR;0;PRESENT;23;MODE;2
RAW_IMU;AX;41.0;AY;-17.0;AZ;250.0;GX;0.0;GY;0.0;GZ;0.0;MAGX;-11.0;MAGY;-5.0;MAGZ;-16.0
MOT;0;1000.0;1;1000.0;2;1000.0;3;1000.0;4;0.0;5;0.0;6;0.0;7;0.0;
RC;ROLL;1504.0;PITCH;1505.0;YAW;1909.0;THROTTLE;1058.0;AUX1;1540.0;AUX2;1500.0;AUX3;1500.0;AUX4;1500.0
ALTITUDE;36.0
DEBUG;DEBUG136.0;DEBUG2;0.0;DEBUG3;0.0;DEBUG4;0.0
ATTITUDE;ANGX;7.0;ANGY;-3.0;HEAD;135.0
STATUS;CYCLETIME;2836;I2CERR;0;PRESENT;23;MODE;2
RAW_IMU;AX;40.0;AY;-16.0;AZ;250.0;GX;0.0;GY;0.0;GZ;0.0;MAGX;-11.0;MAGY;-6.0;MAGZ;-16.0
MOT;0;1000.0;1;1000.0;2;1000.0;3;1000.0;4;0.0;5;0.0;6;0.0;7;0.0;
RC;ROLL;1504.0;PITCH;1505.0;YAW;1909.0;THROTTLE;1058.0;AUX1;1540.0;AUX2;1500.0;AUX3;1500.0;AUX4;1500.0
ALTITUDE;36.0
DEBUG;DEBUG136.0;DEBUG2;0.0;DEBUG3;0.0;DEBUG4;0.0
ATTITUDE;ANGX;7.0;ANGY;-3.0;HEAD;135.0
STATUS;CYCLETIME;2856;I2CERR;0;PRESENT;23;MODE;2
RAW_IMU;AX;41.0;AY;-17.0;AZ;250.0;GX;0.0;GY;0.0;GZ;0.0;MAGX;-11.0;MAGY;-6.0;MAGZ;-16.0
MOT;0;1000.0;1;1000.0;2;1000.0;3;1000.0;4;0.0;5;0.0;6;0.0;7;0.0;
RC;ROLL;1502.0;PITCH;1508.0;YAW;1909.0;THROTTLE;1058.0;AUX1;1540.0;AUX2;1500.0;AUX3;1500.0;AUX4;1500.0
ALTITUDE;36.0
DEBUG;DEBUG136.0;DEBUG2;0.0;DEBUG3;0.0;DEBUG4;0.0
ATTITUDE;ANGX;7.0;ANGY;-3.0;HEAD;135.0
STATUS;CYCLETIME;2812;I2CERR;0;PRESENT;23;MODE;2
RAW_IMU;AX;41.0;AY;-17.0;AZ;250.0;GX;0.0;GY;0.0;GZ;0.0;MAGX;-12.0;MAGY;-4.0;MAGZ;-17.0
MOT;0;1000.0;1;1000.0;2;1000.0;3;1000.0;4;0.0;5;0.0;6;0.0;7;0.0;
RC;ROLL;1502.0;PITCH;1508.0;YAW;1909.0;THROTTLE;1055.0;AUX1;1540.0;AUX2;1500.0;AUX3;1500.0;AUX4;1500.0
ALTITUDE;36.0
DEBUG;DEBUG136.0;DEBUG2;0.0;DEBUG3;0.0;DEBUG4;0.0
ATTITUDE;ANGX;7.0;ANGY;-3.0;HEAD;136.0
STATUS;CYCLETIME;2836;I2CERR;0;PRESENT;23;MODE;3
RAW_IMU;AX;40.0;AY;-17.0;AZ;250.0;GX;0.0;GY;0.0;GZ;0.0;MAGX;-12.0;MAGY;-4.0;MAGZ;-17.0
MOT;0;1150.0;1;1150.0;2;1150.0;3;1150.0;4;0.0;5;0.0;6;0.0;7;0.0;
RC;ROLL;1502.0;PITCH;1508.0;YAW;1909.0;THROTTLE;1055.0;AUX1;1540.0;AUX2;1500.0;AUX3;1500.0;AUX4;1500.0
ALTITUDE;36.0
DEBUG;DEBUG136.0;DEBUG2;0.0;DEBUG3;0.0;DEBUG4;0.0
ATTITUDE;ANGX;7.0;ANGY;-3.0;HEAD;135.0
STATUS;CYCLETIME;3104;I2CERR;0;PRESENT;23;MODE;3
RAW_IMU;AX;40.0;AY;-17.0;AZ;249.0;GX;0.0;GY;0.0;GZ;0.0;MAGX;-12.0;MAGY;-4.0;MAGZ;-17.0
MOT;0;1150.0;1;1150.0;2;1150.0;3;1150.0;4;0.0;5;0.0;6;0.0;7;0.0;
RC;ROLL;1502.0;PITCH;1508.0;YAW;1909.0;THROTTLE;1055.0;AUX1;1540.0;AUX2;1500.0;AUX3;1500.0;AUX4;1500.0
ALTITUDE;36.0
DEBUG;DEBUG136.0;DEBUG2;0.0;DEBUG3;0.0;DEBUG4;0.0
ATTITUDE;ANGX;7.0;ANGY;-3.0;HEAD;135.0
STATUS;CYCLETIME;2864;I2CERR;0;PRESENT;23;MODE;3
RAW_IMU;AX;41.0;AY;-17.0;AZ;249.0;GX;0.0;GY;0.0;GZ;0.0;MAGX;-12.0;MAGY;-4.0;MAGZ;-17.0
MOT;0;1150.0;1;1150.0;2;1150.0;3;1150.0;4;0.0;5;0.0;6;0.0;7;0.0;
RC;ROLL;1502.0;PITCH;1508.0;YAW;1909.0;THROTTLE;1055.0;AUX1;1540.0;AUX2;1500.0;AUX3;1500.0;AUX4;1500.0
ALTITUDE;36.0
DEBUG;DEBUG136.0;DEBUG2;0.0;DEBUG3;0.0;DEBUG4;0.0
ATTITUDE;ANGX;7.0;ANGY;-3.0;HEAD;135.0
STATUS;CYCLETIME;2920;I2CERR;0;PRESENT;23;MODE;3
RAW_IMU;AX;41.0;AY;-17.0;AZ;249.0;GX;0.0;GY;0.0;GZ;0.0;MAGX;-12.0;MAGY;-4.0;MAGZ;-17.0
MOT;0;1150.0;1;1150.0;2;1150.0;3;1150.0;4;0.0;5;0.0;6;0.0;7;0.0;
RC;ROLL;1502.0;PITCH;1508.0;YAW;1909.0;THROTTLE;1055.0;AUX1;1540.0;AUX2;1500.0;AUX3;1500.0;AUX4;1500.0
ALTITUDE;36.0
DEBUG;DEBUG136.0;DEBUG2;0.0;DEBUG3;0.0;DEBUG4;0.0
ATTITUDE;ANGX;7.0;ANGY;-3.0;HEAD;134.0
STATUS;CYCLETIME;2868;I2CERR;0;PRESENT;23;MODE;3
RAW_IMU;AX;41.0;AY;-17.0;AZ;250.0;GX;0.0;GY;0.0;GZ;0.0;MAGX;-13.0;MAGY;-5.0;MAGZ;-16.0
MOT;0;1150.0;1;1150.0;2;1150.0;3;1150.0;4;0.0;5;0.0;6;0.0;7;0.0;
RC;ROLL;1502.0;PITCH;1508.0;YAW;1909.0;THROTTLE;1055.0;AUX1;1540.0;AUX2;1500.0;AUX3;1500.0;AUX4;1500.0
ALTITUDE;36.0
DEBUG;DEBUG136.0;DEBUG2;0.0;DEBUG3;0.0;DEBUG4;0.0
ATTITUDE;ANGX;7.0;ANGY;-3.0;HEAD;134.0
STATUS;CYCLETIME;2852;I2CERR;0;PRESENT;23;MODE;3
RAW_IMU;AX;41.0;AY;-17.0;AZ;249.0;GX;0.0;GY;0.0;GZ;0.0;MAGX;-13.0;MAGY;-5.0;MAGZ;-16.0
MOT;0;1150.0;1;1150.0;2;1150.0;3;1150.0;4;0.0;5;0.0;6;0.0;7;0.0;
RC;ROLL;1502.0;PITCH;1505.0;YAW;1909.0;THROTTLE;1058.0;AUX1;1538.0;AUX2;1500.0;AUX3;1500.0;AUX4;1500.0
ALTITUDE;36.0
DEBUG;DEBUG136.0;DEBUG2;0.0;DEBUG3;0.0;DEBUG4;0.0
ATTITUDE;ANGX;7.0;ANGY;-3.0;HEAD;134.0
STATUS;CYCLETIME;2952;I2CERR;0;PRESENT;23;MODE;3
RAW_IMU;AX;41.0;AY;-17.0;AZ;249.0;GX;0.0;GY;0.0;GZ;0.0;MAGX;-11.0;MAGY;-4.0;MAGZ;-15.0
MOT;0;1150.0;1;1150.0;2;1150.0;3;1150.0;4;0.0;5;0.0;6;0.0;7;0.0;
RC;ROLL;1502.0;PITCH;1505.0;YAW;1909.0;THROTTLE;1058.0;AUX1;1538.0;AUX2;1500.0;AUX3;1500.0;AUX4;1500.0
ALTITUDE;36.0
DEBUG;DEBUG136.0;DEBUG2;0.0;DEBUG3;0.0;DEBUG4;0.0
ATTITUDE;ANGX;7.0;ANGY;-3.0;HEAD;133.0
STATUS;CYCLETIME;2840;I2CERR;0;PRESENT;23;MODE;3
RAW_IMU;AX;41.0;AY;-17.0;AZ;249.0;GX;-1.0;GY;0.0;GZ;0.0;MAGX;-11.0;MAGY;-4.0;MAGZ;-15.0
MOT;0;1150.0;1;1150.0;2;1150.0;3;1150.0;4;0.0;5;0.0;6;0.0;7;0.0;
RC;ROLL;1502.0;PITCH;1505.0;YAW;1909.0;THROTTLE;1058.0;AUX1;1540.0;AUX2;1500.0;AUX3;1500.0;AUX4;1500.0
ALTITUDE;36.0
DEBUG;DEBUG136.0;DEBUG2;0.0;DEBUG3;0.0;DEBUG4;0.0
ATTITUDE;ANGX;7.0;ANGY;-3.0;HEAD;133.0
STATUS;CYCLETIME;2828;I2CERR;0;PRESENT;23;MODE;3
RAW_IMU;AX;41.0;AY;-17.0;AZ;249.0;GX;-1.0;GY;0.0;GZ;0.0;MAGX;-11.0;MAGY;-4.0;MAGZ;-17.0
MOT;0;1150.0;1;1150.0;2;1150.0;3;1150.0;4;0.0;5;0.0;6;0.0;7;0.0;
RC;ROLL;1502.0;PITCH;1505.0;YAW;1909.0;THROTTLE;1058.0;AUX1;1540.0;AUX2;1500.0;AUX3;1500.0;AUX4;1500.0
ALTITUDE;36.0
DEBUG;DEBUG136.0;DEBUG2;0.0;DEBUG3;0.0;DEBUG4;0.0
ATTITUDE;ANGX;7.0;ANGY;-3.0;HEAD;133.0
STATUS;CYCLETIME;2864;I2CERR;0;PRESENT;23;MODE;3
RAW_IMU;AX;41.0;AY;-17.0;AZ;250.0;GX;0.0;GY;0.0;GZ;0.0;MAGX;-11.0;MAGY;-4.0;MAGZ;-17.0
MOT;0;1150.0;1;1150.0;2;1150.0;3;1150.0;4;0.0;5;0.0;6;0.0;7;0.0;
RC;ROLL;1502.0;PITCH;1505.0;YAW;1911.0;THROTTLE;1058.0;AUX1;1540.0;AUX2;1500.0;AUX3;1500.0;AUX4;1500.0
ALTITUDE;36.0
DEBUG;DEBUG136.0;DEBUG2;0.0;DEBUG3;0.0;DEBUG4;0.0
ATTITUDE;ANGX;7.0;ANGY;-3.0;HEAD;133.0
STATUS;CYCLETIME;2856;I2CERR;0;PRESENT;23;MODE;3
RAW_IMU;AX;41.0;AY;-17.0;AZ;250.0;GX;-1.0;GY;0.0;GZ;0.0;MAGX;-11.0;MAGY;-5.0;MAGZ;-17.0
MOT;0;1150.0;1;1150.0;2;1150.0;3;1150.0;4;0.0;5;0.0;6;0.0;7;0.0;
RC;ROLL;1502.0;PITCH;1505.0;YAW;1911.0;THROTTLE;1058.0;AUX1;1540.0;AUX2;1500.0;AUX3;1500.0;AUX4;1500.0
ALTITUDE;36.0
DEBUG;DEBUG136.0;DEBUG2;0.0;DEBUG3;0.0;DEBUG4;0.0
ATTITUDE;ANGX;7.0;ANGY;-3.0;HEAD;133.0
STATUS;CYCLETIME;2868;I2CERR;0;PRESENT;23;MODE;3
RAW_IMU;AX;40.0;AY;-17.0;AZ;250.0;GX;-1.0;GY;0.0;GZ;0.0;MAGX;-11.0;MAGY;-5.0;MAGZ;-17.0
MOT;0;1150.0;1;1150.0;2;1150.0;3;1150.0;4;0.0;5;0.0;6;0.0;7;0.0;
RC;ROLL;1502.0;PITCH;1505.0;YAW;1911.0;THROTTLE;1058.0;AUX1;1540.0;AUX2;1500.0;AUX3;1500.0;AUX4;1500.0
ALTITUDE;36.0
DEBUG;DEBUG136.0;DEBUG2;0.0;DEBUG3;0.0;DEBUG4;0.0
ATTITUDE;ANGX;7.0;ANGY;-3.0;HEAD;133.0
STATUS;CYCLETIME;2864;I2CERR;0;PRESENT;23;MODE;3
RAW_IMU;AX;41.0;AY;-17.0;AZ;250.0;GX;0.0;GY;0.0;GZ;0.0;MAGX;-11.0;MAGY;-6.0;MAGZ;-17.0
MOT;0;1150.0;1;1150.0;2;1150.0;3;1150.0;4;0.0;5;0.0;6;0.0;7;0.0;
RC;ROLL;1502.0;PITCH;1505.0;YAW;1913.0;THROTTLE;1058.0;AUX1;1540.0;AUX2;1500.0;AUX3;1500.0;AUX4;1500.0
ALTITUDE;36.0
DEBUG;DEBUG136.0;DEBUG2;0.0;DEBUG3;0.0;DEBUG4;0.0
ATTITUDE;ANGX;7.0;ANGY;-3.0;HEAD;134.0
STATUS;CYCLETIME;2868;I2CERR;0;PRESENT;23;MODE;3
RAW_IMU;AX;41.0;AY;-17.0;AZ;250.0;GX;0.0;GY;0.0;GZ;0.0;MAGX;-11.0;MAGY;-6.0;MAGZ;-17.0
MOT;0;1150.0;1;1150.0;2;1150.0;3;1150.0;4;0.0;5;0.0;6;0.0;7;0.0;
RC;ROLL;1502.0;PITCH;1505.0;YAW;1913.0;THROTTLE;1058.0;AUX1;1540.0;AUX2;1500.0;AUX3;1500.0;AUX4;1500.0
ALTITUDE;36.0
DEBUG;DEBUG136.0;DEBUG2;0.0;DEBUG3;0.0;DEBUG4;0.0
ATTITUDE;ANGX;7.0;ANGY;-3.0;HEAD;134.0
STATUS;CYCLETIME;2920;I2CERR;0;PRESENT;23;MODE;3
RAW_IMU;AX;41.0;AY;-17.0;AZ;250.0;GX;0.0;GY;0.0;GZ;0.0;MAGX;-12.0;MAGY;-4.0;MAGZ;-16.0
MOT;0;1150.0;1;1150.0;2;1150.0;3;1150.0;4;0.0;5;0.0;6;0.0;7;0.0;
RC;ROLL;1502.0;PITCH;1505.0;YAW;1872.0;THROTTLE;1058.0;AUX1;1540.0;AUX2;1500.0;AUX3;1500.0;AUX4;1500.0
ALTITUDE;36.0
DEBUG;DEBUG136.0;DEBUG2;0.0;DEBUG3;0.0;DEBUG4;0.0
ATTITUDE;ANGX;7.0;ANGY;-3.0;HEAD;134.0
STATUS;CYCLETIME;3108;I2CERR;0;PRESENT;23;MODE;3
RAW_IMU;AX;41.0;AY;-17.0;AZ;250.0;GX;0.0;GY;0.0;GZ;0.0;MAGX;-12.0;MAGY;-4.0;MAGZ;-16.0
MOT;0;1150.0;1;1150.0;2;1150.0;3;1150.0;4;0.0;5;0.0;6;0.0;7;0.0;
RC;ROLL;1502.0;PITCH;1505.0;YAW;1773.0;THROTTLE;1058.0;AUX1;1540.0;AUX2;1500.0;AUX3;1500.0;AUX4;1500.0
ALTITUDE;36.0
DEBUG;DEBUG136.0;DEBUG2;0.0;DEBUG3;0.0;DEBUG4;0.0
ATTITUDE;ANGX;7.0;ANGY;-3.0;HEAD;134.0
STATUS;CYCLETIME;2828;I2CERR;0;PRESENT;23;MODE;3
RAW_IMU;AX;41.0;AY;-17.0;AZ;250.0;GX;0.0;GY;0.0;GZ;0.0;MAGX;-12.0;MAGY;-5.0;MAGZ;-17.0
MOT;0;1150.0;1;1150.0;2;1150.0;3;1150.0;4;0.0;5;0.0;6;0.0;7;0.0;
RC;ROLL;1502.0;PITCH;1507.0;YAW;1614.0;THROTTLE;1058.0;AUX1;1540.0;AUX2;1500.0;AUX3;1500.0;AUX4;1500.0
ALTITUDE;36.0
DEBUG;DEBUG136.0;DEBUG2;0.0;DEBUG3;0.0;DEBUG4;0.0
ATTITUDE;ANGX;7.0;ANGY;-3.0;HEAD;133.0
STATUS;CYCLETIME;2864;I2CERR;0;PRESENT;23;MODE;3
RAW_IMU;AX;41.0;AY;-17.0;AZ;250.0;GX;0.0;GY;0.0;GZ;0.0;MAGX;-12.0;MAGY;-5.0;MAGZ;-17.0
MOT;0;1150.0;1;1150.0;2;1150.0;3;1150.0;4;0.0;5;0.0;6;0.0;7;0.0;
RC;ROLL;1502.0;PITCH;1507.0;YAW;1551.0;THROTTLE;1060.0;AUX1;1540.0;AUX2;1500.0;AUX3;1500.0;AUX4;1500.0
ALTITUDE;36.0
DEBUG;DEBUG136.0;DEBUG2;0.0;DEBUG3;0.0;DEBUG4;0.0
ATTITUDE;ANGX;7.0;ANGY;-3.0;HEAD;134.0
STATUS;CYCLETIME;2860;I2CERR;0;PRESENT;23;MODE;3
RAW_IMU;AX;40.0;AY;-16.0;AZ;251.0;GX;0.0;GY;0.0;GZ;0.0;MAGX;-12.0;MAGY;-4.0;MAGZ;-17.0
MOT;0;1150.0;1;1150.0;2;1150.0;3;1150.0;4;0.0;5;0.0;6;0.0;7;0.0;
RC;ROLL;1502.0;PITCH;1507.0;YAW;1523.0;THROTTLE;1062.0;AUX1;1540.0;AUX2;1500.0;AUX3;1500.0;AUX4;1500.0
ALTITUDE;36.0
DEBUG;DEBUG136.0;DEBUG2;0.0;DEBUG3;0.0;DEBUG4;0.0
ATTITUDE;ANGX;7.0;ANGY;-3.0;HEAD;133.0
STATUS;CYCLETIME;2940;I2CERR;0;PRESENT;23;MODE;3
RAW_IMU;AX;41.0;AY;-16.0;AZ;250.0;GX;0.0;GY;0.0;GZ;0.0;MAGX;-12.0;MAGY;-4.0;MAGZ;-17.0
MOT;0;1150.0;1;1150.0;2;1150.0;3;1150.0;4;0.0;5;0.0;6;0.0;7;0.0;
RC;ROLL;1502.0;PITCH;1507.0;YAW;1518.0;THROTTLE;1062.0;AUX1;1540.0;AUX2;1500.0;AUX3;1500.0;AUX4;1500.0
ALTITUDE;36.0
DEBUG;DEBUG136.0;DEBUG2;0.0;DEBUG3;0.0;DEBUG4;0.0
ATTITUDE;ANGX;7.0;ANGY;-3.0;HEAD;133.0
STATUS;CYCLETIME;2852;I2CERR;0;PRESENT;23;MODE;3
RAW_IMU;AX;41.0;AY;-16.0;AZ;250.0;GX;0.0;GY;0.0;GZ;0.0;MAGX;-12.0;MAGY;-5.0;MAGZ;-17.0
MOT;0;1150.0;1;1150.0;2;1150.0;3;1150.0;4;0.0;5;0.0;6;0.0;7;0.0;
RC;ROLL;1502.0;PITCH;1507.0;YAW;1516.0;THROTTLE;1062.0;AUX1;1540.0;AUX2;1500.0;AUX3;1500.0;AUX4;1500.0
ALTITUDE;36.0
DEBUG;DEBUG136.0;DEBUG2;0.0;DEBUG3;0.0;DEBUG4;0.0
ATTITUDE;ANGX;7.0;ANGY;-3.0;HEAD;133.0
STATUS;CYCLETIME;2876;I2CERR;0;PRESENT;23;MODE;3
RAW_IMU;AX;40.0;AY;-17.0;AZ;250.0;GX;0.0;GY;0.0;GZ;0.0;MAGX;-12.0;MAGY;-5.0;MAGZ;-17.0
MOT;0;1150.0;1;1150.0;2;1150.0;3;1150.0;4;0.0;5;0.0;6;0.0;7;0.0;
RC;ROLL;1502.0;PITCH;1507.0;YAW;1516.0;THROTTLE;1060.0;AUX1;1540.0;AUX2;1500.0;AUX3;1500.0;AUX4;1500.0
ALTITUDE;36.0
DEBUG;DEBUG136.0;DEBUG2;0.0;DEBUG3;0.0;DEBUG4;0.0
ATTITUDE;ANGX;7.0;ANGY;-3.0;HEAD;133.0
STATUS;CYCLETIME;3204;I2CERR;0;PRESENT;23;MODE;3
RAW_IMU;AX;41.0;AY;-17.0;AZ;250.0;GX;0.0;GY;0.0;GZ;0.0;MAGX;-11.0;MAGY;-4.0;MAGZ;-17.0
MOT;0;1150.0;1;1150.0;2;1150.0;3;1150.0;4;0.0;5;0.0;6;0.0;7;0.0;
RC;ROLL;1502.0;PITCH;1507.0;YAW;1516.0;THROTTLE;1060.0;AUX1;1540.0;AUX2;1500.0;AUX3;1500.0;AUX4;1500.0
ALTITUDE;36.0
DEBUG;DEBUG136.0;DEBUG2;0.0;DEBUG3;0.0;DEBUG4;0.0
ATTITUDE;ANGX;7.0;ANGY;-3.0;HEAD;133.0
STATUS;CYCLETIME;2836;I2CERR;0;PRESENT;23;MODE;3
RAW_IMU;AX;41.0;AY;-17.0;AZ;250.0;GX;0.0;GY;0.0;GZ;0.0;MAGX;-11.0;MAGY;-4.0;MAGZ;-17.0
MOT;0;1150.0;1;1150.0;2;1150.0;3;1150.0;4;0.0;5;0.0;6;0.0;7;0.0;
RC;ROLL;1505.0;PITCH;1505.0;YAW;1516.0;THROTTLE;1064.0;AUX1;1540.0;AUX2;1500.0;AUX3;1500.0;AUX4;1500.0
ALTITUDE;36.0
DEBUG;DEBUG136.0;DEBUG2;0.0;DEBUG3;0.0;DEBUG4;0.0
ATTITUDE;ANGX;7.0;ANGY;-3.0;HEAD;133.0
STATUS;CYCLETIME;2852;I2CERR;0;PRESENT;23;MODE;3
RAW_IMU;AX;41.0;AY;-17.0;AZ;250.0;GX;0.0;GY;0.0;GZ;0.0;MAGX;-11.0;MAGY;-4.0;MAGZ;-17.0
MOT;0;1150.0;1;1150.0;2;1150.0;3;1150.0;4;0.0;5;0.0;6;0.0;7;0.0;
RC;ROLL;1503.0;PITCH;1505.0;YAW;1516.0;THROTTLE;1064.0;AUX1;1540.0;AUX2;1500.0;AUX3;1500.0;AUX4;1500.0
ALTITUDE;36.0
DEBUG;DEBUG136.0;DEBUG2;0.0;DEBUG3;0.0;DEBUG4;0.0
ATTITUDE;ANGX;7.0;ANGY;-3.0;HEAD;133.0
STATUS;CYCLETIME;2820;I2CERR;0;PRESENT;23;MODE;3
RAW_IMU;AX;41.0;AY;-16.0;AZ;250.0;GX;-1.0;GY;0.0;GZ;0.0;MAGX;-12.0;MAGY;-5.0;MAGZ;-17.0
MOT;0;1150.0;1;1150.0;2;1150.0;3;1150.0;4;0.0;5;0.0;6;0.0;7;0.0;
RC;ROLL;1503.0;PITCH;1505.0;YAW;1516.0;THROTTLE;1064.0;AUX1;1540.0;AUX2;1500.0;AUX3;1500.0;AUX4;1500.0
ALTITUDE;36.0
DEBUG;DEBUG136.0;DEBUG2;0.0;DEBUG3;0.0;DEBUG4;0.0
ATTITUDE;ANGX;7.0;ANGY;-3.0;HEAD;133.0
STATUS;CYCLETIME;3092;I2CERR;0;PRESENT;23;MODE;3
RAW_IMU;AX;41.0;AY;-17.0;AZ;250.0;GX;-1.0;GY;0.0;GZ;0.0;MAGX;-12.0;MAGY;-5.0;MAGZ;-17.0
MOT;0;1150.0;1;1150.0;2;1150.0;3;1150.0;4;0.0;5;0.0;6;0.0;7;0.0;
RC;ROLL;1503.0;PITCH;1505.0;YAW;1516.0;THROTTLE;1064.0;AUX1;1540.0;AUX2;1500.0;AUX3;1500.0;AUX4;1500.0
ALTITUDE;36.0
DEBUG;DEBUG136.0;DEBUG2;0.0;DEBUG3;0.0;DEBUG4;0.0
ATTITUDE;ANGX;7.0;ANGY;-3.0;HEAD;133.0
STATUS;CYCLETIME;2960;I2CERR;0;PRESENT;23;MODE;3
RAW_IMU;AX;41.0;AY;-16.0;AZ;250.0;GX;-1.0;GY;0.0;GZ;0.0;MAGX;-11.0;MAGY;-5.0;MAGZ;-17.0
MOT;0;1150.0;1;1150.0;2;1150.0;3;1150.0;4;0.0;5;0.0;6;0.0;7;0.0;
RC;ROLL;1503.0;PITCH;1505.0;YAW;1518.0;THROTTLE;1064.0;AUX1;1540.0;AUX2;1500.0;AUX3;1500.0;AUX4;1500.0
ALTITUDE;36.0
DEBUG;DEBUG136.0;DEBUG2;0.0;DEBUG3;0.0;DEBUG4;0.0
ATTITUDE;ANGX;7.0;ANGY;-3.0;HEAD;133.0
STATUS;CYCLETIME;2848;I2CERR;0;PRESENT;23;MODE;3
RAW_IMU;AX;41.0;AY;-16.0;AZ;250.0;GX;0.0;GY;0.0;GZ;0.0;MAGX;-11.0;MAGY;-5.0;MAGZ;-17.0
MOT;0;1150.0;1;1150.0;2;1150.0;3;1150.0;4;0.0;5;0.0;6;0.0;7;0.0;
RC;ROLL;1501.0;PITCH;1505.0;YAW;1518.0;THROTTLE;1064.0;AUX1;1540.0;AUX2;1500.0;AUX3;1500.0;AUX4;1500.0
ALTITUDE;36.0
DEBUG;DEBUG136.0;DEBUG2;0.0;DEBUG3;0.0;DEBUG4;0.0
ATTITUDE;ANGX;7.0;ANGY;-3.0;HEAD;134.0
STATUS;CYCLETIME;2872;I2CERR;0;PRESENT;23;MODE;3
RAW_IMU;AX;41.0;AY;-16.0;AZ;250.0;GX;0.0;GY;0.0;GZ;0.0;MAGX;-11.0;MAGY;-5.0;MAGZ;-16.0
MOT;0;1150.0;1;1150.0;2;1150.0;3;1150.0;4;0.0;5;0.0;6;0.0;7;0.0;
RC;ROLL;1501.0;PITCH;1505.0;YAW;1518.0;THROTTLE;1064.0;AUX1;1540.0;AUX2;1500.0;AUX3;1500.0;AUX4;1500.0
ALTITUDE;36.0
DEBUG;DEBUG136.0;DEBUG2;0.0;DEBUG3;0.0;DEBUG4;0.0
ATTITUDE;ANGX;7.0;ANGY;-3.0;HEAD;134.0
STATUS;CYCLETIME;3104;I2CERR;0;PRESENT;23;MODE;3
RAW_IMU;AX;41.0;AY;-16.0;AZ;250.0;GX;0.0;GY;0.0;GZ;0.0;MAGX;-11.0;MAGY;-5.0;MAGZ;-16.0
MOT;0;1150.0;1;1150.0;2;1150.0;3;1150.0;4;0.0;5;0.0;6;0.0;7;0.0;
RC;ROLL;1503.0;PITCH;1505.0;YAW;1515.0;THROTTLE;1064.0;AUX1;1540.0;AUX2;1500.0;AUX3;1500.0;AUX4;1500.0
ALTITUDE;36.0
DEBUG;DEBUG136.0;DEBUG2;0.0;DEBUG3;0.0;DEBUG4;0.0
ATTITUDE;ANGX;7.0;ANGY;-3.0;HEAD;134.0
STATUS;CYCLETIME;2868;I2CERR;0;PRESENT;23;MODE;3
RAW_IMU;AX;41.0;AY;-16.0;AZ;249.0;GX;0.0;GY;0.0;GZ;0.0;MAGX;-11.0;MAGY;-4.0;MAGZ;-17.0
MOT;0;1150.0;1;1150.0;2;1150.0;3;1150.0;4;0.0;5;0.0;6;0.0;7;0.0;
RC;ROLL;1503.0;PITCH;1505.0;YAW;1515.0;THROTTLE;1064.0;AUX1;1540.0;AUX2;1500.0;AUX3;1500.0;AUX4;1500.0
ALTITUDE;36.0
DEBUG;DEBUG136.0;DEBUG2;0.0;DEBUG3;0.0;DEBUG4;0.0
ATTITUDE;ANGX;7.0;ANGY;-3.0;HEAD;134.0
STATUS;CYCLETIME;2868;I2CERR;0;PRESENT;23;MODE;3
RAW_IMU;AX;40.0;AY;-17.0;AZ;249.0;GX;0.0;GY;0.0;GZ;0.0;MAGX;-11.0;MAGY;-4.0;MAGZ;-17.0
MOT;0;1150.0;1;1150.0;2;1150.0;3;1150.0;4;0.0;5;0.0;6;0.0;7;0.0;
RC;ROLL;1501.0;PITCH;1507.0;YAW;1515.0;THROTTLE;1064.0;AUX1;1540.0;AUX2;1500.0;AUX3;1500.0;AUX4;1500.0
ALTITUDE;36.0
DEBUG;DEBUG136.0;DEBUG2;0.0;DEBUG3;0.0;DEBUG4;0.0
ATTITUDE;ANGX;7.0;ANGY;-3.0;HEAD;134.0
STATUS;CYCLETIME;2864;I2CERR;0;PRESENT;23;MODE;3
RAW_IMU;AX;41.0;AY;-17.0;AZ;250.0;GX;0.0;GY;0.0;GZ;0.0;MAGX;-12.0;MAGY;-5.0;MAGZ;-17.0
MOT;0;1150.0;1;1150.0;2;1150.0;3;1150.0;4;0.0;5;0.0;6;0.0;7;0.0;
RC;ROLL;1501.0;PITCH;1507.0;YAW;1515.0;THROTTLE;1064.0;AUX1;1540.0;AUX2;1500.0;AUX3;1500.0;AUX4;1500.0
ALTITUDE;36.0
DEBUG;DEBUG136.0;DEBUG2;0.0;DEBUG3;0.0;DEBUG4;0.0
ATTITUDE;ANGX;7.0;ANGY;-3.0;HEAD;134.0
STATUS;CYCLETIME;2872;I2CERR;0;PRESENT;23;MODE;3
RAW_IMU;AX;41.0;AY;-16.0;AZ;249.0;GX;0.0;GY;0.0;GZ;0.0;MAGX;-12.0;MAGY;-5.0;MAGZ;-17.0
MOT;0;1150.0;1;1150.0;2;1150.0;3;1150.0;4;0.0;5;0.0;6;0.0;7;0.0;
RC;ROLL;1501.0;PITCH;1507.0;YAW;1515.0;THROTTLE;1062.0;AUX1;1540.0;AUX2;1500.0;AUX3;1500.0;AUX4;1500.0
ALTITUDE;36.0
DEBUG;DEBUG136.0;DEBUG2;0.0;DEBUG3;0.0;DEBUG4;0.0
ATTITUDE;ANGX;7.0;ANGY;-3.0;HEAD;134.0
STATUS;CYCLETIME;3080;I2CERR;0;PRESENT;23;MODE;3
RAW_IMU;AX;41.0;AY;-17.0;AZ;249.0;GX;0.0;GY;0.0;GZ;0.0;MAGX;-12.0;MAGY;-5.0;MAGZ;-17.0
MOT;0;1150.0;1;1150.0;2;1150.0;3;1150.0;4;0.0;5;0.0;6;0.0;7;0.0;
RC;ROLL;1501.0;PITCH;1507.0;YAW;1515.0;THROTTLE;1062.0;AUX1;1540.0;AUX2;1500.0;AUX3;1500.0;AUX4;1500.0
ALTITUDE;36.0
DEBUG;DEBUG136.0;DEBUG2;0.0;DEBUG3;0.0;DEBUG4;0.0
ATTITUDE;ANGX;7.0;ANGY;-3.0;HEAD;134.0
STATUS;CYCLETIME;2884;I2CERR;0;PRESENT;23;MODE;3
RAW_IMU;AX;40.0;AY;-17.0;AZ;249.0;GX;0.0;GY;0.0;GZ;0.0;MAGX;-12.0;MAGY;-5.0;MAGZ;-17.0
MOT;0;1150.0;1;1150.0;2;1150.0;3;1150.0;4;0.0;5;0.0;6;0.0;7;0.0;
RC;ROLL;1501.0;PITCH;1507.0;YAW;1515.0;THROTTLE;1062.0;AUX1;1540.0;AUX2;1500.0;AUX3;1500.0;AUX4;1500.0
ALTITUDE;36.0
DEBUG;DEBUG136.0;DEBUG2;0.0;DEBUG3;0.0;DEBUG4;0.0
ATTITUDE;ANGX;7.0;ANGY;-3.0;HEAD;134.0
STATUS;CYCLETIME;2856;I2CERR;0;PRESENT;23;MODE;3
RAW_IMU;AX;40.0;AY;-17.0;AZ;249.0;GX;0.0;GY;0.0;GZ;0.0;MAGX;-11.0;MAGY;-5.0;MAGZ;-17.0
MOT;0;1150.0;1;1150.0;2;1150.0;3;1150.0;4;0.0;5;0.0;6;0.0;7;0.0;
RC;ROLL;1503.0;PITCH;1505.0;YAW;1515.0;THROTTLE;1062.0;AUX1;1540.0;AUX2;1500.0;AUX3;1500.0;AUX4;1500.0
ALTITUDE;36.0
DEBUG;DEBUG136.0;DEBUG2;0.0;DEBUG3;0.0;DEBUG4;0.0
ATTITUDE;ANGX;7.0;ANGY;-3.0;HEAD;134.0
STATUS;CYCLETIME;3000;I2CERR;0;PRESENT;23;MODE;3
RAW_IMU;AX;41.0;AY;-17.0;AZ;250.0;GX;0.0;GY;0.0;GZ;0.0;MAGX;-11.0;MAGY;-5.0;MAGZ;-17.0
MOT;0;1150.0;1;1150.0;2;1150.0;3;1150.0;4;0.0;5;0.0;6;0.0;7;0.0;
RC;ROLL;1503.0;PITCH;1505.0;YAW;1515.0;THROTTLE;1062.0;AUX1;1540.0;AUX2;1500.0;AUX3;1500.0;AUX4;1500.0
ALTITUDE;36.0
DEBUG;DEBUG136.0;DEBUG2;0.0;DEBUG3;0.0;DEBUG4;0.0
ATTITUDE;ANGX;7.0;ANGY;-3.0;HEAD;134.0
STATUS;CYCLETIME;2856;I2CERR;0;PRESENT;23;MODE;3
RAW_IMU;AX;41.0;AY;-17.0;AZ;250.0;GX;0.0;GY;0.0;GZ;0.0;MAGX;-11.0;MAGY;-5.0;MAGZ;-17.0
MOT;0;1150.0;1;1150.0;2;1150.0;3;1150.0;4;0.0;5;0.0;6;0.0;7;0.0;
RC;ROLL;1503.0;PITCH;1505.0;YAW;1515.0;THROTTLE;1064.0;AUX1;1540.0;AUX2;1500.0;AUX3;1500.0;AUX4;1500.0
ALTITUDE;36.0
DEBUG;DEBUG136.0;DEBUG2;0.0;DEBUG3;0.0;DEBUG4;0.0
ATTITUDE;ANGX;7.0;ANGY;-3.0;HEAD;134.0
STATUS;CYCLETIME;2972;I2CERR;0;PRESENT;23;MODE;3
RAW_IMU;AX;41.0;AY;-16.0;AZ;250.0;GX;0.0;GY;0.0;GZ;0.0;MAGX;-11.0;MAGY;-5.0;MAGZ;-17.0
MOT;0;1150.0;1;1150.0;2;1150.0;3;1150.0;4;0.0;5;0.0;6;0.0;7;0.0;
RC;ROLL;1503.0;PITCH;1505.0;YAW;1515.0;THROTTLE;1064.0;AUX1;1540.0;AUX2;1500.0;AUX3;1500.0;AUX4;1500.0
ALTITUDE;36.0
DEBUG;DEBUG136.0;DEBUG2;0.0;DEBUG3;0.0;DEBUG4;0.0
ATTITUDE;ANGX;7.0;ANGY;-3.0;HEAD;134.0
STATUS;CYCLETIME;2900;I2CERR;0;PRESENT;23;MODE;3
RAW_IMU;AX;41.0;AY;-16.0;AZ;250.0;GX;0.0;GY;0.0;GZ;0.0;MAGX;-12.0;MAGY;-5.0;MAGZ;-17.0
MOT;0;1150.0;1;1150.0;2;1150.0;3;1150.0;4;0.0;5;0.0;6;0.0;7;0.0;
RC;ROLL;1503.0;PITCH;1505.0;YAW;1515.0;THROTTLE;1064.0;AUX1;1540.0;AUX2;1500.0;AUX3;1500.0;AUX4;1500.0
ALTITUDE;36.0
DEBUG;DEBUG136.0;DEBUG2;0.0;DEBUG3;0.0;DEBUG4;0.0
ATTITUDE;ANGX;7.0;ANGY;-3.0;HEAD;134.0
STATUS;CYCLETIME;2864;I2CERR;0;PRESENT;23;MODE;3
RAW_IMU;AX;41.0;AY;-17.0;AZ;249.0;GX;0.0;GY;0.0;GZ;0.0;MAGX;-12.0;MAGY;-5.0;MAGZ;-17.0
MOT;0;1150.0;1;1150.0;2;1150.0;3;1150.0;4;0.0;5;0.0;6;0.0;7;0.0;
RC;ROLL;1503.0;PITCH;1505.0;YAW;1515.0;THROTTLE;1061.0;AUX1;1540.0;AUX2;1500.0;AUX3;1500.0;AUX4;1500.0
ALTITUDE;36.0
DEBUG;DEBUG136.0;DEBUG2;0.0;DEBUG3;0.0;DEBUG4;0.0
ATTITUDE;ANGX;7.0;ANGY;-3.0;HEAD;134.0
STATUS;CYCLETIME;3112;I2CERR;0;PRESENT;23;MODE;3
RAW_IMU;AX;41.0;AY;-17.0;AZ;249.0;GX;0.0;GY;0.0;GZ;0.0;MAGX;-12.0;MAGY;-5.0;MAGZ;-16.0
MOT;0;1150.0;1;1150.0;2;1150.0;3;1150.0;4;0.0;5;0.0;6;0.0;7;0.0;
RC;ROLL;1503.0;PITCH;1505.0;YAW;1515.0;THROTTLE;1061.0;AUX1;1540.0;AUX2;1500.0;AUX3;1500.0;AUX4;1500.0
ALTITUDE;36.0
DEBUG;DEBUG136.0;DEBUG2;0.0;DEBUG3;0.0;DEBUG4;0.0
ATTITUDE;ANGX;7.0;ANGY;-3.0;HEAD;134.0
STATUS;CYCLETIME;3120;I2CERR;0;PRESENT;23;MODE;3
RAW_IMU;AX;41.0;AY;-16.0;AZ;250.0;GX;0.0;GY;0.0;GZ;0.0;MAGX;-12.0;MAGY;-5.0;MAGZ;-16.0
MOT;0;1150.0;1;1150.0;2;1150.0;3;1150.0;4;0.0;5;0.0;6;0.0;7;0.0;
RC;ROLL;1503.0;PITCH;1505.0;YAW;1515.0;THROTTLE;1061.0;AUX1;1540.0;AUX2;1500.0;AUX3;1500.0;AUX4;1500.0
ALTITUDE;36.0
DEBUG;DEBUG136.0;DEBUG2;0.0;DEBUG3;0.0;DEBUG4;0.0
ATTITUDE;ANGX;7.0;ANGY;-3.0;HEAD;134.0
STATUS;CYCLETIME;2940;I2CERR;0;PRESENT;23;MODE;3
RAW_IMU;AX;41.0;AY;-16.0;AZ;249.0;GX;0.0;GY;0.0;GZ;0.0;MAGX;-12.0;MAGY;-5.0;MAGZ;-16.0
MOT;0;1150.0;1;1150.0;2;1150.0;3;1150.0;4;0.0;5;0.0;6;0.0;7;0.0;
RC;ROLL;1503.0;PITCH;1505.0;YAW;1515.0;THROTTLE;1061.0;AUX1;1540.0;AUX2;1500.0;AUX3;1500.0;AUX4;1500.0
ALTITUDE;36.0
DEBUG;DEBUG136.0;DEBUG2;0.0;DEBUG3;0.0;DEBUG4;0.0
ATTITUDE;ANGX;7.0;ANGY;-3.0;HEAD;134.0
STATUS;CYCLETIME;2864;I2CERR;0;PRESENT;23;MODE;3
RAW_IMU;AX;41.0;AY;-17.0;AZ;249.0;GX;0.0;GY;0.0;GZ;0.0;MAGX;-11.0;MAGY;-4.0;MAGZ;-16.0
MOT;0;1150.0;1;1150.0;2;1150.0;3;1150.0;4;0.0;5;0.0;6;0.0;7;0.0;
RC;ROLL;1503.0;PITCH;1505.0;YAW;1515.0;THROTTLE;1063.0;AUX1;1540.0;AUX2;1500.0;AUX3;1500.0;AUX4;1500.0
ALTITUDE;36.0
DEBUG;DEBUG136.0;DEBUG2;0.0;DEBUG3;0.0;DEBUG4;0.0
ATTITUDE;ANGX;7.0;ANGY;-3.0;HEAD;134.0
STATUS;CYCLETIME;2820;I2CERR;0;PRESENT;23;MODE;3
RAW_IMU;AX;40.0;AY;-17.0;AZ;249.0;GX;0.0;GY;0.0;GZ;0.0;MAGX;-11.0;MAGY;-4.0;MAGZ;-16.0
MOT;0;1150.0;1;1150.0;2;1150.0;3;1150.0;4;0.0;5;0.0;6;0.0;7;0.0;
RC;ROLL;1503.0;PITCH;1505.0;YAW;1515.0;THROTTLE;1063.0;AUX1;1542.0;AUX2;1500.0;AUX3;1500.0;AUX4;1500.0
ALTITUDE;36.0
DEBUG;DEBUG136.0;DEBUG2;0.0;DEBUG3;0.0;DEBUG4;0.0
ATTITUDE;ANGX;7.0;ANGY;-3.0;HEAD;134.0
STATUS;CYCLETIME;2916;I2CERR;0;PRESENT;23;MODE;3
RAW_IMU;AX;41.0;AY;-17.0;AZ;249.0;GX;0.0;GY;0.0;GZ;0.0;MAGX;-11.0;MAGY;-5.0;MAGZ;-17.0
MOT;0;1150.0;1;1150.0;2;1150.0;3;1150.0;4;0.0;5;0.0;6;0.0;7;0.0;
RC;ROLL;1503.0;PITCH;1505.0;YAW;1515.0;THROTTLE;1063.0;AUX1;1542.0;AUX2;1500.0;AUX3;1500.0;AUX4;1500.0
ALTITUDE;36.0
DEBUG;DEBUG136.0;DEBUG2;0.0;DEBUG3;0.0;DEBUG4;0.0
ATTITUDE;ANGX;7.0;ANGY;-3.0;HEAD;134.0
STATUS;CYCLETIME;3196;I2CERR;0;PRESENT;23;MODE;3
RAW_IMU;AX;41.0;AY;-17.0;AZ;249.0;GX;0.0;GY;0.0;GZ;0.0;MAGX;-13.0;MAGY;-5.0;MAGZ;-16.0
MOT;0;1150.0;1;1150.0;2;1150.0;3;1150.0;4;0.0;5;0.0;6;0.0;7;0.0;
RC;ROLL;1503.0;PITCH;1505.0;YAW;1515.0;THROTTLE;1063.0;AUX1;1542.0;AUX2;1500.0;AUX3;1500.0;AUX4;1500.0
ALTITUDE;36.0
DEBUG;DEBUG136.0;DEBUG2;0.0;DEBUG3;0.0;DEBUG4;0.0
ATTITUDE;ANGX;7.0;ANGY;-3.0;HEAD;134.0
STATUS;CYCLETIME;2868;I2CERR;0;PRESENT;23;MODE;3
RAW_IMU;AX;41.0;AY;-17.0;AZ;249.0;GX;0.0;GY;0.0;GZ;0.0;MAGX;-13.0;MAGY;-5.0;MAGZ;-16.0
MOT;0;1150.0;1;1150.0;2;1150.0;3;1150.0;4;0.0;5;0.0;6;0.0;7;0.0;
RC;ROLL;1503.0;PITCH;1505.0;YAW;1515.0;THROTTLE;1063.0;AUX1;1542.0;AUX2;1500.0;AUX3;1500.0;AUX4;1500.0
ALTITUDE;36.0
DEBUG;DEBUG136.0;DEBUG2;0.0;DEBUG3;0.0;DEBUG4;0.0
ATTITUDE;ANGX;7.0;ANGY;-3.0;HEAD;134.0
STATUS;CYCLETIME;3104;I2CERR;0;PRESENT;23;MODE;3
RAW_IMU;AX;41.0;AY;-17.0;AZ;250.0;GX;0.0;GY;0.0;GZ;0.0;MAGX;-13.0;MAGY;-5.0;MAGZ;-16.0
MOT;0;1150.0;1;1150.0;2;1150.0;3;1150.0;4;0.0;5;0.0;6;0.0;7;0.0;
RC;ROLL;1500.0;PITCH;1505.0;YAW;1515.0;THROTTLE;1063.0;AUX1;1540.0;AUX2;1500.0;AUX3;1500.0;AUX4;1500.0
ALTITUDE;36.0
DEBUG;DEBUG136.0;DEBUG2;0.0;DEBUG3;0.0;DEBUG4;0.0
ATTITUDE;ANGX;7.0;ANGY;-3.0;HEAD;134.0
STATUS;CYCLETIME;2872;I2CERR;0;PRESENT;23;MODE;3
RAW_IMU;AX;41.0;AY;-17.0;AZ;250.0;GX;0.0;GY;0.0;GZ;0.0;MAGX;-11.0;MAGY;-5.0;MAGZ;-17.0
MOT;0;1150.0;1;1150.0;2;1150.0;3;1150.0;4;0.0;5;0.0;6;0.0;7;0.0;
RC;ROLL;1500.0;PITCH;1507.0;YAW;1515.0;THROTTLE;1063.0;AUX1;1540.0;AUX2;1500.0;AUX3;1500.0;AUX4;1500.0
ALTITUDE;36.0
DEBUG;DEBUG136.0;DEBUG2;0.0;DEBUG3;0.0;DEBUG4;0.0
ATTITUDE;ANGX;7.0;ANGY;-3.0;HEAD;134.0
STATUS;CYCLETIME;2920;I2CERR;0;PRESENT;23;MODE;3
RAW_IMU;AX;41.0;AY;-17.0;AZ;249.0;GX;0.0;GY;0.0;GZ;0.0;MAGX;-11.0;MAGY;-5.0;MAGZ;-17.0
MOT;0;1150.0;1;1150.0;2;1150.0;3;1150.0;4;0.0;5;0.0;6;0.0;7;0.0;
RC;ROLL;1502.0;PITCH;1507.0;YAW;1515.0;THROTTLE;1063.0;AUX1;1540.0;AUX2;1500.0;AUX3;1500.0;AUX4;1500.0
ALTITUDE;36.0
DEBUG;DEBUG136.0;DEBUG2;0.0;DEBUG3;0.0;DEBUG4;0.0
ATTITUDE;ANGX;7.0;ANGY;-3.0;HEAD;134.0
STATUS;CYCLETIME;2860;I2CERR;0;PRESENT;23;MODE;3
RAW_IMU;AX;41.0;AY;-17.0;AZ;249.0;GX;0.0;GY;0.0;GZ;0.0;MAGX;-12.0;MAGY;-5.0;MAGZ;-16.0
MOT;0;1150.0;1;1150.0;2;1150.0;3;1150.0;4;0.0;5;0.0;6;0.0;7;0.0;
RC;ROLL;1502.0;PITCH;1507.0;YAW;1515.0;THROTTLE;1063.0;AUX1;1540.0;AUX2;1500.0;AUX3;1500.0;AUX4;1500.0
ALTITUDE;36.0
DEBUG;DEBUG136.0;DEBUG2;0.0;DEBUG3;0.0;DEBUG4;0.0
ATTITUDE;ANGX;7.0;ANGY;-3.0;HEAD;134.0
STATUS;CYCLETIME;2924;I2CERR;0;PRESENT;23;MODE;3
RAW_IMU;AX;41.0;AY;-17.0;AZ;249.0;GX;0.0;GY;0.0;GZ;0.0;MAGX;-12.0;MAGY;-5.0;MAGZ;-16.0
MOT;0;1150.0;1;1150.0;2;1150.0;3;1150.0;4;0.0;5;0.0;6;0.0;7;0.0;
RC;ROLL;1502.0;PITCH;1507.0;YAW;1515.0;THROTTLE;1063.0;AUX1;1540.0;AUX2;1500.0;AUX3;1500.0;AUX4;1500.0
ALTITUDE;36.0
DEBUG;DEBUG136.0;DEBUG2;0.0;DEBUG3;0.0;DEBUG4;0.0
ATTITUDE;ANGX;7.0;ANGY;-3.0;HEAD;134.0
STATUS;CYCLETIME;2892;I2CERR;0;PRESENT;23;MODE;3
RAW_IMU;AX;41.0;AY;-17.0;AZ;249.0;GX;0.0;GY;0.0;GZ;0.0;MAGX;-12.0;MAGY;-5.0;MAGZ;-17.0
MOT;0;1150.0;1;1150.0;2;1150.0;3;1150.0;4;0.0;5;0.0;6;0.0;7;0.0;
RC;ROLL;1502.0;PITCH;1507.0;YAW;1515.0;THROTTLE;1063.0;AUX1;1540.0;AUX2;1500.0;AUX3;1500.0;AUX4;1500.0
ALTITUDE;36.0
DEBUG;DEBUG136.0;DEBUG2;0.0;DEBUG3;0.0;DEBUG4;0.0
ATTITUDE;ANGX;7.0;ANGY;-3.0;HEAD;134.0
STATUS;CYCLETIME;2860;I2CERR;0;PRESENT;23;MODE;3
RAW_IMU;AX;41.0;AY;-16.0;AZ;249.0;GX;0.0;GY;0.0;GZ;0.0;MAGX;-12.0;MAGY;-5.0;MAGZ;-17.0
MOT;0;1150.0;1;1150.0;2;1150.0;3;1150.0;4;0.0;5;0.0;6;0.0;7;0.0;
RC;ROLL;1502.0;PITCH;1507.0;YAW;1515.0;THROTTLE;1063.0;AUX1;1540.0;AUX2;1500.0;AUX3;1500.0;AUX4;1500.0
ALTITUDE;36.0
DEBUG;DEBUG136.0;DEBUG2;0.0;DEBUG3;0.0;DEBUG4;0.0
ATTITUDE;ANGX;7.0;ANGY;-3.0;HEAD;134.0
STATUS;CYCLETIME;2940;I2CERR;0;PRESENT;23;MODE;3
