IDENT;V;220;TYPE;3
MSP_MOTOR_PINS
STATUS;CYCLETIME;2804;I2CERR;0;PRESENT;23;MODE;0
RAW_IMU;AX;12.0;AY;-3.0;AZ;254.0;GX;0.0;GY;0.0;GZ;0.0;MAGX;-26.0;MAGY;-79.0;MAGZ;83.0
MOT;0;1000.0;1;1000.0;2;1000.0;3;1000.0;4;0.0;5;0.0;6;0.0;7;0.0;
RC;ROLL;1484.0;PITCH;1534.0;YAW;1506.0;THROTTLE;1063.0;AUX1;1553.0;AUX2;1500.0;AUX3;1500.0;AUX4;1500.0
ALTITUDE;0.0
DEBUG;DEBUG10.0;DEBUG2;0.0;DEBUG3;0.0;DEBUG4;0.0
ATTITUDE;ANGX;5.0;ANGY;0.0;HEAD;168.0
STATUS;CYCLETIME;2776;I2CERR;0;PRESENT;23;MODE;0
RAW_IMU;AX;12.0;AY;-3.0;AZ;253.0;GX;1.0;GY;0.0;GZ;0.0;MAGX;-26.0;MAGY;-79.0;MAGZ;83.0
MOT;0;1000.0;1;1000.0;2;1000.0;3;1000.0;4;0.0;5;0.0;6;0.0;7;0.0;
RC;ROLL;1484.0;PITCH;1534.0;YAW;1506.0;THROTTLE;1063.0;AUX1;1553.0;AUX2;1500.0;AUX3;1500.0;AUX4;1500.0
ALTITUDE;0.0
DEBUG;DEBUG10.0;DEBUG2;0.0;DEBUG3;0.0;DEBUG4;0.0
ATTITUDE;ANGX;5.0;ANGY;0.0;HEAD;168.0
ATTITUDE;ANGX;5.0;ANGY;0.0;HEAD;168.0
STATUS;CYCLETIME;2760;I2CERR;0;PRESENT;23;MODE;0
RAW_IMU;AX;12.0;AY;-5.0;AZ;252.0;GX;0.0;GY;0.0;GZ;0.0;MAGX;-24.0;MAGY;-78.0;MAGZ;82.0
MOT;0;1000.0;1;1000.0;2;1000.0;3;1000.0;4;0.0;5;0.0;6;0.0;7;0.0;
RC;ROLL;1484.0;PITCH;1534.0;YAW;1506.0;THROTTLE;1063.0;AUX1;1553.0;AUX2;1500.0;AUX3;1500.0;AUX4;1500.0
ALTITUDE;0.0
DEBUG;DEBUG10.0;DEBUG2;0.0;DEBUG3;0.0;DEBUG4;0.0
ATTITUDE;ANGX;5.0;ANGY;0.0;HEAD;168.0
STATUS;CYCLETIME;2772;I2CERR;0;PRESENT;23;MODE;0
RAW_IMU;AX;10.0;AY;-4.0;AZ;254.0;GX;0.0;GY;0.0;GZ;0.0;MAGX;-25.0;MAGY;-78.0;MAGZ;82.0
MOT;0;1000.0;1;1000.0;2;1000.0;3;1000.0;4;0.0;5;0.0;6;0.0;7;0.0;
RC;ROLL;1484.0;PITCH;1534.0;YAW;1506.0;THROTTLE;1063.0;AUX1;1553.0;AUX2;1500.0;AUX3;1500.0;AUX4;1500.0
ALTITUDE;0.0
DEBUG;DEBUG10.0;DEBUG2;0.0;DEBUG3;0.0;DEBUG4;0.0
ATTITUDE;ANGX;5.0;ANGY;0.0;HEAD;168.0
STATUS;CYCLETIME;2896;I2CERR;0;PRESENT;23;MODE;0
RAW_IMU;AX;12.0;AY;-5.0;AZ;256.0;GX;0.0;GY;0.0;GZ;0.0;MAGX;-25.0;MAGY;-78.0;MAGZ;82.0
MOT;0;1000.0;1;1000.0;2;1000.0;3;1000.0;4;0.0;5;0.0;6;0.0;7;0.0;
RC;ROLL;1484.0;PITCH;1534.0;YAW;1506.0;THROTTLE;1063.0;AUX1;1553.0;AUX2;1500.0;AUX3;1500.0;AUX4;1500.0
ALTITUDE;0.0
DEBUG;DEBUG10.0;DEBUG2;0.0;DEBUG3;0.0;DEBUG4;0.0
ATTITUDE;ANGX;5.0;ANGY;0.0;HEAD;168.0
STATUS;CYCLETIME;2788;I2CERR;0;PRESENT;23;MODE;0
RAW_IMU;AX;9.0;AY;-2.0;AZ;254.0;GX;1.0;GY;0.0;GZ;0.0;MAGX;-24.0;MAGY;-79.0;MAGZ;82.0
MOT;0;1000.0;1;1000.0;2;1000.0;3;1000.0;4;0.0;5;0.0;6;0.0;7;0.0;
RC;ROLL;1484.0;PITCH;1534.0;YAW;1506.0;THROTTLE;1063.0;AUX1;1553.0;AUX2;1500.0;AUX3;1500.0;AUX4;1500.0
ALTITUDE;0.0
DEBUG;DEBUG10.0;DEBUG2;0.0;DEBUG3;0.0;DEBUG4;0.0
ATTITUDE;ANGX;5.0;ANGY;0.0;HEAD;168.0
STATUS;CYCLETIME;2800;I2CERR;0;PRESENT;23;MODE;0
RAW_IMU;AX;8.0;AY;-4.0;AZ;254.0;GX;1.0;GY;0.0;GZ;0.0;MAGX;-24.0;MAGY;-79.0;MAGZ;82.0
MOT;0;1000.0;1;1000.0;2;1000.0;3;1000.0;4;0.0;5;0.0;6;0.0;7;0.0;
RC;ROLL;1484.0;PITCH;1534.0;YAW;1506.0;THROTTLE;1063.0;AUX1;1553.0;AUX2;1500.0;AUX3;1500.0;AUX4;1500.0
ALTITUDE;0.0
DEBUG;DEBUG10.0;DEBUG2;0.0;DEBUG3;0.0;DEBUG4;0.0
ATTITUDE;ANGX;5.0;ANGY;0.0;HEAD;168.0
STATUS;CYCLETIME;2840;I2CERR;0;PRESENT;23;MODE;0
RAW_IMU;AX;10.0;AY;-4.0;AZ;253.0;GX;0.0;GY;0.0;GZ;0.0;MAGX;-25.0;MAGY;-78.0;MAGZ;81.0
MOT;0;1000.0;1;1000.0;2;1000.0;3;1000.0;4;0.0;5;0.0;6;0.0;7;0.0;
RC;ROLL;1484.0;PITCH;1534.0;YAW;1506.0;THROTTLE;1063.0;AUX1;1553.0;AUX2;1500.0;AUX3;1500.0;AUX4;1500.0
ALTITUDE;0.0
DEBUG;DEBUG10.0;DEBUG2;0.0;DEBUG3;0.0;DEBUG4;0.0
ATTITUDE;ANGX;5.0;ANGY;0.0;HEAD;168.0
STATUS;CYCLETIME;2804;I2CERR;0;PRESENT;23;MODE;0
RAW_IMU;AX;11.0;AY;-3.0;AZ;254.0;GX;1.0;GY;0.0;GZ;0.0;MAGX;-25.0;MAGY;-78.0;MAGZ;81.0
MOT;0;1000.0;1;1000.0;2;1000.0;3;1000.0;4;0.0;5;0.0;6;0.0;7;0.0;
RC;ROLL;1484.0;PITCH;1534.0;YAW;1506.0;THROTTLE;1063.0;AUX1;1553.0;AUX2;1500.0;AUX3;1500.0;AUX4;1500.0
ALTITUDE;0.0
DEBUG;DEBUG10.0;DEBUG2;0.0;DEBUG3;0.0;DEBUG4;0.0
ATTITUDE;ANGX;5.0;ANGY;0.0;HEAD;168.0
STATUS;CYCLETIME;3052;I2CERR;0;PRESENT;23;MODE;0
RAW_IMU;AX;12.0;AY;-4.0;AZ;254.0;GX;0.0;GY;0.0;GZ;0.0;MAGX;-25.0;MAGY;-78.0;MAGZ;83.0
MOT;0;1000.0;1;1000.0;2;1000.0;3;1000.0;4;0.0;5;0.0;6;0.0;7;0.0;
RC;ROLL;1484.0;PITCH;1534.0;YAW;1506.0;THROTTLE;1063.0;AUX1;1553.0;AUX2;1500.0;AUX3;1500.0;AUX4;1500.0
ALTITUDE;0.0
DEBUG;DEBUG10.0;DEBUG2;0.0;DEBUG3;0.0;DEBUG4;0.0
ATTITUDE;ANGX;5.0;ANGY;0.0;HEAD;168.0
STATUS;CYCLETIME;2908;I2CERR;0;PRESENT;23;MODE;0
RAW_IMU;AX;10.0;AY;-5.0;AZ;252.0;GX;0.0;GY;0.0;GZ;0.0;MAGX;-25.0;MAGY;-78.0;MAGZ;83.0
MOT;0;1000.0;1;1000.0;2;1000.0;3;1000.0;4;0.0;5;0.0;6;0.0;7;0.0;
RC;ROLL;1484.0;PITCH;1534.0;YAW;1506.0;THROTTLE;1063.0;AUX1;1553.0;AUX2;1500.0;AUX3;1500.0;AUX4;1500.0
ALTITUDE;0.0
DEBUG;DEBUG10.0;DEBUG2;0.0;DEBUG3;0.0;DEBUG4;0.0
ATTITUDE;ANGX;5.0;ANGY;0.0;HEAD;168.0
STATUS;CYCLETIME;2788;I2CERR;0;PRESENT;23;MODE;0
RAW_IMU;AX;10.0;AY;-5.0;AZ;252.0;GX;0.0;GY;0.0;GZ;0.0;MAGX;-25.0;MAGY;-78.0;MAGZ;81.0
MOT;0;1000.0;1;1000.0;2;1000.0;3;1000.0;4;0.0;5;0.0;6;0.0;7;0.0;
RC;ROLL;1484.0;PITCH;1534.0;YAW;1506.0;THROTTLE;1063.0;AUX1;1553.0;AUX2;1500.0;AUX3;1500.0;AUX4;1500.0
ALTITUDE;0.0
DEBUG;DEBUG10.0;DEBUG2;0.0;DEBUG3;0.0;DEBUG4;0.0
ATTITUDE;ANGX;5.0;ANGY;0.0;HEAD;168.0
STATUS;CYCLETIME;2768;I2CERR;0;PRESENT;23;MODE;0
RAW_IMU;AX;10.0;AY;-3.0;AZ;252.0;GX;0.0;GY;0.0;GZ;0.0;MAGX;-25.0;MAGY;-78.0;MAGZ;81.0
MOT;0;1000.0;1;1000.0;2;1000.0;3;1000.0;4;0.0;5;0.0;6;0.0;7;0.0;
RC;ROLL;1484.0;PITCH;1534.0;YAW;1506.0;THROTTLE;1063.0;AUX1;1553.0;AUX2;1500.0;AUX3;1500.0;AUX4;1500.0
ALTITUDE;0.0
DEBUG;DEBUG10.0;DEBUG2;0.0;DEBUG3;0.0;DEBUG4;0.0
ATTITUDE;ANGX;5.0;ANGY;0.0;HEAD;168.0
STATUS;CYCLETIME;2808;I2CERR;0;PRESENT;23;MODE;0
RAW_IMU;AX;11.0;AY;-3.0;AZ;256.0;GX;0.0;GY;0.0;GZ;0.0;MAGX;-25.0;MAGY;-78.0;MAGZ;83.0
MOT;0;1000.0;1;1000.0;2;1000.0;3;1000.0;4;0.0;5;0.0;6;0.0;7;0.0;
RC;ROLL;1484.0;PITCH;1534.0;YAW;1506.0;THROTTLE;1063.0;AUX1;1553.0;AUX2;1500.0;AUX3;1500.0;AUX4;1500.0
ALTITUDE;0.0
DEBUG;DEBUG10.0;DEBUG2;0.0;DEBUG3;0.0;DEBUG4;0.0
ATTITUDE;ANGX;5.0;ANGY;0.0;HEAD;168.0
STATUS;CYCLETIME;2772;I2CERR;0;PRESENT;23;MODE;0
RAW_IMU;AX;11.0;AY;-4.0;AZ;254.0;GX;1.0;GY;0.0;GZ;0.0;MAGX;-25.0;MAGY;-78.0;MAGZ;83.0
MOT;0;1000.0;1;1000.0;2;1000.0;3;1000.0;4;0.0;5;0.0;6;0.0;7;0.0;
RC;ROLL;1484.0;PITCH;1534.0;YAW;1506.0;THROTTLE;1063.0;AUX1;1553.0;AUX2;1500.0;AUX3;1500.0;AUX4;1500.0
ALTITUDE;0.0
DEBUG;DEBUG10.0;DEBUG2;0.0;DEBUG3;0.0;DEBUG4;0.0
ATTITUDE;ANGX;5.0;ANGY;0.0;HEAD;168.0
STATUS;CYCLETIME;2736;I2CERR;0;PRESENT;23;MODE;0
RAW_IMU;AX;12.0;AY;-4.0;AZ;250.0;GX;1.0;GY;0.0;GZ;0.0;MAGX;-25.0;MAGY;-78.0;MAGZ;83.0
MOT;0;1000.0;1;1000.0;2;1000.0;3;1000.0;4;0.0;5;0.0;6;0.0;7;0.0;
RC;ROLL;1484.0;PITCH;1534.0;YAW;1506.0;THROTTLE;1063.0;AUX1;1553.0;AUX2;1500.0;AUX3;1500.0;AUX4;1500.0
ALTITUDE;0.0
DEBUG;DEBUG10.0;DEBUG2;0.0;DEBUG3;0.0;DEBUG4;0.0
ATTITUDE;ANGX;5.0;ANGY;0.0;HEAD;168.0
STATUS;CYCLETIME;2888;I2CERR;0;PRESENT;23;MODE;0
RAW_IMU;AX;13.0;AY;-3.0;AZ;252.0;GX;1.0;GY;0.0;GZ;0.0;MAGX;-25.0;MAGY;-78.0;MAGZ;82.0
MOT;0;1000.0;1;1000.0;2;1000.0;3;1000.0;4;0.0;5;0.0;6;0.0;7;0.0;
RC;ROLL;1484.0;PITCH;1534.0;YAW;1506.0;THROTTLE;1063.0;AUX1;1553.0;AUX2;1500.0;AUX3;1500.0;AUX4;1500.0
ALTITUDE;0.0
DEBUG;DEBUG10.0;DEBUG2;0.0;DEBUG3;0.0;DEBUG4;0.0
ATTITUDE;ANGX;5.0;ANGY;0.0;HEAD;168.0
STATUS;CYCLETIME;2812;I2CERR;0;PRESENT;23;MODE;0
RAW_IMU;AX;13.0;AY;-4.0;AZ;254.0;GX;0.0;GY;0.0;GZ;0.0;MAGX;-25.0;MAGY;-78.0;MAGZ;82.0
MOT;0;1000.0;1;1000.0;2;1000.0;3;1000.0;4;0.0;5;0.0;6;0.0;7;0.0;
RC;ROLL;1484.0;PITCH;1534.0;YAW;1506.0;THROTTLE;1063.0;AUX1;1553.0;AUX2;1500.0;AUX3;1500.0;AUX4;1500.0
ALTITUDE;0.0
DEBUG;DEBUG10.0;DEBUG2;0.0;DEBUG3;0.0;DEBUG4;0.0
ATTITUDE;ANGX;5.0;ANGY;0.0;HEAD;168.0
STATUS;CYCLETIME;2764;I2CERR;0;PRESENT;23;MODE;0
RAW_IMU;AX;11.0;AY;-3.0;AZ;252.0;GX;1.0;GY;0.0;GZ;0.0;MAGX;-24.0;MAGY;-78.0;MAGZ;82.0
MOT;0;1000.0;1;1000.0;2;1000.0;3;1000.0;4;0.0;5;0.0;6;0.0;7;0.0;
RC;ROLL;1484.0;PITCH;1534.0;YAW;1506.0;THROTTLE;1063.0;AUX1;1553.0;AUX2;1500.0;AUX3;1500.0;AUX4;1500.0
ALTITUDE;0.0
DEBUG;DEBUG10.0;DEBUG2;0.0;DEBUG3;0.0;DEBUG4;0.0
ATTITUDE;ANGX;5.0;ANGY;0.0;HEAD;168.0
STATUS;CYCLETIME;2748;I2CERR;0;PRESENT;23;MODE;0
RAW_IMU;AX;8.0;AY;-2.0;AZ;253.0;GX;1.0;GY;0.0;GZ;0.0;MAGX;-24.0;MAGY;-78.0;MAGZ;82.0
MOT;0;1000.0;1;1000.0;2;1000.0;3;1000.0;4;0.0;5;0.0;6;0.0;7;0.0;
RC;ROLL;1484.0;PITCH;1534.0;YAW;1506.0;THROTTLE;1063.0;AUX1;1553.0;AUX2;1500.0;AUX3;1500.0;AUX4;1500.0
ALTITUDE;0.0
DEBUG;DEBUG10.0;DEBUG2;0.0;DEBUG3;0.0;DEBUG4;0.0
ATTITUDE;ANGX;5.0;ANGY;0.0;HEAD;168.0
STATUS;CYCLETIME;2904;I2CERR;0;PRESENT;23;MODE;0
RAW_IMU;AX;8.0;AY;-4.0;AZ;254.0;GX;1.0;GY;0.0;GZ;0.0;MAGX;-24.0;MAGY;-78.0;MAGZ;83.0
MOT;0;1000.0;1;1000.0;2;1000.0;3;1000.0;4;0.0;5;0.0;6;0.0;7;0.0;
RC;ROLL;1484.0;PITCH;1534.0;YAW;1506.0;THROTTLE;1063.0;AUX1;1553.0;AUX2;1500.0;AUX3;1500.0;AUX4;1500.0
ALTITUDE;0.0
DEBUG;DEBUG10.0;DEBUG2;0.0;DEBUG3;0.0;DEBUG4;0.0
ATTITUDE;ANGX;5.0;ANGY;0.0;HEAD;168.0
STATUS;CYCLETIME;2772;I2CERR;0;PRESENT;23;MODE;0
RAW_IMU;AX;8.0;AY;-4.0;AZ;255.0;GX;1.0;GY;0.0;GZ;0.0;MAGX;-24.0;MAGY;-78.0;MAGZ;83.0
MOT;0;1000.0;1;1000.0;2;1000.0;3;1000.0;4;0.0;5;0.0;6;0.0;7;0.0;
RC;ROLL;1484.0;PITCH;1534.0;YAW;1506.0;THROTTLE;1063.0;AUX1;1553.0;AUX2;1500.0;AUX3;1500.0;AUX4;1500.0
ALTITUDE;0.0
DEBUG;DEBUG10.0;DEBUG2;0.0;DEBUG3;0.0;DEBUG4;0.0
ATTITUDE;ANGX;5.0;ANGY;0.0;HEAD;168.0
STATUS;CYCLETIME;2800;I2CERR;0;PRESENT;23;MODE;0
RAW_IMU;AX;10.0;AY;-3.0;AZ;252.0;GX;0.0;GY;0.0;GZ;0.0;MAGX;-24.0;MAGY;-78.0;MAGZ;83.0
MOT;0;1000.0;1;1000.0;2;1000.0;3;1000.0;4;0.0;5;0.0;6;0.0;7;0.0;
RC;ROLL;1484.0;PITCH;1534.0;YAW;1506.0;THROTTLE;1063.0;AUX1;1553.0;AUX2;1500.0;AUX3;1500.0;AUX4;1500.0
ALTITUDE;0.0
DEBUG;DEBUG10.0;DEBUG2;0.0;DEBUG3;0.0;DEBUG4;0.0
ATTITUDE;ANGX;5.0;ANGY;0.0;HEAD;168.0
STATUS;CYCLETIME;2916;I2CERR;0;PRESENT;23;MODE;0
RAW_IMU;AX;8.0;AY;-3.0;AZ;253.0;GX;0.0;GY;0.0;GZ;0.0;MAGX;-24.0;MAGY;-78.0;MAGZ;83.0
MOT;0;1000.0;1;1000.0;2;1000.0;3;1000.0;4;0.0;5;0.0;6;0.0;7;0.0;
RC;ROLL;1484.0;PITCH;1534.0;YAW;1506.0;THROTTLE;1063.0;AUX1;1553.0;AUX2;1500.0;AUX3;1500.0;AUX4;1500.0
ALTITUDE;0.0
DEBUG;DEBUG10.0;DEBUG2;0.0;DEBUG3;0.0;DEBUG4;0.0
ATTITUDE;ANGX;5.0;ANGY;0.0;HEAD;168.0
STATUS;CYCLETIME;2772;I2CERR;0;PRESENT;23;MODE;0
RAW_IMU;AX;10.0;AY;-2.0;AZ;255.0;GX;0.0;GY;0.0;GZ;0.0;MAGX;-25.0;MAGY;-79.0;MAGZ;83.0
MOT;0;1000.0;1;1000.0;2;1000.0;3;1000.0;4;0.0;5;0.0;6;0.0;7;0.0;
RC;ROLL;1484.0;PITCH;1534.0;YAW;1506.0;THROTTLE;1063.0;AUX1;1553.0;AUX2;1500.0;AUX3;1500.0;AUX4;1500.0
ALTITUDE;0.0
DEBUG;DEBUG10.0;DEBUG2;0.0;DEBUG3;0.0;DEBUG4;0.0
ATTITUDE;ANGX;5.0;ANGY;0.0;HEAD;168.0
STATUS;CYCLETIME;2772;I2CERR;0;PRESENT;23;MODE;0
RAW_IMU;AX;11.0;AY;-3.0;AZ;255.0;GX;1.0;GY;0.0;GZ;0.0;MAGX;-25.0;MAGY;-79.0;MAGZ;83.0
MOT;0;1000.0;1;1000.0;2;1000.0;3;1000.0;4;0.0;5;0.0;6;0.0;7;0.0;
RC;ROLL;1484.0;PITCH;1534.0;YAW;1506.0;THROTTLE;1063.0;AUX1;1553.0;AUX2;1500.0;AUX3;1500.0;AUX4;1500.0
ALTITUDE;0.0
DEBUG;DEBUG10.0;DEBUG2;0.0;DEBUG3;0.0;DEBUG4;0.0
ATTITUDE;ANGX;5.0;ANGY;0.0;HEAD;168.0
STATUS;CYCLETIME;2860;I2CERR;0;PRESENT;23;MODE;0
RAW_IMU;AX;10.0;AY;-3.0;AZ;254.0;GX;0.0;GY;0.0;GZ;0.0;MAGX;-26.0;MAGY;-78.0;MAGZ;82.0
MOT;0;1000.0;1;1000.0;2;1000.0;3;1000.0;4;0.0;5;0.0;6;0.0;7;0.0;
RC;ROLL;1484.0;PITCH;1534.0;YAW;1506.0;THROTTLE;1063.0;AUX1;1553.0;AUX2;1500.0;AUX3;1500.0;AUX4;1500.0
ALTITUDE;0.0
DEBUG;DEBUG10.0;DEBUG2;0.0;DEBUG3;0.0;DEBUG4;0.0
ATTITUDE;ANGX;5.0;ANGY;0.0;HEAD;168.0
STATUS;CYCLETIME;2796;I2CERR;0;PRESENT;23;MODE;0
RAW_IMU;AX;10.0;AY;-2.0;AZ;254.0;GX;0.0;GY;0.0;GZ;0.0;MAGX;-26.0;MAGY;-78.0;MAGZ;82.0
MOT;0;1000.0;1;1000.0;2;1000.0;3;1000.0;4;0.0;5;0.0;6;0.0;7;0.0;
RC;ROLL;1484.0;PITCH;1534.0;YAW;1506.0;THROTTLE;1063.0;AUX1;1553.0;AUX2;1500.0;AUX3;1500.0;AUX4;1500.0
ALTITUDE;0.0
DEBUG;DEBUG10.0;DEBUG2;0.0;DEBUG3;0.0;DEBUG4;0.0
ATTITUDE;ANGX;5.0;ANGY;0.0;HEAD;168.0
STATUS;CYCLETIME;2768;I2CERR;0;PRESENT;23;MODE;0
RAW_IMU;AX;11.0;AY;-2.0;AZ;255.0;GX;1.0;GY;0.0;GZ;0.0;MAGX;-25.0;MAGY;-78.0;MAGZ;83.0
MOT;0;1000.0;1;1000.0;2;1000.0;3;1000.0;4;0.0;5;0.0;6;0.0;7;0.0;
RC;ROLL;1484.0;PITCH;1534.0;YAW;1506.0;THROTTLE;1063.0;AUX1;1553.0;AUX2;1500.0;AUX3;1500.0;AUX4;1500.0
ALTITUDE;0.0
DEBUG;DEBUG10.0;DEBUG2;0.0;DEBUG3;0.0;DEBUG4;0.0
ATTITUDE;ANGX;5.0;ANGY;0.0;HEAD;168.0
STATUS;CYCLETIME;2880;I2CERR;0;PRESENT;23;MODE;0
RAW_IMU;AX;9.0;AY;-4.0;AZ;255.0;GX;1.0;GY;0.0;GZ;0.0;MAGX;-25.0;MAGY;-78.0;MAGZ;83.0
MOT;0;1000.0;1;1000.0;2;1000.0;3;1000.0;4;0.0;5;0.0;6;0.0;7;0.0;
RC;ROLL;1484.0;PITCH;1534.0;YAW;1506.0;THROTTLE;1063.0;AUX1;1553.0;AUX2;1500.0;AUX3;1500.0;AUX4;1500.0
ALTITUDE;0.0
DEBUG;DEBUG10.0;DEBUG2;0.0;DEBUG3;0.0;DEBUG4;0.0
ATTITUDE;ANGX;5.0;ANGY;0.0;HEAD;168.0
STATUS;CYCLETIME;2780;I2CERR;0;PRESENT;23;MODE;0
RAW_IMU;AX;11.0;AY;-4.0;AZ;256.0;GX;1.0;GY;0.0;GZ;0.0;MAGX;-25.0;MAGY;-78.0;MAGZ;83.0
MOT;0;1000.0;1;1000.0;2;1000.0;3;1000.0;4;0.0;5;0.0;6;0.0;7;0.0;
RC;ROLL;1484.0;PITCH;1534.0;YAW;1506.0;THROTTLE;1063.0;AUX1;1553.0;AUX2;1500.0;AUX3;1500.0;AUX4;1500.0
ALTITUDE;0.0
DEBUG;DEBUG10.0;DEBUG2;0.0;DEBUG3;0.0;DEBUG4;0.0
ATTITUDE;ANGX;5.0;ANGY;0.0;HEAD;168.0
STATUS;CYCLETIME;2760;I2CERR;0;PRESENT;23;MODE;0
RAW_IMU;AX;10.0;AY;-2.0;AZ;254.0;GX;1.0;GY;0.0;GZ;0.0;MAGX;-25.0;MAGY;-78.0;MAGZ;83.0
MOT;0;1000.0;1;1000.0;2;1000.0;3;1000.0;4;0.0;5;0.0;6;0.0;7;0.0;
RC;ROLL;1484.0;PITCH;1534.0;YAW;1506.0;THROTTLE;1063.0;AUX1;1553.0;AUX2;1500.0;AUX3;1500.0;AUX4;1500.0
ALTITUDE;0.0
DEBUG;DEBUG10.0;DEBUG2;0.0;DEBUG3;0.0;DEBUG4;0.0
ATTITUDE;ANGX;5.0;ANGY;0.0;HEAD;168.0
STATUS;CYCLETIME;2900;I2CERR;0;PRESENT;23;MODE;0
RAW_IMU;AX;10.0;AY;-2.0;AZ;255.0;GX;0.0;GY;0.0;GZ;0.0;MAGX;-24.0;MAGY;-79.0;MAGZ;82.0
MOT;0;1000.0;1;1000.0;2;1000.0;3;1000.0;4;0.0;5;0.0;6;0.0;7;0.0;
RC;ROLL;1484.0;PITCH;1534.0;YAW;1506.0;THROTTLE;1063.0;AUX1;1553.0;AUX2;1500.0;AUX3;1500.0;AUX4;1500.0
ALTITUDE;0.0
DEBUG;DEBUG10.0;DEBUG2;0.0;DEBUG3;0.0;DEBUG4;0.0
ATTITUDE;ANGX;5.0;ANGY;0.0;HEAD;168.0
STATUS;CYCLETIME;2772;I2CERR;0;PRESENT;23;MODE;0
RAW_IMU;AX;9.0;AY;-2.0;AZ;255.0;GX;0.0;GY;0.0;GZ;0.0;MAGX;-24.0;MAGY;-79.0;MAGZ;82.0
MOT;0;1000.0;1;1000.0;2;1000.0;3;1000.0;4;0.0;5;0.0;6;0.0;7;0.0;
RC;ROLL;1484.0;PITCH;1534.0;YAW;1506.0;THROTTLE;1063.0;AUX1;1553.0;AUX2;1500.0;AUX3;1500.0;AUX4;1500.0
ALTITUDE;0.0
DEBUG;DEBUG10.0;DEBUG2;0.0;DEBUG3;0.0;DEBUG4;0.0
ATTITUDE;ANGX;5.0;ANGY;0.0;HEAD;168.0
STATUS;CYCLETIME;2804;I2CERR;0;PRESENT;23;MODE;0
RAW_IMU;AX;9.0;AY;-4.0;AZ;256.0;GX;0.0;GY;0.0;GZ;0.0;MAGX;-25.0;MAGY;-78.0;MAGZ;83.0
MOT;0;1000.0;1;1000.0;2;1000.0;3;1000.0;4;0.0;5;0.0;6;0.0;7;0.0;
RC;ROLL;1484.0;PITCH;1534.0;YAW;1506.0;THROTTLE;1063.0;AUX1;1553.0;AUX2;1500.0;AUX3;1500.0;AUX4;1500.0
ALTITUDE;0.0
DEBUG;DEBUG10.0;DEBUG2;0.0;DEBUG3;0.0;DEBUG4;0.0
ATTITUDE;ANGX;5.0;ANGY;0.0;HEAD;168.0
STATUS;CYCLETIME;2776;I2CERR;0;PRESENT;23;MODE;0
RAW_IMU;AX;12.0;AY;-4.0;AZ;254.0;GX;1.0;GY;0.0;GZ;0.0;MAGX;-25.0;MAGY;-78.0;MAGZ;83.0
MOT;0;1000.0;1;1000.0;2;1000.0;3;1000.0;4;0.0;5;0.0;6;0.0;7;0.0;
RC;ROLL;1484.0;PITCH;1534.0;YAW;1506.0;THROTTLE;1063.0;AUX1;1553.0;AUX2;1500.0;AUX3;1500.0;AUX4;1500.0
ALTITUDE;0.0
DEBUG;DEBUG10.0;DEBUG2;0.0;DEBUG3;0.0;DEBUG4;0.0
ATTITUDE;ANGX;5.0;ANGY;0.0;HEAD;168.0
STATUS;CYCLETIME;2772;I2CERR;0;PRESENT;23;MODE;0
RAW_IMU;AX;12.0;AY;-2.0;AZ;253.0;GX;1.0;GY;0.0;GZ;0.0;MAGX;-25.0;MAGY;-78.0;MAGZ;82.0
MOT;0;1000.0;1;1000.0;2;1000.0;3;1000.0;4;0.0;5;0.0;6;0.0;7;0.0;
RC;ROLL;1484.0;PITCH;1534.0;YAW;1506.0;THROTTLE;1063.0;AUX1;1553.0;AUX2;1500.0;AUX3;1500.0;AUX4;1500.0
ALTITUDE;0.0
DEBUG;DEBUG10.0;DEBUG2;0.0;DEBUG3;0.0;DEBUG4;0.0
ATTITUDE;ANGX;5.0;ANGY;0.0;HEAD;168.0
STATUS;CYCLETIME;2856;I2CERR;0;PRESENT;23;MODE;0
RAW_IMU;AX;11.0;AY;-4.0;AZ;253.0;GX;0.0;GY;0.0;GZ;0.0;MAGX;-25.0;MAGY;-78.0;MAGZ;82.0
MOT;0;1000.0;1;1000.0;2;1000.0;3;1000.0;4;0.0;5;0.0;6;0.0;7;0.0;
RC;ROLL;1484.0;PITCH;1534.0;YAW;1506.0;THROTTLE;1063.0;AUX1;1553.0;AUX2;1500.0;AUX3;1500.0;AUX4;1500.0
ALTITUDE;0.0
DEBUG;DEBUG10.0;DEBUG2;0.0;DEBUG3;0.0;DEBUG4;0.0
ATTITUDE;ANGX;5.0;ANGY;0.0;HEAD;168.0
STATUS;CYCLETIME;2888;I2CERR;0;PRESENT;23;MODE;0
RAW_IMU;AX;11.0;AY;-5.0;AZ;255.0;GX;1.0;GY;0.0;GZ;0.0;MAGX;-25.0;MAGY;-79.0;MAGZ;82.0
MOT;0;1000.0;1;1000.0;2;1000.0;3;1000.0;4;0.0;5;0.0;6;0.0;7;0.0;
RC;ROLL;1484.0;PITCH;1534.0;YAW;1506.0;THROTTLE;1063.0;AUX1;1553.0;AUX2;1500.0;AUX3;1500.0;AUX4;1500.0
ALTITUDE;0.0
DEBUG;DEBUG10.0;DEBUG2;0.0;DEBUG3;0.0;DEBUG4;0.0
ATTITUDE;ANGX;5.0;ANGY;0.0;HEAD;168.0
STATUS;CYCLETIME;2884;I2CERR;0;PRESENT;23;MODE;0
RAW_IMU;AX;12.0;AY;-4.0;AZ;252.0;GX;0.0;GY;0.0;GZ;0.0;MAGX;-25.0;MAGY;-79.0;MAGZ;82.0
MOT;0;1000.0;1;1000.0;2;1000.0;3;1000.0;4;0.0;5;0.0;6;0.0;7;0.0;
RC;ROLL;1484.0;PITCH;1534.0;YAW;1506.0;THROTTLE;1063.0;AUX1;1553.0;AUX2;1500.0;AUX3;1500.0;AUX4;1500.0
ALTITUDE;0.0
DEBUG;DEBUG10.0;DEBUG2;0.0;DEBUG3;0.0;DEBUG4;0.0
ATTITUDE;ANGX;5.0;ANGY;0.0;HEAD;168.0
STATUS;CYCLETIME;2960;I2CERR;0;PRESENT;23;MODE;0
RAW_IMU;AX;10.0;AY;-3.0;AZ;254.0;GX;0.0;GY;0.0;GZ;0.0;MAGX;-26.0;MAGY;-78.0;MAGZ;83.0
MOT;0;1000.0;1;1000.0;2;1000.0;3;1000.0;4;0.0;5;0.0;6;0.0;7;0.0;
RC;ROLL;1484.0;PITCH;1534.0;YAW;1506.0;THROTTLE;1063.0;AUX1;1553.0;AUX2;1500.0;AUX3;1500.0;AUX4;1500.0
ALTITUDE;0.0
DEBUG;DEBUG10.0;DEBUG2;0.0;DEBUG3;0.0;DEBUG4;0.0
ATTITUDE;ANGX;5.0;ANGY;0.0;HEAD;168.0
STATUS;CYCLETIME;2884;I2CERR;0;PRESENT;23;MODE;0
RAW_IMU;AX;10.0;AY;-4.0;AZ;253.0;GX;0.0;GY;0.0;GZ;0.0;MAGX;-26.0;MAGY;-78.0;MAGZ;83.0
MOT;0;1000.0;1;1000.0;2;1000.0;3;1000.0;4;0.0;5;0.0;6;0.0;7;0.0;
RC;ROLL;1484.0;PITCH;1534.0;YAW;1506.0;THROTTLE;1063.0;AUX1;1553.0;AUX2;1500.0;AUX3;1500.0;AUX4;1500.0
ALTITUDE;0.0
DEBUG;DEBUG10.0;DEBUG2;0.0;DEBUG3;0.0;DEBUG4;0.0
ATTITUDE;ANGX;5.0;ANGY;0.0;HEAD;168.0
STATUS;CYCLETIME;2864;I2CERR;0;PRESENT;23;MODE;0
RAW_IMU;AX;11.0;AY;-3.0;AZ;255.0;GX;1.0;GY;0.0;GZ;0.0;MAGX;-26.0;MAGY;-78.0;MAGZ;83.0
MOT;0;1000.0;1;1000.0;2;1000.0;3;1000.0;4;0.0;5;0.0;6;0.0;7;0.0;
RC;ROLL;1484.0;PITCH;1534.0;YAW;1506.0;THROTTLE;1063.0;AUX1;1553.0;AUX2;1500.0;AUX3;1500.0;AUX4;1500.0
ALTITUDE;0.0
DEBUG;DEBUG10.0;DEBUG2;0.0;DEBUG3;0.0;DEBUG4;0.0
ATTITUDE;ANGX;5.0;ANGY;0.0;HEAD;168.0
STATUS;CYCLETIME;2880;I2CERR;0;PRESENT;23;MODE;0
RAW_IMU;AX;12.0;AY;-4.0;AZ;256.0;GX;0.0;GY;0.0;GZ;0.0;MAGX;-25.0;MAGY;-79.0;MAGZ;83.0
MOT;0;1000.0;1;1000.0;2;1000.0;3;1000.0;4;0.0;5;0.0;6;0.0;7;0.0;
RC;ROLL;1484.0;PITCH;1534.0;YAW;1506.0;THROTTLE;1063.0;AUX1;1553.0;AUX2;1500.0;AUX3;1500.0;AUX4;1500.0
ALTITUDE;0.0
DEBUG;DEBUG10.0;DEBUG2;0.0;DEBUG3;0.0;DEBUG4;0.0
ATTITUDE;ANGX;5.0;ANGY;0.0;HEAD;168.0
STATUS;CYCLETIME;2888;I2CERR;0;PRESENT;23;MODE;0
RAW_IMU;AX;10.0;AY;-1.0;AZ;257.0;GX;0.0;GY;0.0;GZ;0.0;MAGX;-25.0;MAGY;-79.0;MAGZ;83.0
MOT;0;1000.0;1;1000.0;2;1000.0;3;1000.0;4;0.0;5;0.0;6;0.0;7;0.0;
RC;ROLL;1484.0;PITCH;1534.0;YAW;1506.0;THROTTLE;1063.0;AUX1;1553.0;AUX2;1500.0;AUX3;1500.0;AUX4;1500.0
ALTITUDE;0.0
DEBUG;DEBUG10.0;DEBUG2;0.0;DEBUG3;0.0;DEBUG4;0.0
ATTITUDE;ANGX;5.0;ANGY;0.0;HEAD;168.0
STATUS;CYCLETIME;2820;I2CERR;0;PRESENT;23;MODE;0
RAW_IMU;AX;9.0;AY;-3.0;AZ;254.0;GX;1.0;GY;0.0;GZ;0.0;MAGX;-24.0;MAGY;-79.0;MAGZ;83.0
MOT;0;1000.0;1;1000.0;2;1000.0;3;1000.0;4;0.0;5;0.0;6;0.0;7;0.0;
RC;ROLL;1484.0;PITCH;1534.0;YAW;1506.0;THROTTLE;1063.0;AUX1;1553.0;AUX2;1500.0;AUX3;1500.0;AUX4;1500.0
ALTITUDE;0.0
DEBUG;DEBUG10.0;DEBUG2;0.0;DEBUG3;0.0;DEBUG4;0.0
ATTITUDE;ANGX;5.0;ANGY;0.0;HEAD;168.0
STATUS;CYCLETIME;2880;I2CERR;0;PRESENT;23;MODE;0
RAW_IMU;AX;9.0;AY;-3.0;AZ;252.0;GX;0.0;GY;0.0;GZ;0.0;MAGX;-24.0;MAGY;-79.0;MAGZ;83.0
MOT;0;1000.0;1;1000.0;2;1000.0;3;1000.0;4;0.0;5;0.0;6;0.0;7;0.0;
RC;ROLL;1484.0;PITCH;1534.0;YAW;1506.0;THROTTLE;1063.0;AUX1;1553.0;AUX2;1500.0;AUX3;1500.0;AUX4;1500.0
ALTITUDE;0.0
DEBUG;DEBUG10.0;DEBUG2;0.0;DEBUG3;0.0;DEBUG4;0.0
ATTITUDE;ANGX;5.0;ANGY;0.0;HEAD;168.0
STATUS;CYCLETIME;2876;I2CERR;0;PRESENT;23;MODE;0
RAW_IMU;AX;10.0;AY;-3.0;AZ;253.0;GX;0.0;GY;0.0;GZ;0.0;MAGX;-24.0;MAGY;-78.0;MAGZ;84.0
MOT;0;1000.0;1;1000.0;2;1000.0;3;1000.0;4;0.0;5;0.0;6;0.0;7;0.0;
RC;ROLL;1484.0;PITCH;1534.0;YAW;1506.0;THROTTLE;1063.0;AUX1;1553.0;AUX2;1500.0;AUX3;1500.0;AUX4;1500.0
ALTITUDE;0.0
DEBUG;DEBUG10.0;DEBUG2;0.0;DEBUG3;0.0;DEBUG4;0.0
ATTITUDE;ANGX;5.0;ANGY;0.0;HEAD;168.0
STATUS;CYCLETIME;2868;I2CERR;0;PRESENT;23;MODE;0
RAW_IMU;AX;11.0;AY;-1.0;AZ;252.0;GX;0.0;GY;0.0;GZ;0.0;MAGX;-24.0;MAGY;-78.0;MAGZ;84.0
MOT;0;1000.0;1;1000.0;2;1000.0;3;1000.0;4;0.0;5;0.0;6;0.0;7;0.0;
RC;ROLL;1484.0;PITCH;1534.0;YAW;1506.0;THROTTLE;1063.0;AUX1;1553.0;AUX2;1500.0;AUX3;1500.0;AUX4;1500.0
ALTITUDE;0.0
DEBUG;DEBUG10.0;DEBUG2;0.0;DEBUG3;0.0;DEBUG4;0.0
ATTITUDE;ANGX;5.0;ANGY;0.0;HEAD;168.0
STATUS;CYCLETIME;2880;I2CERR;0;PRESENT;23;MODE;0
RAW_IMU;AX;9.0;AY;-2.0;AZ;254.0;GX;1.0;GY;0.0;GZ;0.0;MAGX;-25.0;MAGY;-79.0;MAGZ;81.0
MOT;0;1000.0;1;1000.0;2;1000.0;3;1000.0;4;0.0;5;0.0;6;0.0;7;0.0;
RC;ROLL;1484.0;PITCH;1534.0;YAW;1506.0;THROTTLE;1063.0;AUX1;1553.0;AUX2;1500.0;AUX3;1500.0;AUX4;1500.0
ALTITUDE;0.0
DEBUG;DEBUG10.0;DEBUG2;0.0;DEBUG3;0.0;DEBUG4;0.0
ATTITUDE;ANGX;5.0;ANGY;0.0;HEAD;168.0
STATUS;CYCLETIME;2856;I2CERR;0;PRESENT;23;MODE;0
RAW_IMU;AX;9.0;AY;-4.0;AZ;252.0;GX;1.0;GY;0.0;GZ;0.0;MAGX;-25.0;MAGY;-79.0;MAGZ;81.0
MOT;0;1000.0;1;1000.0;2;1000.0;3;1000.0;4;0.0;5;0.0;6;0.0;7;0.0;
RC;ROLL;1484.0;PITCH;1534.0;YAW;1506.0;THROTTLE;1063.0;AUX1;1553.0;AUX2;1500.0;AUX3;1500.0;AUX4;1500.0
ALTITUDE;0.0
DEBUG;DEBUG10.0;DEBUG2;0.0;DEBUG3;0.0;DEBUG4;0.0
ATTITUDE;ANGX;5.0;ANGY;0.0;HEAD;168.0
STATUS;CYCLETIME;2892;I2CERR;0;PRESENT;23;MODE;0
RAW_IMU;AX;12.0;AY;-4.0;AZ;252.0;GX;1.0;GY;0.0;GZ;0.0;MAGX;-25.0;MAGY;-78.0;MAGZ;83.0
MOT;0;1000.0;1;1000.0;2;1000.0;3;1000.0;4;0.0;5;0.0;6;0.0;7;0.0;
RC;ROLL;1484.0;PITCH;1534.0;YAW;1506.0;THROTTLE;1063.0;AUX1;1553.0;AUX2;1500.0;AUX3;1500.0;AUX4;1500.0
ALTITUDE;0.0
DEBUG;DEBUG10.0;DEBUG2;0.0;DEBUG3;0.0;DEBUG4;0.0
ATTITUDE;ANGX;5.0;ANGY;0.0;HEAD;168.0
STATUS;CYCLETIME;2872;I2CERR;0;PRESENT;23;MODE;0
RAW_IMU;AX;11.0;AY;-3.0;AZ;253.0;GX;0.0;GY;0.0;GZ;0.0;MAGX;-25.0;MAGY;-78.0;MAGZ;83.0
MOT;0;1000.0;1;1000.0;2;1000.0;3;1000.0;4;0.0;5;0.0;6;0.0;7;0.0;
RC;ROLL;1484.0;PITCH;1534.0;YAW;1506.0;THROTTLE;1063.0;AUX1;1553.0;AUX2;1500.0;AUX3;1500.0;AUX4;1500.0
ALTITUDE;0.0
DEBUG;DEBUG10.0;DEBUG2;0.0;DEBUG3;0.0;DEBUG4;0.0
ATTITUDE;ANGX;5.0;ANGY;0.0;HEAD;168.0
STATUS;CYCLETIME;2864;I2CERR;0;PRESENT;23;MODE;0
RAW_IMU;AX;10.0;AY;-4.0;AZ;254.0;GX;0.0;GY;0.0;GZ;0.0;MAGX;-24.0;MAGY;-77.0;MAGZ;82.0
MOT;0;1000.0;1;1000.0;2;1000.0;3;1000.0;4;0.0;5;0.0;6;0.0;7;0.0;
RC;ROLL;1484.0;PITCH;1534.0;YAW;1506.0;THROTTLE;1063.0;AUX1;1553.0;AUX2;1500.0;AUX3;1500.0;AUX4;1500.0
ALTITUDE;0.0
DEBUG;DEBUG10.0;DEBUG2;0.0;DEBUG3;0.0;DEBUG4;0.0
ATTITUDE;ANGX;5.0;ANGY;0.0;HEAD;168.0
STATUS;CYCLETIME;2868;I2CERR;0;PRESENT;23;MODE;0
RAW_IMU;AX;11.0;AY;-2.0;AZ;252.0;GX;0.0;GY;0.0;GZ;0.0;MAGX;-24.0;MAGY;-77.0;MAGZ;82.0
MOT;0;1000.0;1;1000.0;2;1000.0;3;1000.0;4;0.0;5;0.0;6;0.0;7;0.0;
RC;ROLL;1484.0;PITCH;1534.0;YAW;1506.0;THROTTLE;1063.0;AUX1;1553.0;AUX2;1500.0;AUX3;1500.0;AUX4;1500.0
ALTITUDE;0.0
DEBUG;DEBUG10.0;DEBUG2;0.0;DEBUG3;0.0;DEBUG4;0.0
ATTITUDE;ANGX;5.0;ANGY;0.0;HEAD;168.0
STATUS;CYCLETIME;2860;I2CERR;0;PRESENT;23;MODE;0
RAW_IMU;AX;10.0;AY;-4.0;AZ;251.0;GX;0.0;GY;0.0;GZ;0.0;MAGX;-24.0;MAGY;-78.0;MAGZ;82.0
MOT;0;1000.0;1;1000.0;2;1000.0;3;1000.0;4;0.0;5;0.0;6;0.0;7;0.0;
RC;ROLL;1484.0;PITCH;1534.0;YAW;1506.0;THROTTLE;1063.0;AUX1;1553.0;AUX2;1500.0;AUX3;1500.0;AUX4;1500.0
ALTITUDE;0.0
DEBUG;DEBUG10.0;DEBUG2;0.0;DEBUG3;0.0;DEBUG4;0.0
ATTITUDE;ANGX;5.0;ANGY;0.0;HEAD;168.0
STATUS;CYCLETIME;2956;I2CERR;0;PRESENT;23;MODE;0
RAW_IMU;AX;7.0;AY;-4.0;AZ;253.0;GX;0.0;GY;0.0;GZ;0.0;MAGX;-24.0;MAGY;-78.0;MAGZ;82.0
MOT;0;1000.0;1;1000.0;2;1000.0;3;1000.0;4;0.0;5;0.0;6;0.0;7;0.0;
RC;ROLL;1484.0;PITCH;1534.0;YAW;1506.0;THROTTLE;1063.0;AUX1;1553.0;AUX2;1500.0;AUX3;1500.0;AUX4;1500.0
ALTITUDE;0.0
DEBUG;DEBUG10.0;DEBUG2;0.0;DEBUG3;0.0;DEBUG4;0.0
ATTITUDE;ANGX;5.0;ANGY;0.0;HEAD;168.0
STATUS;CYCLETIME;2876;I2CERR;0;PRESENT;23;MODE;0
RAW_IMU;AX;9.0;AY;-1.0;AZ;253.0;GX;1.0;GY;0.0;GZ;0.0;MAGX;-25.0;MAGY;-78.0;MAGZ;81.0
MOT;0;1000.0;1;1000.0;2;1000.0;3;1000.0;4;0.0;5;0.0;6;0.0;7;0.0;
RC;ROLL;1484.0;PITCH;1534.0;YAW;1506.0;THROTTLE;1063.0;AUX1;1553.0;AUX2;1500.0;AUX3;1500.0;AUX4;1500.0
ALTITUDE;0.0
DEBUG;DEBUG10.0;DEBUG2;0.0;DEBUG3;0.0;DEBUG4;0.0
ATTITUDE;ANGX;5.0;ANGY;0.0;HEAD;168.0
STATUS;CYCLETIME;2880;I2CERR;0;PRESENT;23;MODE;0
RAW_IMU;AX;10.0;AY;-2.0;AZ;250.0;GX;0.0;GY;0.0;GZ;0.0;MAGX;-25.0;MAGY;-78.0;MAGZ;81.0
MOT;0;1000.0;1;1000.0;2;1000.0;3;1000.0;4;0.0;5;0.0;6;0.0;7;0.0;
RC;ROLL;1484.0;PITCH;1534.0;YAW;1506.0;THROTTLE;1063.0;AUX1;1553.0;AUX2;1500.0;AUX3;1500.0;AUX4;1500.0
ALTITUDE;0.0
DEBUG;DEBUG10.0;DEBUG2;0.0;DEBUG3;0.0;DEBUG4;0.0
ATTITUDE;ANGX;5.0;ANGY;0.0;HEAD;168.0
STATUS;CYCLETIME;3008;I2CERR;0;PRESENT;23;MODE;0
RAW_IMU;AX;11.0;AY;-3.0;AZ;251.0;GX;0.0;GY;0.0;GZ;0.0;MAGX;-25.0;MAGY;-78.0;MAGZ;81.0
MOT;0;1000.0;1;1000.0;2;1000.0;3;1000.0;4;0.0;5;0.0;6;0.0;7;0.0;
RC;ROLL;1484.0;PITCH;1534.0;YAW;1506.0;THROTTLE;1063.0;AUX1;1553.0;AUX2;1500.0;AUX3;1500.0;AUX4;1500.0
ALTITUDE;0.0
DEBUG;DEBUG10.0;DEBUG2;0.0;DEBUG3;0.0;DEBUG4;0.0
ATTITUDE;ANGX;5.0;ANGY;0.0;HEAD;168.0
STATUS;CYCLETIME;2880;I2CERR;0;PRESENT;23;MODE;0
RAW_IMU;AX;11.0;AY;-2.0;AZ;253.0;GX;1.0;GY;0.0;GZ;0.0;MAGX;-25.0;MAGY;-77.0;MAGZ;82.0
MOT;0;1000.0;1;1000.0;2;1000.0;3;1000.0;4;0.0;5;0.0;6;0.0;7;0.0;
RC;ROLL;1484.0;PITCH;1534.0;YAW;1506.0;THROTTLE;1063.0;AUX1;1553.0;AUX2;1500.0;AUX3;1500.0;AUX4;1500.0
ALTITUDE;0.0
DEBUG;DEBUG10.0;DEBUG2;0.0;DEBUG3;0.0;DEBUG4;0.0
ATTITUDE;ANGX;5.0;ANGY;0.0;HEAD;168.0
STATUS;CYCLETIME;2844;I2CERR;0;PRESENT;23;MODE;0
RAW_IMU;AX;11.0;AY;-3.0;AZ;251.0;GX;0.0;GY;0.0;GZ;0.0;MAGX;-25.0;MAGY;-77.0;MAGZ;82.0
MOT;0;1000.0;1;1000.0;2;1000.0;3;1000.0;4;0.0;5;0.0;6;0.0;7;0.0;
RC;ROLL;1484.0;PITCH;1534.0;YAW;1506.0;THROTTLE;1063.0;AUX1;1553.0;AUX2;1500.0;AUX3;1500.0;AUX4;1500.0
ALTITUDE;0.0
DEBUG;DEBUG10.0;DEBUG2;0.0;DEBUG3;0.0;DEBUG4;0.0
ATTITUDE;ANGX;5.0;ANGY;0.0;HEAD;168.0
STATUS;CYCLETIME;2984;I2CERR;0;PRESENT;23;MODE;0
RAW_IMU;AX;12.0;AY;-4.0;AZ;252.0;GX;1.0;GY;0.0;GZ;0.0;MAGX;-25.0;MAGY;-78.0;MAGZ;81.0
MOT;0;1000.0;1;1000.0;2;1000.0;3;1000.0;4;0.0;5;0.0;6;0.0;7;0.0;
RC;ROLL;1484.0;PITCH;1534.0;YAW;1506.0;THROTTLE;1063.0;AUX1;1553.0;AUX2;1500.0;AUX3;1500.0;AUX4;1500.0
ALTITUDE;0.0
DEBUG;DEBUG10.0;DEBUG2;0.0;DEBUG3;0.0;DEBUG4;0.0
ATTITUDE;ANGX;5.0;ANGY;0.0;HEAD;168.0
STATUS;CYCLETIME;2884;I2CERR;0;PRESENT;23;MODE;0
RAW_IMU;AX;11.0;AY;-4.0;AZ;254.0;GX;0.0;GY;0.0;GZ;0.0;MAGX;-25.0;MAGY;-78.0;MAGZ;81.0
MOT;0;1000.0;1;1000.0;2;1000.0;3;1000.0;4;0.0;5;0.0;6;0.0;7;0.0;
RC;ROLL;1484.0;PITCH;1534.0;YAW;1506.0;THROTTLE;1063.0;AUX1;1553.0;AUX2;1500.0;AUX3;1500.0;AUX4;1500.0
ALTITUDE;0.0
DEBUG;DEBUG10.0;DEBUG2;0.0;DEBUG3;0.0;DEBUG4;0.0
ATTITUDE;ANGX;5.0;ANGY;0.0;HEAD;168.0
STATUS;CYCLETIME;2896;I2CERR;0;PRESENT;23;MODE;0
RAW_IMU;AX;9.0;AY;-4.0;AZ;254.0;GX;1.0;GY;0.0;GZ;0.0;MAGX;-25.0;MAGY;-78.0;MAGZ;83.0
MOT;0;1000.0;1;1000.0;2;1000.0;3;1000.0;4;0.0;5;0.0;6;0.0;7;0.0;
RC;ROLL;1484.0;PITCH;1534.0;YAW;1506.0;THROTTLE;1063.0;AUX1;1553.0;AUX2;1500.0;AUX3;1500.0;AUX4;1500.0
ALTITUDE;0.0
DEBUG;DEBUG10.0;DEBUG2;0.0;DEBUG3;0.0;DEBUG4;0.0
ATTITUDE;ANGX;5.0;ANGY;0.0;HEAD;168.0
STATUS;CYCLETIME;2972;I2CERR;0;PRESENT;23;MODE;0
RAW_IMU;AX;11.0;AY;-2.0;AZ;256.0;GX;1.0;GY;0.0;GZ;0.0;MAGX;-25.0;MAGY;-78.0;MAGZ;83.0
MOT;0;1000.0;1;1000.0;2;1000.0;3;1000.0;4;0.0;5;0.0;6;0.0;7;0.0;
RC;ROLL;1484.0;PITCH;1534.0;YAW;1506.0;THROTTLE;1063.0;AUX1;1553.0;AUX2;1500.0;AUX3;1500.0;AUX4;1500.0
ALTITUDE;0.0
DEBUG;DEBUG10.0;DEBUG2;0.0;DEBUG3;0.0;DEBUG4;0.0
ATTITUDE;ANGX;5.0;ANGY;0.0;HEAD;168.0
STATUS;CYCLETIME;2844;I2CERR;0;PRESENT;23;MODE;0
RAW_IMU;AX;13.0;AY;0.0;AZ;254.0;GX;0.0;GY;0.0;GZ;0.0;MAGX;-24.0;MAGY;-79.0;MAGZ;84.0
MOT;0;1000.0;1;1000.0;2;1000.0;3;1000.0;4;0.0;5;0.0;6;0.0;7;0.0;
RC;ROLL;1484.0;PITCH;1534.0;YAW;1506.0;THROTTLE;1063.0;AUX1;1553.0;AUX2;1500.0;AUX3;1500.0;AUX4;1500.0
ALTITUDE;0.0
DEBUG;DEBUG10.0;DEBUG2;0.0;DEBUG3;0.0;DEBUG4;0.0
ATTITUDE;ANGX;5.0;ANGY;0.0;HEAD;168.0
STATUS;CYCLETIME;2900;I2CERR;0;PRESENT;23;MODE;0
RAW_IMU;AX;11.0;AY;-1.0;AZ;251.0;GX;0.0;GY;0.0;GZ;0.0;MAGX;-24.0;MAGY;-79.0;MAGZ;84.0
MOT;0;1000.0;1;1000.0;2;1000.0;3;1000.0;4;0.0;5;0.0;6;0.0;7;0.0;
RC;ROLL;1484.0;PITCH;1534.0;YAW;1506.0;THROTTLE;1063.0;AUX1;1553.0;AUX2;1500.0;AUX3;1500.0;AUX4;1500.0
ALTITUDE;0.0
DEBUG;DEBUG10.0;DEBUG2;0.0;DEBUG3;0.0;DEBUG4;0.0
ATTITUDE;ANGX;5.0;ANGY;0.0;HEAD;168.0
STATUS;CYCLETIME;2860;I2CERR;0;PRESENT;23;MODE;0
RAW_IMU;AX;9.0;AY;-2.0;AZ;253.0;GX;1.0;GY;0.0;GZ;0.0;MAGX;-25.0;MAGY;-79.0;MAGZ;82.0
MOT;0;1000.0;1;1000.0;2;1000.0;3;1000.0;4;0.0;5;0.0;6;0.0;7;0.0;
RC;ROLL;1484.0;PITCH;1534.0;YAW;1506.0;THROTTLE;1063.0;AUX1;1553.0;AUX2;1500.0;AUX3;1500.0;AUX4;1500.0
ALTITUDE;0.0
DEBUG;DEBUG10.0;DEBUG2;0.0;DEBUG3;0.0;DEBUG4;0.0
ATTITUDE;ANGX;5.0;ANGY;0.0;HEAD;168.0
STATUS;CYCLETIME;2784;I2CERR;0;PRESENT;23;MODE;0
RAW_IMU;AX;9.0;AY;-2.0;AZ;254.0;GX;1.0;GY;0.0;GZ;0.0;MAGX;-25.0;MAGY;-79.0;MAGZ;82.0
MOT;0;1000.0;1;1000.0;2;1000.0;3;1000.0;4;0.0;5;0.0;6;0.0;7;0.0;
RC;ROLL;1484.0;PITCH;1534.0;YAW;1506.0;THROTTLE;1063.0;AUX1;1553.0;AUX2;1500.0;AUX3;1500.0;AUX4;1500.0
ALTITUDE;0.0
DEBUG;DEBUG10.0;DEBUG2;0.0;DEBUG3;0.0;DEBUG4;0.0
ATTITUDE;ANGX;5.0;ANGY;0.0;HEAD;168.0
STATUS;CYCLETIME;2804;I2CERR;0;PRESENT;23;MODE;0
RAW_IMU;AX;9.0;AY;-4.0;AZ;253.0;GX;0.0;GY;0.0;GZ;0.0;MAGX;-25.0;MAGY;-79.0;MAGZ;84.0
MOT;0;1000.0;1;1000.0;2;1000.0;3;1000.0;4;0.0;5;0.0;6;0.0;7;0.0;
RC;ROLL;1484.0;PITCH;1534.0;YAW;1506.0;THROTTLE;1063.0;AUX1;1553.0;AUX2;1500.0;AUX3;1500.0;AUX4;1500.0
ALTITUDE;0.0
DEBUG;DEBUG10.0;DEBUG2;0.0;DEBUG3;0.0;DEBUG4;0.0
ATTITUDE;ANGX;5.0;ANGY;0.0;HEAD;168.0
STATUS;CYCLETIME;2776;I2CERR;0;PRESENT;23;MODE;0
RAW_IMU;AX;11.0;AY;-3.0;AZ;253.0;GX;0.0;GY;0.0;GZ;0.0;MAGX;-25.0;MAGY;-79.0;MAGZ;84.0
MOT;0;1000.0;1;1000.0;2;1000.0;3;1000.0;4;0.0;5;0.0;6;0.0;7;0.0;
RC;ROLL;1484.0;PITCH;1534.0;YAW;1506.0;THROTTLE;1063.0;AUX1;1553.0;AUX2;1500.0;AUX3;1500.0;AUX4;1500.0
ALTITUDE;0.0
DEBUG;DEBUG10.0;DEBUG2;0.0;DEBUG3;0.0;DEBUG4;0.0
ATTITUDE;ANGX;5.0;ANGY;0.0;HEAD;168.0
STATUS;CYCLETIME;3048;I2CERR;0;PRESENT;23;MODE;0
RAW_IMU;AX;12.0;AY;-4.0;AZ;252.0;GX;1.0;GY;0.0;GZ;0.0;MAGX;-25.0;MAGY;-78.0;MAGZ;82.0
MOT;0;1000.0;1;1000.0;2;1000.0;3;1000.0;4;0.0;5;0.0;6;0.0;7;0.0;
RC;ROLL;1484.0;PITCH;1534.0;YAW;1506.0;THROTTLE;1063.0;AUX1;1553.0;AUX2;1500.0;AUX3;1500.0;AUX4;1500.0
ALTITUDE;0.0
DEBUG;DEBUG10.0;DEBUG2;0.0;DEBUG3;0.0;DEBUG4;0.0
ATTITUDE;ANGX;5.0;ANGY;0.0;HEAD;168.0
STATUS;CYCLETIME;2788;I2CERR;0;PRESENT;23;MODE;0
RAW_IMU;AX;9.0;AY;-2.0;AZ;252.0;GX;0.0;GY;0.0;GZ;0.0;MAGX;-25.0;MAGY;-78.0;MAGZ;82.0
MOT;0;1000.0;1;1000.0;2;1000.0;3;1000.0;4;0.0;5;0.0;6;0.0;7;0.0;
RC;ROLL;1484.0;PITCH;1534.0;YAW;1506.0;THROTTLE;1063.0;AUX1;1553.0;AUX2;1500.0;AUX3;1500.0;AUX4;1500.0
ALTITUDE;0.0
DEBUG;DEBUG10.0;DEBUG2;0.0;DEBUG3;0.0;DEBUG4;0.0
ATTITUDE;ANGX;5.0;ANGY;0.0;HEAD;168.0
STATUS;CYCLETIME;2800;I2CERR;0;PRESENT;23;MODE;0
RAW_IMU;AX;11.0;AY;-3.0;AZ;253.0;GX;1.0;GY;0.0;GZ;0.0;MAGX;-25.0;MAGY;-78.0;MAGZ;82.0
MOT;0;1000.0;1;1000.0;2;1000.0;3;1000.0;4;0.0;5;0.0;6;0.0;7;0.0;
RC;ROLL;1484.0;PITCH;1534.0;YAW;1506.0;THROTTLE;1063.0;AUX1;1553.0;AUX2;1500.0;AUX3;1500.0;AUX4;1500.0
ALTITUDE;0.0
DEBUG;DEBUG10.0;DEBUG2;0.0;DEBUG3;0.0;DEBUG4;0.0
ATTITUDE;ANGX;5.0;ANGY;0.0;HEAD;168.0
STATUS;CYCLETIME;2780;I2CERR;0;PRESENT;23;MODE;0
RAW_IMU;AX;11.0;AY;-3.0;AZ;254.0;GX;0.0;GY;0.0;GZ;0.0;MAGX;-25.0;MAGY;-78.0;MAGZ;82.0
MOT;0;1000.0;1;1000.0;2;1000.0;3;1000.0;4;0.0;5;0.0;6;0.0;7;0.0;
RC;ROLL;1484.0;PITCH;1534.0;YAW;1506.0;THROTTLE;1063.0;AUX1;1553.0;AUX2;1500.0;AUX3;1500.0;AUX4;1500.0
ALTITUDE;0.0
DEBUG;DEBUG10.0;DEBUG2;0.0;DEBUG3;0.0;DEBUG4;0.0
ATTITUDE;ANGX;5.0;ANGY;0.0;HEAD;168.0
STATUS;CYCLETIME;2804;I2CERR;0;PRESENT;23;MODE;0
RAW_IMU;AX;11.0;AY;-4.0;AZ;255.0;GX;0.0;GY;0.0;GZ;0.0;MAGX;-25.0;MAGY;-78.0;MAGZ;82.0
MOT;0;1000.0;1;1000.0;2;1000.0;3;1000.0;4;0.0;5;0.0;6;0.0;7;0.0;
RC;ROLL;1484.0;PITCH;1534.0;YAW;1506.0;THROTTLE;1063.0;AUX1;1553.0;AUX2;1500.0;AUX3;1500.0;AUX4;1500.0
ALTITUDE;0.0
DEBUG;DEBUG10.0;DEBUG2;0.0;DEBUG3;0.0;DEBUG4;0.0
ATTITUDE;ANGX;5.0;ANGY;0.0;HEAD;168.0
STATUS;CYCLETIME;2792;I2CERR;0;PRESENT;23;MODE;0
RAW_IMU;AX;10.0;AY;-4.0;AZ;255.0;GX;0.0;GY;0.0;GZ;0.0;MAGX;-24.0;MAGY;-77.0;MAGZ;81.0
MOT;0;1000.0;1;1000.0;2;1000.0;3;1000.0;4;0.0;5;0.0;6;0.0;7;0.0;
RC;ROLL;1484.0;PITCH;1534.0;YAW;1506.0;THROTTLE;1063.0;AUX1;1553.0;AUX2;1500.0;AUX3;1500.0;AUX4;1500.0
ALTITUDE;0.0
DEBUG;DEBUG10.0;DEBUG2;0.0;DEBUG3;0.0;DEBUG4;0.0
ATTITUDE;ANGX;5.0;ANGY;0.0;HEAD;168.0
STATUS;CYCLETIME;2800;I2CERR;0;PRESENT;23;MODE;0
RAW_IMU;AX;10.0;AY;-4.0;AZ;255.0;GX;1.0;GY;0.0;GZ;0.0;MAGX;-24.0;MAGY;-77.0;MAGZ;81.0
MOT;0;1000.0;1;1000.0;2;1000.0;3;1000.0;4;0.0;5;0.0;6;0.0;7;0.0;
RC;ROLL;1484.0;PITCH;1534.0;YAW;1506.0;THROTTLE;1063.0;AUX1;1553.0;AUX2;1500.0;AUX3;1500.0;AUX4;1500.0
ALTITUDE;0.0
DEBUG;DEBUG10.0;DEBUG2;0.0;DEBUG3;0.0;DEBUG4;0.0
ATTITUDE;ANGX;5.0;ANGY;0.0;HEAD;168.0
STATUS;CYCLETIME;2812;I2CERR;0;PRESENT;23;MODE;0
RAW_IMU;AX;9.0;AY;-4.0;AZ;255.0;GX;1.0;GY;0.0;GZ;0.0;MAGX;-24.0;MAGY;-77.0;MAGZ;82.0
MOT;0;1000.0;1;1000.0;2;1000.0;3;1000.0;4;0.0;5;0.0;6;0.0;7;0.0;
RC;ROLL;1484.0;PITCH;1534.0;YAW;1506.0;THROTTLE;1063.0;AUX1;1553.0;AUX2;1500.0;AUX3;1500.0;AUX4;1500.0
ALTITUDE;0.0
DEBUG;DEBUG10.0;DEBUG2;0.0;DEBUG3;0.0;DEBUG4;0.0
ATTITUDE;ANGX;5.0;ANGY;0.0;HEAD;168.0
STATUS;CYCLETIME;2900;I2CERR;0;PRESENT;23;MODE;0
RAW_IMU;AX;10.0;AY;-4.0;AZ;254.0;GX;1.0;GY;0.0;GZ;0.0;MAGX;-24.0;MAGY;-77.0;MAGZ;82.0
MOT;0;1000.0;1;1000.0;2;1000.0;3;1000.0;4;0.0;5;0.0;6;0.0;7;0.0;
RC;ROLL;1484.0;PITCH;1534.0;YAW;1506.0;THROTTLE;1063.0;AUX1;1553.0;AUX2;1500.0;AUX3;1500.0;AUX4;1500.0
ALTITUDE;0.0
DEBUG;DEBUG10.0;DEBUG2;0.0;DEBUG3;0.0;DEBUG4;0.0
ATTITUDE;ANGX;5.0;ANGY;0.0;HEAD;168.0
STATUS;CYCLETIME;2792;I2CERR;0;PRESENT;23;MODE;0
RAW_IMU;AX;12.0;AY;-2.0;AZ;253.0;GX;1.0;GY;0.0;GZ;0.0;MAGX;-25.0;MAGY;-77.0;MAGZ;83.0
MOT;0;1000.0;1;1000.0;2;1000.0;3;1000.0;4;0.0;5;0.0;6;0.0;7;0.0;
RC;ROLL;1484.0;PITCH;1534.0;YAW;1506.0;THROTTLE;1063.0;AUX1;1553.0;AUX2;1500.0;AUX3;1500.0;AUX4;1500.0
ALTITUDE;0.0
DEBUG;DEBUG10.0;DEBUG2;0.0;DEBUG3;0.0;DEBUG4;0.0
ATTITUDE;ANGX;5.0;ANGY;0.0;HEAD;168.0
STATUS;CYCLETIME;2836;I2CERR;0;PRESENT;23;MODE;0
RAW_IMU;AX;12.0;AY;-3.0;AZ;254.0;GX;1.0;GY;0.0;GZ;0.0;MAGX;-25.0;MAGY;-77.0;MAGZ;83.0
MOT;0;1000.0;1;1000.0;2;1000.0;3;1000.0;4;0.0;5;0.0;6;0.0;7;0.0;
RC;ROLL;1484.0;PITCH;1534.0;YAW;1506.0;THROTTLE;1063.0;AUX1;1553.0;AUX2;1500.0;AUX3;1500.0;AUX4;1500.0
ALTITUDE;0.0
DEBUG;DEBUG10.0;DEBUG2;0.0;DEBUG3;0.0;DEBUG4;0.0
ATTITUDE;ANGX;5.0;ANGY;0.0;HEAD;168.0
STATUS;CYCLETIME;2916;I2CERR;0;PRESENT;23;MODE;0
RAW_IMU;AX;11.0;AY;-4.0;AZ;253.0;GX;0.0;GY;0.0;GZ;0.0;MAGX;-25.0;MAGY;-79.0;MAGZ;83.0
MOT;0;1000.0;1;1000.0;2;1000.0;3;1000.0;4;0.0;5;0.0;6;0.0;7;0.0;
RC;ROLL;1484.0;PITCH;1534.0;YAW;1506.0;THROTTLE;1063.0;AUX1;1553.0;AUX2;1500.0;AUX3;1500.0;AUX4;1500.0
ALTITUDE;0.0
DEBUG;DEBUG10.0;DEBUG2;0.0;DEBUG3;0.0;DEBUG4;0.0
ATTITUDE;ANGX;5.0;ANGY;0.0;HEAD;168.0
STATUS;CYCLETIME;2776;I2CERR;0;PRESENT;23;MODE;0
RAW_IMU;AX;12.0;AY;-2.0;AZ;254.0;GX;0.0;GY;0.0;GZ;0.0;MAGX;-25.0;MAGY;-79.0;MAGZ;83.0
MOT;0;1000.0;1;1000.0;2;1000.0;3;1000.0;4;0.0;5;0.0;6;0.0;7;0.0;
RC;ROLL;1484.0;PITCH;1534.0;YAW;1506.0;THROTTLE;1063.0;AUX1;1553.0;AUX2;1500.0;AUX3;1500.0;AUX4;1500.0
ALTITUDE;0.0
DEBUG;DEBUG10.0;DEBUG2;0.0;DEBUG3;0.0;DEBUG4;0.0
ATTITUDE;ANGX;5.0;ANGY;0.0;HEAD;168.0
STATUS;CYCLETIME;2804;I2CERR;0;PRESENT;23;MODE;0
RAW_IMU;AX;10.0;AY;-3.0;AZ;252.0;GX;1.0;GY;0.0;GZ;0.0;MAGX;-25.0;MAGY;-78.0;MAGZ;82.0
MOT;0;1000.0;1;1000.0;2;1000.0;3;1000.0;4;0.0;5;0.0;6;0.0;7;0.0;
RC;ROLL;1484.0;PITCH;1534.0;YAW;1506.0;THROTTLE;1063.0;AUX1;1553.0;AUX2;1500.0;AUX3;1500.0;AUX4;1500.0
ALTITUDE;0.0
DEBUG;DEBUG10.0;DEBUG2;0.0;DEBUG3;0.0;DEBUG4;0.0
ATTITUDE;ANGX;5.0;ANGY;0.0;HEAD;168.0
STATUS;CYCLETIME;2904;I2CERR;0;PRESENT;23;MODE;0
RAW_IMU;AX;12.0;AY;-1.0;AZ;252.0;GX;1.0;GY;0.0;GZ;0.0;MAGX;-25.0;MAGY;-78.0;MAGZ;82.0
MOT;0;1000.0;1;1000.0;2;1000.0;3;1000.0;4;0.0;5;0.0;6;0.0;7;0.0;
RC;ROLL;1484.0;PITCH;1534.0;YAW;1506.0;THROTTLE;1063.0;AUX1;1553.0;AUX2;1500.0;AUX3;1500.0;AUX4;1500.0
ALTITUDE;0.0
DEBUG;DEBUG10.0;DEBUG2;0.0;DEBUG3;0.0;DEBUG4;0.0
ATTITUDE;ANGX;5.0;ANGY;0.0;HEAD;168.0
STATUS;CYCLETIME;2760;I2CERR;0;PRESENT;23;MODE;0
RAW_IMU;AX;11.0;AY;-1.0;AZ;252.0;GX;1.0;GY;0.0;GZ;0.0;MAGX;-25.0;MAGY;-78.0;MAGZ;84.0
MOT;0;1000.0;1;1000.0;2;1000.0;3;1000.0;4;0.0;5;0.0;6;0.0;7;0.0;
RC;ROLL;1484.0;PITCH;1534.0;YAW;1506.0;THROTTLE;1063.0;AUX1;1553.0;AUX2;1500.0;AUX3;1500.0;AUX4;1500.0
ALTITUDE;0.0
DEBUG;DEBUG10.0;DEBUG2;0.0;DEBUG3;0.0;DEBUG4;0.0
ATTITUDE;ANGX;5.0;ANGY;0.0;HEAD;168.0
STATUS;CYCLETIME;2808;I2CERR;0;PRESENT;23;MODE;0
RAW_IMU;AX;12.0;AY;-2.0;AZ;252.0;GX;1.0;GY;0.0;GZ;0.0;MAGX;-25.0;MAGY;-78.0;MAGZ;84.0
MOT;0;1000.0;1;1000.0;2;1000.0;3;1000.0;4;0.0;5;0.0;6;0.0;7;0.0;
RC;ROLL;1484.0;PITCH;1534.0;YAW;1506.0;THROTTLE;1063.0;AUX1;1553.0;AUX2;1500.0;AUX3;1500.0;AUX4;1500.0
ALTITUDE;0.0
DEBUG;DEBUG10.0;DEBUG2;0.0;DEBUG3;0.0;DEBUG4;0.0
ATTITUDE;ANGX;6.0;ANGY;0.0;HEAD;168.0
STATUS;CYCLETIME;2852;I2CERR;0;PRESENT;23;MODE;0
RAW_IMU;AX;11.0;AY;-2.0;AZ;254.0;GX;1.0;GY;0.0;GZ;0.0;MAGX;-25.0;MAGY;-79.0;MAGZ;83.0
MOT;0;1000.0;1;1000.0;2;1000.0;3;1000.0;4;0.0;5;0.0;6;0.0;7;0.0;
RC;ROLL;1484.0;PITCH;1534.0;YAW;1506.0;THROTTLE;1063.0;AUX1;1553.0;AUX2;1500.0;AUX3;1500.0;AUX4;1500.0
ALTITUDE;0.0
DEBUG;DEBUG10.0;DEBUG2;0.0;DEBUG3;0.0;DEBUG4;0.0
ATTITUDE;ANGX;6.0;ANGY;0.0;HEAD;168.0
STATUS;CYCLETIME;2772;I2CERR;0;PRESENT;23;MODE;0
RAW_IMU;AX;12.0;AY;-3.0;AZ;254.0;GX;0.0;GY;0.0;GZ;0.0;MAGX;-25.0;MAGY;-79.0;MAGZ;83.0
MOT;0;1000.0;1;1000.0;2;1000.0;3;1000.0;4;0.0;5;0.0;6;0.0;7;0.0;
RC;ROLL;1484.0;PITCH;1534.0;YAW;1506.0;THROTTLE;1063.0;AUX1;1553.0;AUX2;1500.0;AUX3;1500.0;AUX4;1500.0
ALTITUDE;0.0
DEBUG;DEBUG10.0;DEBUG2;0.0;DEBUG3;0.0;DEBUG4;0.0
ATTITUDE;ANGX;6.0;ANGY;0.0;HEAD;168.0
STATUS;CYCLETIME;2800;I2CERR;0;PRESENT;23;MODE;0
RAW_IMU;AX;11.0;AY;-3.0;AZ;254.0;GX;1.0;GY;0.0;GZ;0.0;MAGX;-24.0;MAGY;-77.0;MAGZ;82.0
MOT;0;1000.0;1;1000.0;2;1000.0;3;1000.0;4;0.0;5;0.0;6;0.0;7;0.0;
RC;ROLL;1484.0;PITCH;1534.0;YAW;1506.0;THROTTLE;1063.0;AUX1;1553.0;AUX2;1500.0;AUX3;1500.0;AUX4;1500.0
ALTITUDE;0.0
DEBUG;DEBUG10.0;DEBUG2;0.0;DEBUG3;0.0;DEBUG4;0.0
ATTITUDE;ANGX;6.0;ANGY;0.0;HEAD;168.0
STATUS;CYCLETIME;2764;I2CERR;0;PRESENT;23;MODE;0
RAW_IMU;AX;11.0;AY;-1.0;AZ;253.0;GX;0.0;GY;0.0;GZ;0.0;MAGX;-24.0;MAGY;-77.0;MAGZ;82.0
MOT;0;1000.0;1;1000.0;2;1000.0;3;1000.0;4;0.0;5;0.0;6;0.0;7;0.0;
RC;ROLL;1484.0;PITCH;1534.0;YAW;1506.0;THROTTLE;1063.0;AUX1;1553.0;AUX2;1500.0;AUX3;1500.0;AUX4;1500.0
ALTITUDE;0.0
DEBUG;DEBUG10.0;DEBUG2;0.0;DEBUG3;0.0;DEBUG4;0.0
ATTITUDE;ANGX;6.0;ANGY;0.0;HEAD;168.0
STATUS;CYCLETIME;2808;I2CERR;0;PRESENT;23;MODE;0
RAW_IMU;AX;11.0;AY;0.0;AZ;250.0;GX;1.0;GY;0.0;GZ;0.0;MAGX;-25.0;MAGY;-79.0;MAGZ;82.0
MOT;0;1000.0;1;1000.0;2;1000.0;3;1000.0;4;0.0;5;0.0;6;0.0;7;0.0;
RC;ROLL;1484.0;PITCH;1534.0;YAW;1506.0;THROTTLE;1063.0;AUX1;1553.0;AUX2;1500.0;AUX3;1500.0;AUX4;1500.0
ALTITUDE;0.0
DEBUG;DEBUG10.0;DEBUG2;0.0;DEBUG3;0.0;DEBUG4;0.0
ATTITUDE;ANGX;6.0;ANGY;0.0;HEAD;168.0
STATUS;CYCLETIME;2908;I2CERR;0;PRESENT;23;MODE;0
RAW_IMU;AX;10.0;AY;-2.0;AZ;252.0;GX;0.0;GY;0.0;GZ;0.0;MAGX;-25.0;MAGY;-79.0;MAGZ;82.0
MOT;0;1000.0;1;1000.0;2;1000.0;3;1000.0;4;0.0;5;0.0;6;0.0;7;0.0;
RC;ROLL;1484.0;PITCH;1534.0;YAW;1506.0;THROTTLE;1063.0;AUX1;1553.0;AUX2;1500.0;AUX3;1500.0;AUX4;1500.0
ALTITUDE;0.0
DEBUG;DEBUG10.0;DEBUG2;0.0;DEBUG3;0.0;DEBUG4;0.0
ATTITUDE;ANGX;5.0;ANGY;0.0;HEAD;168.0
STATUS;CYCLETIME;2820;I2CERR;0;PRESENT;23;MODE;0
RAW_IMU;AX;12.0;AY;-4.0;AZ;253.0;GX;0.0;GY;0.0;GZ;0.0;MAGX;-25.0;MAGY;-79.0;MAGZ;82.0
MOT;0;1000.0;1;1000.0;2;1000.0;3;1000.0;4;0.0;5;0.0;6;0.0;7;0.0;
RC;ROLL;1484.0;PITCH;1534.0;YAW;1506.0;THROTTLE;1063.0;AUX1;1553.0;AUX2;1500.0;AUX3;1500.0;AUX4;1500.0
ALTITUDE;0.0
DEBUG;DEBUG10.0;DEBUG2;0.0;DEBUG3;0.0;DEBUG4;0.0
ATTITUDE;ANGX;5.0;ANGY;0.0;HEAD;168.0
STATUS;CYCLETIME;2800;I2CERR;0;PRESENT;23;MODE;0
RAW_IMU;AX;11.0;AY;-1.0;AZ;250.0;GX;0.0;GY;0.0;GZ;0.0;MAGX;-25.0;MAGY;-79.0;MAGZ;82.0
MOT;0;1000.0;1;1000.0;2;1000.0;3;1000.0;4;0.0;5;0.0;6;0.0;7;0.0;
RC;ROLL;1484.0;PITCH;1534.0;YAW;1506.0;THROTTLE;1063.0;AUX1;1553.0;AUX2;1500.0;AUX3;1500.0;AUX4;1500.0
ALTITUDE;0.0
DEBUG;DEBUG10.0;DEBUG2;0.0;DEBUG3;0.0;DEBUG4;0.0
ATTITUDE;ANGX;5.0;ANGY;0.0;HEAD;168.0
STATUS;CYCLETIME;2800;I2CERR;0;PRESENT;23;MODE;0
RAW_IMU;AX;6.0;AY;-2.0;AZ;255.0;GX;1.0;GY;0.0;GZ;0.0;MAGX;-24.0;MAGY;-78.0;MAGZ;83.0
MOT;0;1000.0;1;1000.0;2;1000.0;3;1000.0;4;0.0;5;0.0;6;0.0;7;0.0;
RC;ROLL;1484.0;PITCH;1534.0;YAW;1506.0;THROTTLE;1063.0;AUX1;1553.0;AUX2;1500.0;AUX3;1500.0;AUX4;1500.0
ALTITUDE;0.0
DEBUG;DEBUG10.0;DEBUG2;0.0;DEBUG3;0.0;DEBUG4;0.0
ATTITUDE;ANGX;5.0;ANGY;0.0;HEAD;168.0
STATUS;CYCLETIME;2776;I2CERR;0;PRESENT;23;MODE;0
RAW_IMU;AX;6.0;AY;-4.0;AZ;253.0;GX;1.0;GY;0.0;GZ;0.0;MAGX;-24.0;MAGY;-78.0;MAGZ;83.0
MOT;0;1000.0;1;1000.0;2;1000.0;3;1000.0;4;0.0;5;0.0;6;0.0;7;0.0;
RC;ROLL;1484.0;PITCH;1534.0;YAW;1506.0;THROTTLE;1063.0;AUX1;1553.0;AUX2;1500.0;AUX3;1500.0;AUX4;1500.0
ALTITUDE;0.0
DEBUG;DEBUG10.0;DEBUG2;0.0;DEBUG3;0.0;DEBUG4;0.0
ATTITUDE;ANGX;5.0;ANGY;0.0;HEAD;168.0
STATUS;CYCLETIME;2772;I2CERR;0;PRESENT;23;MODE;0
RAW_IMU;AX;7.0;AY;-3.0;AZ;254.0;GX;0.0;GY;0.0;GZ;0.0;MAGX;-25.0;MAGY;-79.0;MAGZ;82.0
MOT;0;1000.0;1;1000.0;2;1000.0;3;1000.0;4;0.0;5;0.0;6;0.0;7;0.0;
RC;ROLL;1484.0;PITCH;1534.0;YAW;1506.0;THROTTLE;1063.0;AUX1;1553.0;AUX2;1500.0;AUX3;1500.0;AUX4;1500.0
ALTITUDE;0.0
DEBUG;DEBUG10.0;DEBUG2;0.0;DEBUG3;0.0;DEBUG4;0.0
ATTITUDE;ANGX;5.0;ANGY;0.0;HEAD;168.0
STATUS;CYCLETIME;2780;I2CERR;0;PRESENT;23;MODE;0
RAW_IMU;AX;11.0;AY;-3.0;AZ;256.0;GX;1.0;GY;0.0;GZ;0.0;MAGX;-25.0;MAGY;-79.0;MAGZ;82.0
MOT;0;1000.0;1;1000.0;2;1000.0;3;1000.0;4;0.0;5;0.0;6;0.0;7;0.0;
RC;ROLL;1484.0;PITCH;1534.0;YAW;1506.0;THROTTLE;1063.0;AUX1;1553.0;AUX2;1500.0;AUX3;1500.0;AUX4;1500.0
ALTITUDE;0.0
DEBUG;DEBUG10.0;DEBUG2;0.0;DEBUG3;0.0;DEBUG4;0.0
ATTITUDE;ANGX;5.0;ANGY;0.0;HEAD;168.0
STATUS;CYCLETIME;2796;I2CERR;0;PRESENT;23;MODE;0
RAW_IMU;AX;10.0;AY;-2.0;AZ;252.0;GX;0.0;GY;0.0;GZ;0.0;MAGX;-25.0;MAGY;-79.0;MAGZ;82.0
MOT;0;1000.0;1;1000.0;2;1000.0;3;1000.0;4;0.0;5;0.0;6;0.0;7;0.0;
RC;ROLL;1484.0;PITCH;1534.0;YAW;1506.0;THROTTLE;1063.0;AUX1;1553.0;AUX2;1500.0;AUX3;1500.0;AUX4;1500.0
ALTITUDE;0.0
DEBUG;DEBUG10.0;DEBUG2;0.0;DEBUG3;0.0;DEBUG4;0.0
ATTITUDE;ANGX;5.0;ANGY;0.0;HEAD;168.0
STATUS;CYCLETIME;2808;I2CERR;0;PRESENT;23;MODE;0
RAW_IMU;AX;11.0;AY;-4.0;AZ;252.0;GX;0.0;GY;0.0;GZ;0.0;MAGX;-25.0;MAGY;-79.0;MAGZ;82.0
MOT;0;1000.0;1;1000.0;2;1000.0;3;1000.0;4;0.0;5;0.0;6;0.0;7;0.0;
RC;ROLL;1484.0;PITCH;1534.0;YAW;1506.0;THROTTLE;1063.0;AUX1;1553.0;AUX2;1500.0;AUX3;1500.0;AUX4;1500.0
ALTITUDE;0.0
DEBUG;DEBUG10.0;DEBUG2;0.0;DEBUG3;0.0;DEBUG4;0.0
ATTITUDE;ANGX;5.0;ANGY;0.0;HEAD;168.0
STATUS;CYCLETIME;2764;I2CERR;0;PRESENT;23;MODE;0
RAW_IMU;AX;11.0;AY;-4.0;AZ;253.0;GX;1.0;GY;0.0;GZ;0.0;MAGX;-24.0;MAGY;-78.0;MAGZ;82.0
MOT;0;1000.0;1;1000.0;2;1000.0;3;1000.0;4;0.0;5;0.0;6;0.0;7;0.0;
RC;ROLL;1484.0;PITCH;1534.0;YAW;1506.0;THROTTLE;1063.0;AUX1;1553.0;AUX2;1500.0;AUX3;1500.0;AUX4;1500.0
ALTITUDE;0.0
DEBUG;DEBUG10.0;DEBUG2;0.0;DEBUG3;0.0;DEBUG4;0.0
ATTITUDE;ANGX;5.0;ANGY;0.0;HEAD;168.0
ATTITUDE;ANGX;5.0;ANGY;0.0;HEAD;168.0
STATUS;CYCLETIME;3032;I2CERR;0;PRESENT;23;MODE;0
RAW_IMU;AX;10.0;AY;-3.0;AZ;254.0;GX;0.0;GY;0.0;GZ;0.0;MAGX;-26.0;MAGY;-78.0;MAGZ;82.0
MOT;0;1000.0;1;1000.0;2;1000.0;3;1000.0;4;0.0;5;0.0;6;0.0;7;0.0;
RC;ROLL;1484.0;PITCH;1534.0;YAW;1506.0;THROTTLE;1063.0;AUX1;1553.0;AUX2;1500.0;AUX3;1500.0;AUX4;1500.0
ALTITUDE;0.0
DEBUG;DEBUG10.0;DEBUG2;0.0;DEBUG3;0.0;DEBUG4;0.0
ATTITUDE;ANGX;5.0;ANGY;0.0;HEAD;168.0
STATUS;CYCLETIME;2808;I2CERR;0;PRESENT;23;MODE;0
RAW_IMU;AX;11.0;AY;-3.0;AZ;256.0;GX;1.0;GY;0.0;GZ;0.0;MAGX;-26.0;MAGY;-78.0;MAGZ;82.0
MOT;0;1000.0;1;1000.0;2;1000.0;3;1000.0;4;0.0;5;0.0;6;0.0;7;0.0;
RC;ROLL;1484.0;PITCH;1534.0;YAW;1506.0;THROTTLE;1063.0;AUX1;1553.0;AUX2;1500.0;AUX3;1500.0;AUX4;1500.0
ALTITUDE;0.0
DEBUG;DEBUG10.0;DEBUG2;0.0;DEBUG3;0.0;DEBUG4;0.0
ATTITUDE;ANGX;5.0;ANGY;0.0;HEAD;168.0
STATUS;CYCLETIME;2792;I2CERR;0;PRESENT;23;MODE;0
RAW_IMU;AX;10.0;AY;-5.0;AZ;256.0;GX;1.0;GY;0.0;GZ;0.0;MAGX;-24.0;MAGY;-79.0;MAGZ;82.0
MOT;0;1000.0;1;1000.0;2;1000.0;3;1000.0;4;0.0;5;0.0;6;0.0;7;0.0;
RC;ROLL;1484.0;PITCH;1534.0;YAW;1506.0;THROTTLE;1063.0;AUX1;1553.0;AUX2;1500.0;AUX3;1500.0;AUX4;1500.0
ALTITUDE;0.0
DEBUG;DEBUG10.0;DEBUG2;0.0;DEBUG3;0.0;DEBUG4;0.0
ATTITUDE;ANGX;5.0;ANGY;0.0;HEAD;168.0
STATUS;CYCLETIME;2792;I2CERR;0;PRESENT;23;MODE;0
RAW_IMU;AX;9.0;AY;-5.0;AZ;256.0;GX;1.0;GY;0.0;GZ;0.0;MAGX;-24.0;MAGY;-79.0;MAGZ;82.0
MOT;0;1000.0;1;1000.0;2;1000.0;3;1000.0;4;0.0;5;0.0;6;0.0;7;0.0;
RC;ROLL;1484.0;PITCH;1534.0;YAW;1506.0;THROTTLE;1063.0;AUX1;1553.0;AUX2;1500.0;AUX3;1500.0;AUX4;1500.0
ALTITUDE;0.0
DEBUG;DEBUG10.0;DEBUG2;0.0;DEBUG3;0.0;DEBUG4;0.0
ATTITUDE;ANGX;5.0;ANGY;0.0;HEAD;168.0
STATUS;CYCLETIME;2916;I2CERR;0;PRESENT;23;MODE;0
RAW_IMU;AX;9.0;AY;-5.0;AZ;256.0;GX;0.0;GY;0.0;GZ;0.0;MAGX;-25.0;MAGY;-79.0;MAGZ;82.0
MOT;0;1000.0;1;1000.0;2;1000.0;3;1000.0;4;0.0;5;0.0;6;0.0;7;0.0;
RC;ROLL;1484.0;PITCH;1534.0;YAW;1506.0;THROTTLE;1063.0;AUX1;1553.0;AUX2;1500.0;AUX3;1500.0;AUX4;1500.0
ALTITUDE;0.0
DEBUG;DEBUG10.0;DEBUG2;0.0;DEBUG3;0.0;DEBUG4;0.0
ATTITUDE;ANGX;5.0;ANGY;0.0;HEAD;168.0
STATUS;CYCLETIME;2780;I2CERR;0;PRESENT;23;MODE;0
RAW_IMU;AX;9.0;AY;-2.0;AZ;255.0;GX;1.0;GY;0.0;GZ;0.0;MAGX;-25.0;MAGY;-79.0;MAGZ;82.0
MOT;0;1000.0;1;1000.0;2;1000.0;3;1000.0;4;0.0;5;0.0;6;0.0;7;0.0;
RC;ROLL;1484.0;PITCH;1534.0;YAW;1506.0;THROTTLE;1063.0;AUX1;1553.0;AUX2;1500.0;AUX3;1500.0;AUX4;1500.0
ALTITUDE;0.0
DEBUG;DEBUG10.0;DEBUG2;0.0;DEBUG3;0.0;DEBUG4;0.0
ATTITUDE;ANGX;5.0;ANGY;0.0;HEAD;168.0
STATUS;CYCLETIME;3088;I2CERR;0;PRESENT;23;MODE;0
RAW_IMU;AX;10.0;AY;-2.0;AZ;255.0;GX;0.0;GY;0.0;GZ;0.0;MAGX;-25.0;MAGY;-79.0;MAGZ;82.0
MOT;0;1000.0;1;1000.0;2;1000.0;3;1000.0;4;0.0;5;0.0;6;0.0;7;0.0;
RC;ROLL;1484.0;PITCH;1534.0;YAW;1506.0;THROTTLE;1063.0;AUX1;1553.0;AUX2;1500.0;AUX3;1500.0;AUX4;1500.0
ALTITUDE;0.0
DEBUG;DEBUG10.0;DEBUG2;0.0;DEBUG3;0.0;DEBUG4;0.0
ATTITUDE;ANGX;5.0;ANGY;0.0;HEAD;168.0
STATUS;CYCLETIME;2808;I2CERR;0;PRESENT;23;MODE;0
RAW_IMU;AX;9.0;AY;-3.0;AZ;254.0;GX;0.0;GY;0.0;GZ;0.0;MAGX;-25.0;MAGY;-79.0;MAGZ;82.0
MOT;0;1000.0;1;1000.0;2;1000.0;3;1000.0;4;0.0;5;0.0;6;0.0;7;0.0;
RC;ROLL;1484.0;PITCH;1534.0;YAW;1506.0;THROTTLE;1063.0;AUX1;1553.0;AUX2;1500.0;AUX3;1500.0;AUX4;1500.0
ALTITUDE;0.0
DEBUG;DEBUG10.0;DEBUG2;0.0;DEBUG3;0.0;DEBUG4;0.0
ATTITUDE;ANGX;5.0;ANGY;0.0;HEAD;168.0
STATUS;CYCLETIME;2792;I2CERR;0;PRESENT;23;MODE;0
RAW_IMU;AX;12.0;AY;-2.0;AZ;253.0;GX;0.0;GY;0.0;GZ;0.0;MAGX;-25.0;MAGY;-79.0;MAGZ;82.0
MOT;0;1000.0;1;1000.0;2;1000.0;3;1000.0;4;0.0;5;0.0;6;0.0;7;0.0;
RC;ROLL;1484.0;PITCH;1534.0;YAW;1506.0;THROTTLE;1063.0;AUX1;1553.0;AUX2;1500.0;AUX3;1500.0;AUX4;1500.0
ALTITUDE;0.0
DEBUG;DEBUG10.0;DEBUG2;0.0;DEBUG3;0.0;DEBUG4;0.0
ATTITUDE;ANGX;5.0;ANGY;0.0;HEAD;168.0
STATUS;CYCLETIME;2776;I2CERR;0;PRESENT;23;MODE;0
RAW_IMU;AX;12.0;AY;-2.0;AZ;254.0;GX;0.0;GY;0.0;GZ;0.0;MAGX;-24.0;MAGY;-78.0;MAGZ;82.0
MOT;0;1000.0;1;1000.0;2;1000.0;3;1000.0;4;0.0;5;0.0;6;0.0;7;0.0;
RC;ROLL;1484.0;PITCH;1534.0;YAW;1506.0;THROTTLE;1063.0;AUX1;1553.0;AUX2;1500.0;AUX3;1500.0;AUX4;1500.0
ALTITUDE;0.0
DEBUG;DEBUG10.0;DEBUG2;0.0;DEBUG3;0.0;DEBUG4;0.0
ATTITUDE;ANGX;5.0;ANGY;0.0;HEAD;168.0
STATUS;CYCLETIME;2796;I2CERR;0;PRESENT;23;MODE;0
RAW_IMU;AX;10.0;AY;-3.0;AZ;254.0;GX;0.0;GY;0.0;GZ;0.0;MAGX;-24.0;MAGY;-78.0;MAGZ;82.0
MOT;0;1000.0;1;1000.0;2;1000.0;3;1000.0;4;0.0;5;0.0;6;0.0;7;0.0;
RC;ROLL;1484.0;PITCH;1534.0;YAW;1506.0;THROTTLE;1063.0;AUX1;1553.0;AUX2;1500.0;AUX3;1500.0;AUX4;1500.0
ALTITUDE;0.0
DEBUG;DEBUG10.0;DEBUG2;0.0;DEBUG3;0.0;DEBUG4;0.0
ATTITUDE;ANGX;5.0;ANGY;0.0;HEAD;168.0
STATUS;CYCLETIME;2808;I2CERR;0;PRESENT;23;MODE;0
RAW_IMU;AX;9.0;AY;-3.0;AZ;253.0;GX;1.0;GY;0.0;GZ;0.0;MAGX;-25.0;MAGY;-78.0;MAGZ;83.0
MOT;0;1000.0;1;1000.0;2;1000.0;3;1000.0;4;0.0;5;0.0;6;0.0;7;0.0;
RC;ROLL;1484.0;PITCH;1534.0;YAW;1506.0;THROTTLE;1063.0;AUX1;1553.0;AUX2;1500.0;AUX3;1500.0;AUX4;1500.0
ALTITUDE;0.0
DEBUG;DEBUG10.0;DEBUG2;0.0;DEBUG3;0.0;DEBUG4;0.0
ATTITUDE;ANGX;5.0;ANGY;0.0;HEAD;168.0
STATUS;CYCLETIME;2880;I2CERR;0;PRESENT;23;MODE;0
RAW_IMU;AX;11.0;AY;-4.0;AZ;254.0;GX;0.0;GY;0.0;GZ;0.0;MAGX;-25.0;MAGY;-78.0;MAGZ;83.0
MOT;0;1000.0;1;1000.0;2;1000.0;3;1000.0;4;0.0;5;0.0;6;0.0;7;0.0;
RC;ROLL;1484.0;PITCH;1534.0;YAW;1506.0;THROTTLE;1063.0;AUX1;1553.0;AUX2;1500.0;AUX3;1500.0;AUX4;1500.0
ALTITUDE;0.0
DEBUG;DEBUG10.0;DEBUG2;0.0;DEBUG3;0.0;DEBUG4;0.0
ATTITUDE;ANGX;5.0;ANGY;0.0;HEAD;168.0
STATUS;CYCLETIME;2736;I2CERR;0;PRESENT;23;MODE;0
RAW_IMU;AX;11.0;AY;-5.0;AZ;254.0;GX;0.0;GY;0.0;GZ;0.0;MAGX;-25.0;MAGY;-79.0;MAGZ;83.0
MOT;0;1000.0;1;1000.0;2;1000.0;3;1000.0;4;0.0;5;0.0;6;0.0;7;0.0;
RC;ROLL;1484.0;PITCH;1534.0;YAW;1506.0;THROTTLE;1063.0;AUX1;1553.0;AUX2;1500.0;AUX3;1500.0;AUX4;1500.0
ALTITUDE;0.0
DEBUG;DEBUG10.0;DEBUG2;0.0;DEBUG3;0.0;DEBUG4;0.0
ATTITUDE;ANGX;5.0;ANGY;0.0;HEAD;168.0
STATUS;CYCLETIME;2764;I2CERR;0;PRESENT;23;MODE;0
RAW_IMU;AX;9.0;AY;-3.0;AZ;252.0;GX;0.0;GY;0.0;GZ;0.0;MAGX;-25.0;MAGY;-79.0;MAGZ;83.0
MOT;0;1000.0;1;1000.0;2;1000.0;3;1000.0;4;0.0;5;0.0;6;0.0;7;0.0;
RC;ROLL;1484.0;PITCH;1534.0;YAW;1506.0;THROTTLE;1063.0;AUX1;1553.0;AUX2;1500.0;AUX3;1500.0;AUX4;1500.0
ALTITUDE;0.0
DEBUG;DEBUG10.0;DEBUG2;0.0;DEBUG3;0.0;DEBUG4;0.0
ATTITUDE;ANGX;5.0;ANGY;0.0;HEAD;168.0
STATUS;CYCLETIME;2804;I2CERR;0;PRESENT;23;MODE;0
RAW_IMU;AX;11.0;AY;-4.0;AZ;251.0;GX;1.0;GY;0.0;GZ;0.0;MAGX;-26.0;MAGY;-79.0;MAGZ;83.0
MOT;0;1000.0;1;1000.0;2;1000.0;3;1000.0;4;0.0;5;0.0;6;0.0;7;0.0;
RC;ROLL;1484.0;PITCH;1534.0;YAW;1506.0;THROTTLE;1063.0;AUX1;1553.0;AUX2;1500.0;AUX3;1500.0;AUX4;1500.0
ALTITUDE;0.0
DEBUG;DEBUG10.0;DEBUG2;0.0;DEBUG3;0.0;DEBUG4;0.0
ATTITUDE;ANGX;5.0;ANGY;0.0;HEAD;168.0
STATUS;CYCLETIME;4040;I2CERR;0;PRESENT;23;MODE;0
RAW_IMU;AX;10.0;AY;-4.0;AZ;251.0;GX;0.0;GY;0.0;GZ;0.0;MAGX;-26.0;MAGY;-79.0;MAGZ;83.0
MOT;0;1000.0;1;1000.0;2;1000.0;3;1000.0;4;0.0;5;0.0;6;0.0;7;0.0;
RC;ROLL;1484.0;PITCH;1534.0;YAW;1506.0;THROTTLE;1063.0;AUX1;1553.0;AUX2;1500.0;AUX3;1500.0;AUX4;1500.0
ALTITUDE;0.0
DEBUG;DEBUG10.0;DEBUG2;0.0;DEBUG3;0.0;DEBUG4;0.0
ATTITUDE;ANGX;5.0;ANGY;0.0;HEAD;168.0
STATUS;CYCLETIME;2852;I2CERR;0;PRESENT;23;MODE;0
RAW_IMU;AX;12.0;AY;-4.0;AZ;254.0;GX;1.0;GY;0.0;GZ;0.0;MAGX;-25.0;MAGY;-79.0;MAGZ;81.0
MOT;0;1000.0;1;1000.0;2;1000.0;3;1000.0;4;0.0;5;0.0;6;0.0;7;0.0;
RC;ROLL;1484.0;PITCH;1534.0;YAW;1506.0;THROTTLE;1063.0;AUX1;1553.0;AUX2;1500.0;AUX3;1500.0;AUX4;1500.0
ALTITUDE;0.0
DEBUG;DEBUG10.0;DEBUG2;0.0;DEBUG3;0.0;DEBUG4;0.0
ATTITUDE;ANGX;5.0;ANGY;0.0;HEAD;168.0
STATUS;CYCLETIME;2896;I2CERR;0;PRESENT;23;MODE;0
RAW_IMU;AX;11.0;AY;-2.0;AZ;255.0;GX;1.0;GY;0.0;GZ;0.0;MAGX;-25.0;MAGY;-79.0;MAGZ;81.0
MOT;0;1000.0;1;1000.0;2;1000.0;3;1000.0;4;0.0;5;0.0;6;0.0;7;0.0;
RC;ROLL;1484.0;PITCH;1534.0;YAW;1506.0;THROTTLE;1063.0;AUX1;1553.0;AUX2;1500.0;AUX3;1500.0;AUX4;1500.0
ALTITUDE;0.0
DEBUG;DEBUG10.0;DEBUG2;0.0;DEBUG3;0.0;DEBUG4;0.0
ATTITUDE;ANGX;5.0;ANGY;0.0;HEAD;168.0
STATUS;CYCLETIME;2876;I2CERR;0;PRESENT;23;MODE;0
RAW_IMU;AX;12.0;AY;-3.0;AZ;254.0;GX;1.0;GY;0.0;GZ;0.0;MAGX;-25.0;MAGY;-79.0;MAGZ;83.0
MOT;0;1000.0;1;1000.0;2;1000.0;3;1000.0;4;0.0;5;0.0;6;0.0;7;0.0;
RC;ROLL;1484.0;PITCH;1534.0;YAW;1506.0;THROTTLE;1063.0;AUX1;1553.0;AUX2;1500.0;AUX3;1500.0;AUX4;1500.0
ALTITUDE;0.0
DEBUG;DEBUG10.0;DEBUG2;0.0;DEBUG3;0.0;DEBUG4;0.0
ATTITUDE;ANGX;5.0;ANGY;0.0;HEAD;168.0
STATUS;CYCLETIME;2788;I2CERR;0;PRESENT;23;MODE;0
RAW_IMU;AX;11.0;AY;-2.0;AZ;254.0;GX;0.0;GY;0.0;GZ;0.0;MAGX;-25.0;MAGY;-79.0;MAGZ;83.0
MOT;0;1000.0;1;1000.0;2;1000.0;3;1000.0;4;0.0;5;0.0;6;0.0;7;0.0;
RC;ROLL;1484.0;PITCH;1534.0;YAW;1506.0;THROTTLE;1063.0;AUX1;1553.0;AUX2;1500.0;AUX3;1500.0;AUX4;1500.0
ALTITUDE;0.0
DEBUG;DEBUG10.0;DEBUG2;0.0;DEBUG3;0.0;DEBUG4;0.0
ATTITUDE;ANGX;5.0;ANGY;0.0;HEAD;168.0
STATUS;CYCLETIME;2804;I2CERR;0;PRESENT;23;MODE;0
RAW_IMU;AX;11.0;AY;-2.0;AZ;253.0;GX;0.0;GY;0.0;GZ;0.0;MAGX;-24.0;MAGY;-79.0;MAGZ;84.0
MOT;0;1000.0;1;1000.0;2;1000.0;3;1000.0;4;0.0;5;0.0;6;0.0;7;0.0;
RC;ROLL;1484.0;PITCH;1534.0;YAW;1506.0;THROTTLE;1063.0;AUX1;1553.0;AUX2;1500.0;AUX3;1500.0;AUX4;1500.0
ALTITUDE;0.0
DEBUG;DEBUG10.0;DEBUG2;0.0;DEBUG3;0.0;DEBUG4;0.0
ATTITUDE;ANGX;5.0;ANGY;0.0;HEAD;168.0
STATUS;CYCLETIME;2796;I2CERR;0;PRESENT;23;MODE;0
RAW_IMU;AX;10.0;AY;-3.0;AZ;253.0;GX;1.0;GY;0.0;GZ;0.0;MAGX;-24.0;MAGY;-79.0;MAGZ;84.0
MOT;0;1000.0;1;1000.0;2;1000.0;3;1000.0;4;0.0;5;0.0;6;0.0;7;0.0;
RC;ROLL;1484.0;PITCH;1534.0;YAW;1506.0;THROTTLE;1063.0;AUX1;1553.0;AUX2;1500.0;AUX3;1500.0;AUX4;1500.0
ALTITUDE;0.0
DEBUG;DEBUG10.0;DEBUG2;0.0;DEBUG3;0.0;DEBUG4;0.0
ATTITUDE;ANGX;5.0;ANGY;0.0;HEAD;168.0
STATUS;CYCLETIME;2792;I2CERR;0;PRESENT;23;MODE;0
RAW_IMU;AX;10.0;AY;-2.0;AZ;252.0;GX;1.0;GY;0.0;GZ;0.0;MAGX;-25.0;MAGY;-78.0;MAGZ;82.0
MOT;0;1000.0;1;1000.0;2;1000.0;3;1000.0;4;0.0;5;0.0;6;0.0;7;0.0;
RC;ROLL;1484.0;PITCH;1534.0;YAW;1506.0;THROTTLE;1063.0;AUX1;1553.0;AUX2;1500.0;AUX3;1500.0;AUX4;1500.0
ALTITUDE;0.0
DEBUG;DEBUG10.0;DEBUG2;0.0;DEBUG3;0.0;DEBUG4;0.0
ATTITUDE;ANGX;5.0;ANGY;0.0;HEAD;168.0
STATUS;CYCLETIME;2788;I2CERR;0;PRESENT;23;MODE;0
RAW_IMU;AX;12.0;AY;-3.0;AZ;252.0;GX;0.0;GY;0.0;GZ;0.0;MAGX;-25.0;MAGY;-78.0;MAGZ;82.0
MOT;0;1000.0;1;1000.0;2;1000.0;3;1000.0;4;0.0;5;0.0;6;0.0;7;0.0;
RC;ROLL;1484.0;PITCH;1534.0;YAW;1506.0;THROTTLE;1063.0;AUX1;1553.0;AUX2;1500.0;AUX3;1500.0;AUX4;1500.0
ALTITUDE;0.0
DEBUG;DEBUG10.0;DEBUG2;0.0;DEBUG3;0.0;DEBUG4;0.0
ATTITUDE;ANGX;5.0;ANGY;0.0;HEAD;168.0
STATUS;CYCLETIME;2812;I2CERR;0;PRESENT;23;MODE;0
RAW_IMU;AX;9.0;AY;-2.0;AZ;254.0;GX;1.0;GY;0.0;GZ;0.0;MAGX;-24.0;MAGY;-78.0;MAGZ;83.0
MOT;0;1000.0;1;1000.0;2;1000.0;3;1000.0;4;0.0;5;0.0;6;0.0;7;0.0;
RC;ROLL;1484.0;PITCH;1534.0;YAW;1506.0;THROTTLE;1063.0;AUX1;1553.0;AUX2;1500.0;AUX3;1500.0;AUX4;1500.0
ALTITUDE;0.0
DEBUG;DEBUG10.0;DEBUG2;0.0;DEBUG3;0.0;DEBUG4;0.0
ATTITUDE;ANGX;5.0;ANGY;0.0;HEAD;168.0
STATUS;CYCLETIME;2784;I2CERR;0;PRESENT;23;MODE;0
RAW_IMU;AX;10.0;AY;-1.0;AZ;253.0;GX;0.0;GY;0.0;GZ;0.0;MAGX;-24.0;MAGY;-78.0;MAGZ;83.0
MOT;0;1000.0;1;1000.0;2;1000.0;3;1000.0;4;0.0;5;0.0;6;0.0;7;0.0;
RC;ROLL;1484.0;PITCH;1534.0;YAW;1506.0;THROTTLE;1063.0;AUX1;1553.0;AUX2;1500.0;AUX3;1500.0;AUX4;1500.0
ALTITUDE;0.0
DEBUG;DEBUG10.0;DEBUG2;0.0;DEBUG3;0.0;DEBUG4;0.0
ATTITUDE;ANGX;5.0;ANGY;0.0;HEAD;168.0
STATUS;CYCLETIME;2808;I2CERR;0;PRESENT;23;MODE;0
RAW_IMU;AX;11.0;AY;-3.0;AZ;253.0;GX;1.0;GY;0.0;GZ;0.0;MAGX;-24.0;MAGY;-78.0;MAGZ;83.0
MOT;0;1000.0;1;1000.0;2;1000.0;3;1000.0;4;0.0;5;0.0;6;0.0;7;0.0;
RC;ROLL;1484.0;PITCH;1534.0;YAW;1506.0;THROTTLE;1063.0;AUX1;1553.0;AUX2;1500.0;AUX3;1500.0;AUX4;1500.0
ALTITUDE;0.0
DEBUG;DEBUG10.0;DEBUG2;0.0;DEBUG3;0.0;DEBUG4;0.0
ATTITUDE;ANGX;5.0;ANGY;0.0;HEAD;168.0
STATUS;CYCLETIME;2768;I2CERR;0;PRESENT;23;MODE;0
RAW_IMU;AX;12.0;AY;-2.0;AZ;254.0;GX;1.0;GY;0.0;GZ;0.0;MAGX;-24.0;MAGY;-78.0;MAGZ;83.0
MOT;0;1000.0;1;1000.0;2;1000.0;3;1000.0;4;0.0;5;0.0;6;0.0;7;0.0;
RC;ROLL;1484.0;PITCH;1534.0;YAW;1506.0;THROTTLE;1063.0;AUX1;1553.0;AUX2;1500.0;AUX3;1500.0;AUX4;1500.0
ALTITUDE;0.0
DEBUG;DEBUG10.0;DEBUG2;0.0;DEBUG3;0.0;DEBUG4;0.0
ATTITUDE;ANGX;5.0;ANGY;0.0;HEAD;168.0
STATUS;CYCLETIME;3076;I2CERR;0;PRESENT;23;MODE;0
RAW_IMU;AX;12.0;AY;-2.0;AZ;251.0;GX;1.0;GY;0.0;GZ;0.0;MAGX;-24.0;MAGY;-79.0;MAGZ;82.0
MOT;0;1000.0;1;1000.0;2;1000.0;3;1000.0;4;0.0;5;0.0;6;0.0;7;0.0;
RC;ROLL;1484.0;PITCH;1534.0;YAW;1506.0;THROTTLE;1063.0;AUX1;1553.0;AUX2;1500.0;AUX3;1500.0;AUX4;1500.0
ALTITUDE;0.0
DEBUG;DEBUG10.0;DEBUG2;0.0;DEBUG3;0.0;DEBUG4;0.0
ATTITUDE;ANGX;6.0;ANGY;0.0;HEAD;168.0
STATUS;CYCLETIME;2912;I2CERR;0;PRESENT;23;MODE;0
RAW_IMU;AX;11.0;AY;-4.0;AZ;252.0;GX;1.0;GY;0.0;GZ;0.0;MAGX;-24.0;MAGY;-79.0;MAGZ;82.0
MOT;0;1000.0;1;1000.0;2;1000.0;3;1000.0;4;0.0;5;0.0;6;0.0;7;0.0;
RC;ROLL;1484.0;PITCH;1534.0;YAW;1506.0;THROTTLE;1063.0;AUX1;1553.0;AUX2;1500.0;AUX3;1500.0;AUX4;1500.0
ALTITUDE;0.0
DEBUG;DEBUG10.0;DEBUG2;0.0;DEBUG3;0.0;DEBUG4;0.0
ATTITUDE;ANGX;6.0;ANGY;0.0;HEAD;168.0
STATUS;CYCLETIME;3068;I2CERR;0;PRESENT;23;MODE;0
RAW_IMU;AX;10.0;AY;-2.0;AZ;254.0;GX;0.0;GY;0.0;GZ;0.0;MAGX;-25.0;MAGY;-78.0;MAGZ;83.0
MOT;0;1000.0;1;1000.0;2;1000.0;3;1000.0;4;0.0;5;0.0;6;0.0;7;0.0;
RC;ROLL;1484.0;PITCH;1534.0;YAW;1506.0;THROTTLE;1063.0;AUX1;1553.0;AUX2;1500.0;AUX3;1500.0;AUX4;1500.0
ALTITUDE;0.0
DEBUG;DEBUG10.0;DEBUG2;0.0;DEBUG3;0.0;DEBUG4;0.0
ATTITUDE;ANGX;6.0;ANGY;0.0;HEAD;168.0
STATUS;CYCLETIME;2764;I2CERR;0;PRESENT;23;MODE;0
RAW_IMU;AX;11.0;AY;-4.0;AZ;252.0;GX;0.0;GY;0.0;GZ;0.0;MAGX;-25.0;MAGY;-78.0;MAGZ;83.0
MOT;0;1000.0;1;1000.0;2;1000.0;3;1000.0;4;0.0;5;0.0;6;0.0;7;0.0;
RC;ROLL;1484.0;PITCH;1534.0;YAW;1506.0;THROTTLE;1063.0;AUX1;1553.0;AUX2;1500.0;AUX3;1500.0;AUX4;1500.0
ALTITUDE;0.0
DEBUG;DEBUG10.0;DEBUG2;0.0;DEBUG3;0.0;DEBUG4;0.0
ATTITUDE;ANGX;6.0;ANGY;0.0;HEAD;168.0
STATUS;CYCLETIME;3072;I2CERR;0;PRESENT;23;MODE;0
RAW_IMU;AX;14.0;AY;-2.0;AZ;250.0;GX;1.0;GY;0.0;GZ;0.0;MAGX;-24.0;MAGY;-79.0;MAGZ;84.0
MOT;0;1000.0;1;1000.0;2;1000.0;3;1000.0;4;0.0;5;0.0;6;0.0;7;0.0;
RC;ROLL;1484.0;PITCH;1534.0;YAW;1506.0;THROTTLE;1063.0;AUX1;1553.0;AUX2;1500.0;AUX3;1500.0;AUX4;1500.0
ALTITUDE;0.0
DEBUG;DEBUG10.0;DEBUG2;0.0;DEBUG3;0.0;DEBUG4;0.0
ATTITUDE;ANGX;6.0;ANGY;0.0;HEAD;168.0
STATUS;CYCLETIME;2796;I2CERR;0;PRESENT;23;MODE;0
RAW_IMU;AX;11.0;AY;-2.0;AZ;254.0;GX;0.0;GY;0.0;GZ;0.0;MAGX;-24.0;MAGY;-79.0;MAGZ;84.0
MOT;0;1000.0;1;1000.0;2;1000.0;3;1000.0;4;0.0;5;0.0;6;0.0;7;0.0;
RC;ROLL;1484.0;PITCH;1534.0;YAW;1506.0;THROTTLE;1063.0;AUX1;1553.0;AUX2;1500.0;AUX3;1500.0;AUX4;1500.0
ALTITUDE;0.0
DEBUG;DEBUG10.0;DEBUG2;0.0;DEBUG3;0.0;DEBUG4;0.0
ATTITUDE;ANGX;6.0;ANGY;0.0;HEAD;168.0
STATUS;CYCLETIME;2768;I2CERR;0;PRESENT;23;MODE;0
RAW_IMU;AX;12.0;AY;-2.0;AZ;253.0;GX;0.0;GY;0.0;GZ;0.0;MAGX;-26.0;MAGY;-78.0;MAGZ;82.0
MOT;0;1000.0;1;1000.0;2;1000.0;3;1000.0;4;0.0;5;0.0;6;0.0;7;0.0;
RC;ROLL;1484.0;PITCH;1534.0;YAW;1506.0;THROTTLE;1063.0;AUX1;1553.0;AUX2;1500.0;AUX3;1500.0;AUX4;1500.0
ALTITUDE;0.0
DEBUG;DEBUG10.0;DEBUG2;0.0;DEBUG3;0.0;DEBUG4;0.0
ATTITUDE;ANGX;6.0;ANGY;0.0;HEAD;168.0
STATUS;CYCLETIME;2768;I2CERR;0;PRESENT;23;MODE;0
RAW_IMU;AX;9.0;AY;-2.0;AZ;251.0;GX;1.0;GY;0.0;GZ;0.0;MAGX;-26.0;MAGY;-78.0;MAGZ;82.0
MOT;0;1000.0;1;1000.0;2;1000.0;3;1000.0;4;0.0;5;0.0;6;0.0;7;0.0;
RC;ROLL;1484.0;PITCH;1534.0;YAW;1506.0;THROTTLE;1063.0;AUX1;1553.0;AUX2;1500.0;AUX3;1500.0;AUX4;1500.0
ALTITUDE;0.0
DEBUG;DEBUG10.0;DEBUG2;0.0;DEBUG3;0.0;DEBUG4;0.0
ATTITUDE;ANGX;6.0;ANGY;0.0;HEAD;168.0
STATUS;CYCLETIME;2804;I2CERR;0;PRESENT;23;MODE;0
RAW_IMU;AX;10.0;AY;-1.0;AZ;253.0;GX;0.0;GY;0.0;GZ;0.0;MAGX;-26.0;MAGY;-78.0;MAGZ;82.0
MOT;0;1000.0;1;1000.0;2;1000.0;3;1000.0;4;0.0;5;0.0;6;0.0;7;0.0;
RC;ROLL;1484.0;PITCH;1534.0;YAW;1506.0;THROTTLE;1063.0;AUX1;1553.0;AUX2;1500.0;AUX3;1500.0;AUX4;1500.0
ALTITUDE;0.0
DEBUG;DEBUG10.0;DEBUG2;0.0;DEBUG3;0.0;DEBUG4;0.0
ATTITUDE;ANGX;6.0;ANGY;0.0;HEAD;168.0
STATUS;CYCLETIME;2800;I2CERR;0;PRESENT;23;MODE;0
RAW_IMU;AX;11.0;AY;-2.0;AZ;252.0;GX;1.0;GY;0.0;GZ;0.0;MAGX;-25.0;MAGY;-79.0;MAGZ;82.0
MOT;0;1000.0;1;1000.0;2;1000.0;3;1000.0;4;0.0;5;0.0;6;0.0;7;0.0;
RC;ROLL;1484.0;PITCH;1534.0;YAW;1506.0;THROTTLE;1063.0;AUX1;1553.0;AUX2;1500.0;AUX3;1500.0;AUX4;1500.0
ALTITUDE;0.0
DEBUG;DEBUG10.0;DEBUG2;0.0;DEBUG3;0.0;DEBUG4;0.0
ATTITUDE;ANGX;6.0;ANGY;0.0;HEAD;168.0
STATUS;CYCLETIME;2812;I2CERR;0;PRESENT;23;MODE;0
RAW_IMU;AX;7.0;AY;6.0;AZ;253.0;GX;1.0;GY;0.0;GZ;0.0;MAGX;-25.0;MAGY;-79.0;MAGZ;82.0
MOT;0;1000.0;1;1000.0;2;1000.0;3;1000.0;4;0.0;5;0.0;6;0.0;7;0.0;
RC;ROLL;1484.0;PITCH;1534.0;YAW;1506.0;THROTTLE;1063.0;AUX1;1553.0;AUX2;1500.0;AUX3;1500.0;AUX4;1500.0
ALTITUDE;0.0
DEBUG;DEBUG10.0;DEBUG2;0.0;DEBUG3;0.0;DEBUG4;0.0
ATTITUDE;ANGX;6.0;ANGY;0.0;HEAD;168.0
STATUS;CYCLETIME;2880;I2CERR;0;PRESENT;23;MODE;0
RAW_IMU;AX;9.0;AY;1.0;AZ;253.0;GX;1.0;GY;0.0;GZ;0.0;MAGX;-25.0;MAGY;-79.0;MAGZ;82.0
MOT;0;1000.0;1;1000.0;2;1000.0;3;1000.0;4;0.0;5;0.0;6;0.0;7;0.0;
RC;ROLL;1484.0;PITCH;1534.0;YAW;1506.0;THROTTLE;1063.0;AUX1;1553.0;AUX2;1500.0;AUX3;1500.0;AUX4;1500.0
ALTITUDE;0.0
DEBUG;DEBUG10.0;DEBUG2;0.0;DEBUG3;0.0;DEBUG4;0.0
ATTITUDE;ANGX;6.0;ANGY;0.0;HEAD;168.0
STATUS;CYCLETIME;2788;I2CERR;0;PRESENT;23;MODE;0
RAW_IMU;AX;9.0;AY;-1.0;AZ;252.0;GX;0.0;GY;0.0;GZ;0.0;MAGX;-25.0;MAGY;-79.0;MAGZ;82.0
MOT;0;1000.0;1;1000.0;2;1000.0;3;1000.0;4;0.0;5;0.0;6;0.0;7;0.0;
RC;ROLL;1484.0;PITCH;1534.0;YAW;1506.0;THROTTLE;1063.0;AUX1;1553.0;AUX2;1500.0;AUX3;1500.0;AUX4;1500.0
ALTITUDE;0.0
DEBUG;DEBUG10.0;DEBUG2;0.0;DEBUG3;0.0;DEBUG4;0.0
ATTITUDE;ANGX;6.0;ANGY;0.0;HEAD;168.0
STATUS;CYCLETIME;2776;I2CERR;0;PRESENT;23;MODE;0
RAW_IMU;AX;11.0;AY;-1.0;AZ;255.0;GX;1.0;GY;0.0;GZ;0.0;MAGX;-25.0;MAGY;-79.0;MAGZ;82.0
MOT;0;1000.0;1;1000.0;2;1000.0;3;1000.0;4;0.0;5;0.0;6;0.0;7;0.0;
RC;ROLL;1484.0;PITCH;1534.0;YAW;1506.0;THROTTLE;1063.0;AUX1;1553.0;AUX2;1500.0;AUX3;1500.0;AUX4;1500.0
ALTITUDE;0.0
DEBUG;DEBUG10.0;DEBUG2;0.0;DEBUG3;0.0;DEBUG4;0.0
ATTITUDE;ANGX;6.0;ANGY;0.0;HEAD;168.0
STATUS;CYCLETIME;2880;I2CERR;0;PRESENT;23;MODE;0
RAW_IMU;AX;7.0;AY;-1.0;AZ;251.0;GX;1.0;GY;0.0;GZ;0.0;MAGX;-25.0;MAGY;-79.0;MAGZ;82.0
MOT;0;1000.0;1;1000.0;2;1000.0;3;1000.0;4;0.0;5;0.0;6;0.0;7;0.0;
RC;ROLL;1484.0;PITCH;1534.0;YAW;1506.0;THROTTLE;1063.0;AUX1;1553.0;AUX2;1500.0;AUX3;1500.0;AUX4;1500.0
ALTITUDE;0.0
DEBUG;DEBUG10.0;DEBUG2;0.0;DEBUG3;0.0;DEBUG4;0.0
ATTITUDE;ANGX;6.0;ANGY;0.0;HEAD;168.0
STATUS;CYCLETIME;2804;I2CERR;0;PRESENT;23;MODE;0
RAW_IMU;AX;6.0;AY;-1.0;AZ;252.0;GX;1.0;GY;0.0;GZ;0.0;MAGX;-24.0;MAGY;-79.0;MAGZ;83.0
MOT;0;1000.0;1;1000.0;2;1000.0;3;1000.0;4;0.0;5;0.0;6;0.0;7;0.0;
