IDENT;V;220;TYPE;3
MSP_MOTOR_PINS
STATUS;CYCLETIME;2900;I2CERR;0;PRESENT;23;MODE;3
RAW_IMU;AX;-39.0;AY;-17.0;AZ;258.0;GX;0.0;GY;2.0;GZ;0.0;MAGX;95.0;MAGY;-75.0;MAGZ;42.0
MOT;0;1150.0;1;1150.0;2;1150.0;3;1150.0;4;0.0;5;0.0;6;0.0;7;0.0;
RC;ROLL;1494.0;PITCH;1503.0;YAW;1507.0;THROTTLE;1062.0;AUX1;1533.0;AUX2;1500.0;AUX3;1500.0;AUX4;1500.0
ALTITUDE;70.0
DEBUG;DEBUG10.0;DEBUG2;0.0;DEBUG3;70.0;DEBUG4;0.0
ATTITUDE;ANGX;-18.0;ANGY;0.0;HEAD;-112.0
STATUS;CYCLETIME;3168;I2CERR;0;PRESENT;23;MODE;3
RAW_IMU;AX;-41.0;AY;-15.0;AZ;258.0;GX;2.0;GY;1.0;GZ;0.0;MAGX;95.0;MAGY;-75.0;MAGZ;44.0
MOT;0;1150.0;1;1150.0;2;1150.0;3;1150.0;4;0.0;5;0.0;6;0.0;7;0.0;
RC;ROLL;1494.0;PITCH;1503.0;YAW;1507.0;THROTTLE;1062.0;AUX1;1533.0;AUX2;1500.0;AUX3;1500.0;AUX4;1500.0
ALTITUDE;70.0
DEBUG;DEBUG10.0;DEBUG2;0.0;DEBUG3;70.0;DEBUG4;0.0
ATTITUDE;ANGX;-18.0;ANGY;0.0;HEAD;-112.0
ATTITUDE;ANGX;-17.0;ANGY;0.0;HEAD;-112.0
STATUS;CYCLETIME;2892;I2CERR;0;PRESENT;23;MODE;3
RAW_IMU;AX;-35.0;AY;-16.0;AZ;254.0;GX;2.0;GY;0.0;GZ;1.0;MAGX;95.0;MAGY;-75.0;MAGZ;44.0
MOT;0;1150.0;1;1150.0;2;1150.0;3;1150.0;4;0.0;5;0.0;6;0.0;7;0.0;
RC;ROLL;1494.0;PITCH;1503.0;YAW;1507.0;THROTTLE;1062.0;AUX1;1533.0;AUX2;1500.0;AUX3;1500.0;AUX4;1500.0
ALTITUDE;70.0
DEBUG;DEBUG10.0;DEBUG2;0.0;DEBUG3;70.0;DEBUG4;0.0
ATTITUDE;ANGX;-17.0;ANGY;0.0;HEAD;-112.0
STATUS;CYCLETIME;2984;I2CERR;0;PRESENT;23;MODE;3
RAW_IMU;AX;-32.0;AY;-18.0;AZ;253.0;GX;0.0;GY;-1.0;GZ;0.0;MAGX;94.0;MAGY;-75.0;MAGZ;47.0
MOT;0;1150.0;1;1150.0;2;1150.0;3;1150.0;4;0.0;5;0.0;6;0.0;7;0.0;
RC;ROLL;1496.0;PITCH;1503.0;YAW;1507.0;THROTTLE;1062.0;AUX1;1531.0;AUX2;1500.0;AUX3;1500.0;AUX4;1500.0
ALTITUDE;70.0
DEBUG;DEBUG10.0;DEBUG2;0.0;DEBUG3;70.0;DEBUG4;0.0
ATTITUDE;ANGX;-16.0;ANGY;0.0;HEAD;-113.0
STATUS;CYCLETIME;2976;I2CERR;0;PRESENT;23;MODE;3
RAW_IMU;AX;-33.0;AY;-19.0;AZ;246.0;GX;-2.0;GY;0.0;GZ;1.0;MAGX;94.0;MAGY;-75.0;MAGZ;47.0
MOT;0;1150.0;1;1150.0;2;1150.0;3;1150.0;4;0.0;5;0.0;6;0.0;7;0.0;
RC;ROLL;1496.0;PITCH;1503.0;YAW;1507.0;THROTTLE;1062.0;AUX1;1531.0;AUX2;1500.0;AUX3;1500.0;AUX4;1500.0
ALTITUDE;70.0
DEBUG;DEBUG10.0;DEBUG2;0.0;DEBUG3;70.0;DEBUG4;0.0
ATTITUDE;ANGX;-16.0;ANGY;0.0;HEAD;-113.0
STATUS;CYCLETIME;2904;I2CERR;0;PRESENT;23;MODE;3
RAW_IMU;AX;-32.0;AY;-19.0;AZ;244.0;GX;-3.0;GY;3.0;GZ;0.0;MAGX;95.0;MAGY;-76.0;MAGZ;49.0
MOT;0;1150.0;1;1150.0;2;1150.0;3;1150.0;4;0.0;5;0.0;6;0.0;7;0.0;
RC;ROLL;1496.0;PITCH;1503.0;YAW;1507.0;THROTTLE;1062.0;AUX1;1531.0;AUX2;1500.0;AUX3;1500.0;AUX4;1500.0
ALTITUDE;70.0
DEBUG;DEBUG10.0;DEBUG2;0.0;DEBUG3;70.0;DEBUG4;0.0
ATTITUDE;ANGX;-16.0;ANGY;0.0;HEAD;-113.0
STATUS;CYCLETIME;2884;I2CERR;0;PRESENT;23;MODE;3
RAW_IMU;AX;-34.0;AY;-19.0;AZ;245.0;GX;-3.0;GY;3.0;GZ;0.0;MAGX;95.0;MAGY;-76.0;MAGZ;49.0
MOT;0;1150.0;1;1150.0;2;1150.0;3;1150.0;4;0.0;5;0.0;6;0.0;7;0.0;
RC;ROLL;1496.0;PITCH;1503.0;YAW;1507.0;THROTTLE;1062.0;AUX1;1531.0;AUX2;1500.0;AUX3;1500.0;AUX4;1500.0
ALTITUDE;70.0
DEBUG;DEBUG10.0;DEBUG2;0.0;DEBUG3;70.0;DEBUG4;0.0
ATTITUDE;ANGX;-17.0;ANGY;0.0;HEAD;-113.0
STATUS;CYCLETIME;2892;I2CERR;0;PRESENT;23;MODE;3
RAW_IMU;AX;-37.0;AY;-18.0;AZ;251.0;GX;-2.0;GY;0.0;GZ;0.0;MAGX;95.0;MAGY;-75.0;MAGZ;47.0
MOT;0;1150.0;1;1150.0;2;1150.0;3;1150.0;4;0.0;5;0.0;6;0.0;7;0.0;
RC;ROLL;1496.0;PITCH;1503.0;YAW;1507.0;THROTTLE;1062.0;AUX1;1531.0;AUX2;1500.0;AUX3;1500.0;AUX4;1500.0
ALTITUDE;70.0
DEBUG;DEBUG10.0;DEBUG2;0.0;DEBUG3;70.0;DEBUG4;0.0
ATTITUDE;ANGX;-17.0;ANGY;0.0;HEAD;-113.0
STATUS;CYCLETIME;2904;I2CERR;0;PRESENT;23;MODE;3
RAW_IMU;AX;-37.0;AY;-18.0;AZ;254.0;GX;-1.0;GY;0.0;GZ;0.0;MAGX;95.0;MAGY;-75.0;MAGZ;47.0
MOT;0;1150.0;1;1150.0;2;1150.0;3;1150.0;4;0.0;5;0.0;6;0.0;7;0.0;
RC;ROLL;1496.0;PITCH;1503.0;YAW;1507.0;THROTTLE;1062.0;AUX1;1531.0;AUX2;1500.0;AUX3;1500.0;AUX4;1500.0
ALTITUDE;71.0
DEBUG;DEBUG10.0;DEBUG2;0.0;DEBUG3;71.0;DEBUG4;0.0
ATTITUDE;ANGX;-17.0;ANGY;0.0;HEAD;-113.0
STATUS;CYCLETIME;2928;I2CERR;0;PRESENT;23;MODE;3
RAW_IMU;AX;-36.0;AY;-18.0;AZ;250.0;GX;0.0;GY;-1.0;GZ;0.0;MAGX;95.0;MAGY;-76.0;MAGZ;47.0
MOT;0;1150.0;1;1150.0;2;1150.0;3;1150.0;4;0.0;5;0.0;6;0.0;7;0.0;
RC;ROLL;1496.0;PITCH;1503.0;YAW;1509.0;THROTTLE;1062.0;AUX1;1531.0;AUX2;1500.0;AUX3;1500.0;AUX4;1500.0
ALTITUDE;71.0
DEBUG;DEBUG10.0;DEBUG2;0.0;DEBUG3;71.0;DEBUG4;0.0
ATTITUDE;ANGX;-16.0;ANGY;0.0;HEAD;-113.0
STATUS;CYCLETIME;2892;I2CERR;0;PRESENT;23;MODE;3
RAW_IMU;AX;-37.0;AY;-18.0;AZ;250.0;GX;0.0;GY;1.0;GZ;0.0;MAGX;95.0;MAGY;-76.0;MAGZ;47.0
MOT;0;1150.0;1;1150.0;2;1150.0;3;1150.0;4;0.0;5;0.0;6;0.0;7;0.0;
RC;ROLL;1496.0;PITCH;1503.0;YAW;1509.0;THROTTLE;1062.0;AUX1;1531.0;AUX2;1500.0;AUX3;1500.0;AUX4;1500.0
ALTITUDE;71.0
DEBUG;DEBUG10.0;DEBUG2;0.0;DEBUG3;71.0;DEBUG4;0.0
ATTITUDE;ANGX;-16.0;ANGY;0.0;HEAD;-113.0
STATUS;CYCLETIME;2880;I2CERR;0;PRESENT;23;MODE;3
RAW_IMU;AX;-33.0;AY;-19.0;AZ;252.0;GX;-1.0;GY;2.0;GZ;0.0;MAGX;95.0;MAGY;-76.0;MAGZ;47.0
MOT;0;1150.0;1;1150.0;2;1150.0;3;1150.0;4;0.0;5;0.0;6;0.0;7;0.0;
RC;ROLL;1496.0;PITCH;1503.0;YAW;1509.0;THROTTLE;1062.0;AUX1;1531.0;AUX2;1500.0;AUX3;1500.0;AUX4;1500.0
ALTITUDE;71.0
DEBUG;DEBUG10.0;DEBUG2;0.0;DEBUG3;71.0;DEBUG4;0.0
ATTITUDE;ANGX;-16.0;ANGY;0.0;HEAD;-113.0
STATUS;CYCLETIME;2880;I2CERR;0;PRESENT;23;MODE;3
RAW_IMU;AX;-32.0;AY;-19.0;AZ;252.0;GX;-4.0;GY;1.0;GZ;0.0;MAGX;95.0;MAGY;-75.0;MAGZ;50.0
MOT;0;1150.0;1;1150.0;2;1150.0;3;1150.0;4;0.0;5;0.0;6;0.0;7;0.0;
RC;ROLL;1496.0;PITCH;1503.0;YAW;1509.0;THROTTLE;1062.0;AUX1;1531.0;AUX2;1500.0;AUX3;1500.0;AUX4;1500.0
ALTITUDE;71.0
DEBUG;DEBUG10.0;DEBUG2;0.0;DEBUG3;71.0;DEBUG4;0.0
ATTITUDE;ANGX;-16.0;ANGY;0.0;HEAD;-113.0
STATUS;CYCLETIME;3008;I2CERR;0;PRESENT;23;MODE;3
RAW_IMU;AX;-33.0;AY;-15.0;AZ;255.0;GX;-9.0;GY;1.0;GZ;1.0;MAGX;95.0;MAGY;-75.0;MAGZ;50.0
MOT;0;1150.0;1;1150.0;2;1150.0;3;1150.0;4;0.0;5;0.0;6;0.0;7;0.0;
RC;ROLL;1496.0;PITCH;1503.0;YAW;1509.0;THROTTLE;1062.0;AUX1;1531.0;AUX2;1500.0;AUX3;1500.0;AUX4;1500.0
ALTITUDE;71.0
DEBUG;DEBUG10.0;DEBUG2;0.0;DEBUG3;71.0;DEBUG4;0.0
ATTITUDE;ANGX;-17.0;ANGY;0.0;HEAD;-113.0
STATUS;CYCLETIME;2892;I2CERR;0;PRESENT;23;MODE;3
RAW_IMU;AX;-32.0;AY;-13.0;AZ;257.0;GX;-12.0;GY;1.0;GZ;1.0;MAGX;94.0;MAGY;-73.0;MAGZ;50.0
MOT;0;1150.0;1;1150.0;2;1150.0;3;1150.0;4;0.0;5;0.0;6;0.0;7;0.0;
RC;ROLL;1496.0;PITCH;1503.0;YAW;1509.0;THROTTLE;1062.0;AUX1;1531.0;AUX2;1500.0;AUX3;1500.0;AUX4;1500.0
ALTITUDE;71.0
DEBUG;DEBUG10.0;DEBUG2;0.0;DEBUG3;71.0;DEBUG4;0.0
ATTITUDE;ANGX;-18.0;ANGY;0.0;HEAD;-113.0
STATUS;CYCLETIME;2876;I2CERR;0;PRESENT;23;MODE;3
RAW_IMU;AX;-35.0;AY;-14.0;AZ;262.0;GX;-12.0;GY;1.0;GZ;1.0;MAGX;94.0;MAGY;-73.0;MAGZ;50.0
MOT;0;1150.0;1;1150.0;2;1150.0;3;1150.0;4;0.0;5;0.0;6;0.0;7;0.0;
RC;ROLL;1496.0;PITCH;1503.0;YAW;1509.0;THROTTLE;1059.0;AUX1;1531.0;AUX2;1500.0;AUX3;1500.0;AUX4;1500.0
ALTITUDE;71.0
DEBUG;DEBUG10.0;DEBUG2;0.0;DEBUG3;71.0;DEBUG4;0.0
ATTITUDE;ANGX;-19.0;ANGY;0.0;HEAD;-113.0
STATUS;CYCLETIME;2984;I2CERR;0;PRESENT;23;MODE;3
RAW_IMU;AX;-38.0;AY;-16.0;AZ;263.0;GX;-10.0;GY;0.0;GZ;0.0;MAGX;95.0;MAGY;-75.0;MAGZ;44.0
MOT;0;1150.0;1;1150.0;2;1150.0;3;1150.0;4;0.0;5;0.0;6;0.0;7;0.0;
RC;ROLL;1496.0;PITCH;1503.0;YAW;1506.0;THROTTLE;1059.0;AUX1;1531.0;AUX2;1500.0;AUX3;1500.0;AUX4;1500.0
ALTITUDE;71.0
DEBUG;DEBUG10.0;DEBUG2;0.0;DEBUG3;71.0;DEBUG4;0.0
ATTITUDE;ANGX;-20.0;ANGY;0.0;HEAD;-113.0
STATUS;CYCLETIME;2892;I2CERR;0;PRESENT;23;MODE;3
RAW_IMU;AX;-40.0;AY;-15.0;AZ;260.0;GX;-6.0;GY;0.0;GZ;0.0;MAGX;95.0;MAGY;-75.0;MAGZ;44.0
MOT;0;1150.0;1;1150.0;2;1150.0;3;1150.0;4;0.0;5;0.0;6;0.0;7;0.0;
RC;ROLL;1496.0;PITCH;1503.0;YAW;1506.0;THROTTLE;1059.0;AUX1;1531.0;AUX2;1500.0;AUX3;1500.0;AUX4;1500.0
ALTITUDE;71.0
DEBUG;DEBUG10.0;DEBUG2;0.0;DEBUG3;70.0;DEBUG4;0.0
ATTITUDE;ANGX;-20.0;ANGY;0.0;HEAD;-113.0
STATUS;CYCLETIME;2936;I2CERR;0;PRESENT;23;MODE;3
RAW_IMU;AX;-41.0;AY;-16.0;AZ;258.0;GX;-1.0;GY;0.0;GZ;1.0;MAGX;96.0;MAGY;-75.0;MAGZ;38.0
MOT;0;1150.0;1;1150.0;2;1150.0;3;1150.0;4;0.0;5;0.0;6;0.0;7;0.0;
RC;ROLL;1496.0;PITCH;1503.0;YAW;1506.0;THROTTLE;1062.0;AUX1;1531.0;AUX2;1500.0;AUX3;1500.0;AUX4;1500.0
ALTITUDE;70.0
DEBUG;DEBUG10.0;DEBUG2;0.0;DEBUG3;70.0;DEBUG4;0.0
ATTITUDE;ANGX;-20.0;ANGY;0.0;HEAD;-113.0
STATUS;CYCLETIME;3060;I2CERR;0;PRESENT;23;MODE;3
RAW_IMU;AX;-38.0;AY;-18.0;AZ;254.0;GX;2.0;GY;0.0;GZ;1.0;MAGX;96.0;MAGY;-75.0;MAGZ;38.0
MOT;0;1150.0;1;1150.0;2;1150.0;3;1150.0;4;0.0;5;0.0;6;0.0;7;0.0;
RC;ROLL;1496.0;PITCH;1503.0;YAW;1506.0;THROTTLE;1062.0;AUX1;1531.0;AUX2;1500.0;AUX3;1500.0;AUX4;1500.0
ALTITUDE;70.0
DEBUG;DEBUG10.0;DEBUG2;0.0;DEBUG3;70.0;DEBUG4;0.0
ATTITUDE;ANGX;-20.0;ANGY;0.0;HEAD;-113.0
STATUS;CYCLETIME;2888;I2CERR;0;PRESENT;23;MODE;3
RAW_IMU;AX;-37.0;AY;-18.0;AZ;254.0;GX;3.0;GY;1.0;GZ;1.0;MAGX;96.0;MAGY;-75.0;MAGZ;39.0
MOT;0;1150.0;1;1150.0;2;1150.0;3;1150.0;4;0.0;5;0.0;6;0.0;7;0.0;
RC;ROLL;1496.0;PITCH;1503.0;YAW;1506.0;THROTTLE;1059.0;AUX1;1531.0;AUX2;1500.0;AUX3;1500.0;AUX4;1500.0
ALTITUDE;70.0
DEBUG;DEBUG10.0;DEBUG2;0.0;DEBUG3;70.0;DEBUG4;0.0
ATTITUDE;ANGX;-19.0;ANGY;0.0;HEAD;-113.0
STATUS;CYCLETIME;2888;I2CERR;0;PRESENT;23;MODE;3
RAW_IMU;AX;-37.0;AY;-17.0;AZ;255.0;GX;2.0;GY;3.0;GZ;0.0;MAGX;96.0;MAGY;-75.0;MAGZ;39.0
MOT;0;1150.0;1;1150.0;2;1150.0;3;1150.0;4;0.0;5;0.0;6;0.0;7;0.0;
RC;ROLL;1496.0;PITCH;1503.0;YAW;1506.0;THROTTLE;1059.0;AUX1;1531.0;AUX2;1500.0;AUX3;1500.0;AUX4;1500.0
ALTITUDE;70.0
DEBUG;DEBUG10.0;DEBUG2;0.0;DEBUG3;70.0;DEBUG4;0.0
ATTITUDE;ANGX;-18.0;ANGY;0.0;HEAD;-113.0
STATUS;CYCLETIME;2936;I2CERR;0;PRESENT;23;MODE;3
RAW_IMU;AX;-35.0;AY;-18.0;AZ;256.0;GX;0.0;GY;2.0;GZ;1.0;MAGX;96.0;MAGY;-75.0;MAGZ;39.0
MOT;0;1150.0;1;1150.0;2;1150.0;3;1150.0;4;0.0;5;0.0;6;0.0;7;0.0;
RC;ROLL;1496.0;PITCH;1503.0;YAW;1508.0;THROTTLE;1059.0;AUX1;1531.0;AUX2;1500.0;AUX3;1500.0;AUX4;1500.0
ALTITUDE;70.0
DEBUG;DEBUG10.0;DEBUG2;0.0;DEBUG3;70.0;DEBUG4;0.0
ATTITUDE;ANGX;-18.0;ANGY;0.0;HEAD;-113.0
STATUS;CYCLETIME;2928;I2CERR;0;PRESENT;23;MODE;3
RAW_IMU;AX;-35.0;AY;-16.0;AZ;256.0;GX;-2.0;GY;2.0;GZ;1.0;MAGX;95.0;MAGY;-75.0;MAGZ;44.0
MOT;0;1150.0;1;1150.0;2;1150.0;3;1150.0;4;0.0;5;0.0;6;0.0;7;0.0;
RC;ROLL;1496.0;PITCH;1503.0;YAW;1508.0;THROTTLE;1061.0;AUX1;1531.0;AUX2;1500.0;AUX3;1500.0;AUX4;1500.0
ALTITUDE;70.0
DEBUG;DEBUG10.0;DEBUG2;0.0;DEBUG3;70.0;DEBUG4;0.0
ATTITUDE;ANGX;-18.0;ANGY;0.0;HEAD;-113.0
STATUS;CYCLETIME;2992;I2CERR;0;PRESENT;23;MODE;3
RAW_IMU;AX;-34.0;AY;-17.0;AZ;256.0;GX;-3.0;GY;0.0;GZ;1.0;MAGX;95.0;MAGY;-75.0;MAGZ;44.0
MOT;0;1150.0;1;1150.0;2;1150.0;3;1150.0;4;0.0;5;0.0;6;0.0;7;0.0;
RC;ROLL;1496.0;PITCH;1503.0;YAW;1508.0;THROTTLE;1061.0;AUX1;1531.0;AUX2;1500.0;AUX3;1500.0;AUX4;1500.0
ALTITUDE;70.0
DEBUG;DEBUG10.0;DEBUG2;0.0;DEBUG3;70.0;DEBUG4;0.0
ATTITUDE;ANGX;-18.0;ANGY;0.0;HEAD;-113.0
STATUS;CYCLETIME;2904;I2CERR;0;PRESENT;23;MODE;3
RAW_IMU;AX;-33.0;AY;-17.0;AZ;253.0;GX;-2.0;GY;0.0;GZ;0.0;MAGX;95.0;MAGY;-74.0;MAGZ;44.0
MOT;0;1150.0;1;1150.0;2;1150.0;3;1150.0;4;0.0;5;0.0;6;0.0;7;0.0;
RC;ROLL;1496.0;PITCH;1503.0;YAW;1508.0;THROTTLE;1061.0;AUX1;1531.0;AUX2;1500.0;AUX3;1500.0;AUX4;1500.0
ALTITUDE;70.0
DEBUG;DEBUG10.0;DEBUG2;0.0;DEBUG3;70.0;DEBUG4;0.0
ATTITUDE;ANGX;-18.0;ANGY;0.0;HEAD;-113.0
STATUS;CYCLETIME;2912;I2CERR;0;PRESENT;23;MODE;3
RAW_IMU;AX;-39.0;AY;-16.0;AZ;250.0;GX;0.0;GY;1.0;GZ;1.0;MAGX;95.0;MAGY;-74.0;MAGZ;44.0
MOT;0;1150.0;1;1150.0;2;1150.0;3;1150.0;4;0.0;5;0.0;6;0.0;7;0.0;
RC;ROLL;1496.0;PITCH;1503.0;YAW;1508.0;THROTTLE;1061.0;AUX1;1534.0;AUX2;1500.0;AUX3;1500.0;AUX4;1500.0
ALTITUDE;70.0
DEBUG;DEBUG10.0;DEBUG2;0.0;DEBUG3;70.0;DEBUG4;0.0
ATTITUDE;ANGX;-18.0;ANGY;0.0;HEAD;-113.0
STATUS;CYCLETIME;2916;I2CERR;0;PRESENT;23;MODE;3
RAW_IMU;AX;-39.0;AY;-16.0;AZ;250.0;GX;2.0;GY;2.0;GZ;1.0;MAGX;95.0;MAGY;-74.0;MAGZ;45.0
MOT;0;1150.0;1;1150.0;2;1150.0;3;1150.0;4;0.0;5;0.0;6;0.0;7;0.0;
RC;ROLL;1496.0;PITCH;1501.0;YAW;1508.0;THROTTLE;1061.0;AUX1;1534.0;AUX2;1500.0;AUX3;1500.0;AUX4;1500.0
ALTITUDE;70.0
DEBUG;DEBUG10.0;DEBUG2;0.0;DEBUG3;70.0;DEBUG4;0.0
ATTITUDE;ANGX;-17.0;ANGY;0.0;HEAD;-113.0
STATUS;CYCLETIME;2932;I2CERR;0;PRESENT;23;MODE;3
RAW_IMU;AX;-36.0;AY;-19.0;AZ;250.0;GX;4.0;GY;0.0;GZ;0.0;MAGX;95.0;MAGY;-74.0;MAGZ;45.0
MOT;0;1150.0;1;1150.0;2;1150.0;3;1150.0;4;0.0;5;0.0;6;0.0;7;0.0;
RC;ROLL;1496.0;PITCH;1501.0;YAW;1508.0;THROTTLE;1061.0;AUX1;1534.0;AUX2;1500.0;AUX3;1500.0;AUX4;1500.0
ALTITUDE;70.0
DEBUG;DEBUG10.0;DEBUG2;0.0;DEBUG3;70.0;DEBUG4;0.0
ATTITUDE;ANGX;-17.0;ANGY;0.0;HEAD;-113.0
STATUS;CYCLETIME;2916;I2CERR;0;PRESENT;23;MODE;3
RAW_IMU;AX;-36.0;AY;-17.0;AZ;252.0;GX;5.0;GY;1.0;GZ;0.0;MAGX;94.0;MAGY;-75.0;MAGZ;47.0
MOT;0;1150.0;1;1150.0;2;1150.0;3;1150.0;4;0.0;5;0.0;6;0.0;7;0.0;
RC;ROLL;1496.0;PITCH;1501.0;YAW;1508.0;THROTTLE;1061.0;AUX1;1532.0;AUX2;1500.0;AUX3;1500.0;AUX4;1500.0
ALTITUDE;70.0
DEBUG;DEBUG10.0;DEBUG2;0.0;DEBUG3;70.0;DEBUG4;0.0
ATTITUDE;ANGX;-16.0;ANGY;0.0;HEAD;-113.0
STATUS;CYCLETIME;2888;I2CERR;0;PRESENT;23;MODE;3
RAW_IMU;AX;-36.0;AY;-17.0;AZ;251.0;GX;4.0;GY;2.0;GZ;0.0;MAGX;94.0;MAGY;-75.0;MAGZ;47.0
MOT;0;1150.0;1;1150.0;2;1150.0;3;1150.0;4;0.0;5;0.0;6;0.0;7;0.0;
RC;ROLL;1496.0;PITCH;1501.0;YAW;1483.0;THROTTLE;1061.0;AUX1;1532.0;AUX2;1500.0;AUX3;1500.0;AUX4;1500.0
ALTITUDE;70.0
DEBUG;DEBUG10.0;DEBUG2;0.0;DEBUG3;70.0;DEBUG4;0.0
ATTITUDE;ANGX;-15.0;ANGY;0.0;HEAD;-113.0
STATUS;CYCLETIME;2892;I2CERR;0;PRESENT;23;MODE;3
RAW_IMU;AX;-36.0;AY;-16.0;AZ;254.0;GX;1.0;GY;2.0;GZ;0.0;MAGX;95.0;MAGY;-76.0;MAGZ;51.0
MOT;0;1150.0;1;1150.0;2;1150.0;3;1150.0;4;0.0;5;0.0;6;0.0;7;0.0;
RC;ROLL;1496.0;PITCH;1501.0;YAW;1386.0;THROTTLE;1061.0;AUX1;1530.0;AUX2;1500.0;AUX3;1500.0;AUX4;1500.0
ALTITUDE;70.0
DEBUG;DEBUG10.0;DEBUG2;0.0;DEBUG3;70.0;DEBUG4;0.0
ATTITUDE;ANGX;-14.0;ANGY;0.0;HEAD;-113.0
STATUS;CYCLETIME;2916;I2CERR;0;PRESENT;23;MODE;3
RAW_IMU;AX;-34.0;AY;-19.0;AZ;254.0;GX;-2.0;GY;1.0;GZ;0.0;MAGX;95.0;MAGY;-76.0;MAGZ;51.0
MOT;0;1150.0;1;1150.0;2;1150.0;3;1150.0;4;0.0;5;0.0;6;0.0;7;0.0;
RC;ROLL;1496.0;PITCH;1501.0;YAW;1204.0;THROTTLE;1057.0;AUX1;1534.0;AUX2;1500.0;AUX3;1500.0;AUX4;1500.0
ALTITUDE;70.0
DEBUG;DEBUG10.0;DEBUG2;0.0;DEBUG3;70.0;DEBUG4;0.0
ATTITUDE;ANGX;-14.0;ANGY;0.0;HEAD;-113.0
STATUS;CYCLETIME;3184;I2CERR;0;PRESENT;23;MODE;3
RAW_IMU;AX;-38.0;AY;-16.0;AZ;253.0;GX;-8.0;GY;0.0;GZ;0.0;MAGX;95.0;MAGY;-75.0;MAGZ;52.0
MOT;0;1150.0;1;1150.0;2;1150.0;3;1150.0;4;0.0;5;0.0;6;0.0;7;0.0;
RC;ROLL;1496.0;PITCH;1501.0;YAW;1090.0;THROTTLE;1055.0;AUX1;1536.0;AUX2;1500.0;AUX3;1500.0;AUX4;1500.0
ALTITUDE;70.0
DEBUG;DEBUG10.0;DEBUG2;0.0;DEBUG3;70.0;DEBUG4;0.0
ATTITUDE;ANGX;-15.0;ANGY;0.0;HEAD;-113.0
STATUS;CYCLETIME;2880;I2CERR;0;PRESENT;23;MODE;3
RAW_IMU;AX;-34.0;AY;-16.0;AZ;252.0;GX;-13.0;GY;0.0;GZ;1.0;MAGX;95.0;MAGY;-75.0;MAGZ;52.0
MOT;0;1150.0;1;1150.0;2;1150.0;3;1150.0;4;0.0;5;0.0;6;0.0;7;0.0;
RC;ROLL;1496.0;PITCH;1501.0;YAW;1023.0;THROTTLE;1050.0;AUX1;1536.0;AUX2;1500.0;AUX3;1500.0;AUX4;1500.0
ALTITUDE;70.0
DEBUG;DEBUG10.0;DEBUG2;0.0;DEBUG3;70.0;DEBUG4;0.0
ATTITUDE;ANGX;-16.0;ANGY;0.0;HEAD;-113.0
STATUS;CYCLETIME;2892;I2CERR;0;PRESENT;23;MODE;3
RAW_IMU;AX;-34.0;AY;-17.0;AZ;250.0;GX;-16.0;GY;0.0;GZ;2.0;MAGX;95.0;MAGY;-75.0;MAGZ;52.0
MOT;0;1150.0;1;1150.0;2;1150.0;3;1150.0;4;0.0;5;0.0;6;0.0;7;0.0;
RC;ROLL;1496.0;PITCH;1501.0;YAW;1020.0;THROTTLE;1050.0;AUX1;1536.0;AUX2;1500.0;AUX3;1500.0;AUX4;1500.0
ALTITUDE;70.0
DEBUG;DEBUG10.0;DEBUG2;0.0;DEBUG3;70.0;DEBUG4;0.0
ATTITUDE;ANGX;-18.0;ANGY;0.0;HEAD;-113.0
STATUS;CYCLETIME;2868;I2CERR;0;PRESENT;23;MODE;3
RAW_IMU;AX;-36.0;AY;-19.0;AZ;250.0;GX;-17.0;GY;1.0;GZ;1.0;MAGX;94.0;MAGY;-75.0;MAGZ;46.0
MOT;0;1150.0;1;1150.0;2;1150.0;3;1150.0;4;0.0;5;0.0;6;0.0;7;0.0;
RC;ROLL;1496.0;PITCH;1501.0;YAW;1020.0;THROTTLE;1050.0;AUX1;1536.0;AUX2;1500.0;AUX3;1500.0;AUX4;1500.0
ALTITUDE;70.0
DEBUG;DEBUG10.0;DEBUG2;0.0;DEBUG3;70.0;DEBUG4;0.0
ATTITUDE;ANGX;-19.0;ANGY;0.0;HEAD;-113.0
STATUS;CYCLETIME;2928;I2CERR;0;PRESENT;23;MODE;3
RAW_IMU;AX;-39.0;AY;-18.0;AZ;249.0;GX;-15.0;GY;2.0;GZ;0.0;MAGX;94.0;MAGY;-75.0;MAGZ;46.0
MOT;0;1150.0;1;1150.0;2;1150.0;3;1150.0;4;0.0;5;0.0;6;0.0;7;0.0;
RC;ROLL;1496.0;PITCH;1501.0;YAW;1017.0;THROTTLE;1047.0;AUX1;1536.0;AUX2;1500.0;AUX3;1500.0;AUX4;1500.0
ALTITUDE;70.0
DEBUG;DEBUG10.0;DEBUG2;0.0;DEBUG3;70.0;DEBUG4;0.0
ATTITUDE;ANGX;-21.0;ANGY;0.0;HEAD;-113.0
STATUS;CYCLETIME;2876;I2CERR;0;PRESENT;23;MODE;3
RAW_IMU;AX;-44.0;AY;-17.0;AZ;252.0;GX;-10.0;GY;1.0;GZ;0.0;MAGX;96.0;MAGY;-77.0;MAGZ;36.0
MOT;0;1150.0;1;1150.0;2;1150.0;3;1150.0;4;0.0;5;0.0;6;0.0;7;0.0;
RC;ROLL;1496.0;PITCH;1501.0;YAW;1017.0;THROTTLE;1047.0;AUX1;1538.0;AUX2;1500.0;AUX3;1500.0;AUX4;1500.0
ALTITUDE;70.0
DEBUG;DEBUG10.0;DEBUG2;0.0;DEBUG3;70.0;DEBUG4;0.0
ATTITUDE;ANGX;-22.0;ANGY;0.0;HEAD;-113.0
STATUS;CYCLETIME;2880;I2CERR;0;PRESENT;23;MODE;3
RAW_IMU;AX;-46.0;AY;-16.0;AZ;251.0;GX;-2.0;GY;1.0;GZ;1.0;MAGX;96.0;MAGY;-77.0;MAGZ;36.0
MOT;0;1150.0;1;1150.0;2;1150.0;3;1150.0;4;0.0;5;0.0;6;0.0;7;0.0;
RC;ROLL;1496.0;PITCH;1501.0;YAW;1017.0;THROTTLE;1047.0;AUX1;1538.0;AUX2;1500.0;AUX3;1500.0;AUX4;1500.0
ALTITUDE;70.0
DEBUG;DEBUG10.0;DEBUG2;0.0;DEBUG3;70.0;DEBUG4;0.0
ATTITUDE;ANGX;-22.0;ANGY;0.0;HEAD;-113.0
STATUS;CYCLETIME;2992;I2CERR;0;PRESENT;23;MODE;3
RAW_IMU;AX;-45.0;AY;-17.0;AZ;253.0;GX;3.0;GY;1.0;GZ;0.0;MAGX;94.0;MAGY;-76.0;MAGZ;34.0
MOT;0;1150.0;1;1150.0;2;1150.0;3;1150.0;4;0.0;5;0.0;6;0.0;7;0.0;
RC;ROLL;1496.0;PITCH;1501.0;YAW;1017.0;THROTTLE;1045.0;AUX1;1538.0;AUX2;1500.0;AUX3;1500.0;AUX4;1500.0
ALTITUDE;70.0
DEBUG;DEBUG10.0;DEBUG2;0.0;DEBUG3;70.0;DEBUG4;0.0
ATTITUDE;ANGX;-22.0;ANGY;0.0;HEAD;-113.0
STATUS;CYCLETIME;2936;I2CERR;0;PRESENT;23;MODE;3
RAW_IMU;AX;-42.0;AY;-13.0;AZ;256.0;GX;8.0;GY;2.0;GZ;0.0;MAGX;94.0;MAGY;-76.0;MAGZ;34.0
MOT;0;1150.0;1;1150.0;2;1150.0;3;1150.0;4;0.0;5;0.0;6;0.0;7;0.0;
RC;ROLL;1496.0;PITCH;1501.0;YAW;1017.0;THROTTLE;1045.0;AUX1;1538.0;AUX2;1500.0;AUX3;1500.0;AUX4;1500.0
ALTITUDE;70.0
DEBUG;DEBUG10.0;DEBUG2;0.0;DEBUG3;70.0;DEBUG4;0.0
ATTITUDE;ANGX;-20.0;ANGY;0.0;HEAD;-114.0
STATUS;CYCLETIME;2848;I2CERR;0;PRESENT;23;MODE;2
RAW_IMU;AX;-40.0;AY;-13.0;AZ;265.0;GX;9.0;GY;2.0;GZ;0.0;MAGX;94.0;MAGY;-76.0;MAGZ;38.0
MOT;0;1000.0;1;1000.0;2;1000.0;3;1000.0;4;0.0;5;0.0;6;0.0;7;0.0;
RC;ROLL;1496.0;PITCH;1504.0;YAW;1017.0;THROTTLE;1045.0;AUX1;1538.0;AUX2;1500.0;AUX3;1500.0;AUX4;1500.0
ALTITUDE;70.0
DEBUG;DEBUG10.0;DEBUG2;0.0;DEBUG3;70.0;DEBUG4;0.0
ATTITUDE;ANGX;-19.0;ANGY;0.0;HEAD;-114.0
STATUS;CYCLETIME;2824;I2CERR;0;PRESENT;23;MODE;2
RAW_IMU;AX;-39.0;AY;-14.0;AZ;267.0;GX;6.0;GY;0.0;GZ;1.0;MAGX;94.0;MAGY;-76.0;MAGZ;38.0
MOT;0;1000.0;1;1000.0;2;1000.0;3;1000.0;4;0.0;5;0.0;6;0.0;7;0.0;
RC;ROLL;1496.0;PITCH;1506.0;YAW;1017.0;THROTTLE;1045.0;AUX1;1538.0;AUX2;1500.0;AUX3;1500.0;AUX4;1500.0
ALTITUDE;70.0
DEBUG;DEBUG10.0;DEBUG2;0.0;DEBUG3;70.0;DEBUG4;0.0
ATTITUDE;ANGX;-18.0;ANGY;0.0;HEAD;-114.0
STATUS;CYCLETIME;2888;I2CERR;0;PRESENT;23;MODE;2
RAW_IMU;AX;-34.0;AY;-17.0;AZ;264.0;GX;1.0;GY;-1.0;GZ;1.0;MAGX;94.0;MAGY;-75.0;MAGZ;44.0
MOT;0;1000.0;1;1000.0;2;1000.0;3;1000.0;4;0.0;5;0.0;6;0.0;7;0.0;
RC;ROLL;1496.0;PITCH;1506.0;YAW;1017.0;THROTTLE;1045.0;AUX1;1538.0;AUX2;1500.0;AUX3;1500.0;AUX4;1500.0
ALTITUDE;70.0
DEBUG;DEBUG10.0;DEBUG2;0.0;DEBUG3;70.0;DEBUG4;0.0
ATTITUDE;ANGX;-17.0;ANGY;0.0;HEAD;-114.0
STATUS;CYCLETIME;2888;I2CERR;0;PRESENT;23;MODE;2
RAW_IMU;AX;-33.0;AY;-17.0;AZ;255.0;GX;-5.0;GY;0.0;GZ;2.0;MAGX;94.0;MAGY;-75.0;MAGZ;44.0
MOT;0;1000.0;1;1000.0;2;1000.0;3;1000.0;4;0.0;5;0.0;6;0.0;7;0.0;
RC;ROLL;1496.0;PITCH;1504.0;YAW;1017.0;THROTTLE;1045.0;AUX1;1538.0;AUX2;1500.0;AUX3;1500.0;AUX4;1500.0
ALTITUDE;70.0
DEBUG;DEBUG10.0;DEBUG2;0.0;DEBUG3;70.0;DEBUG4;0.0
ATTITUDE;ANGX;-17.0;ANGY;0.0;HEAD;-114.0
STATUS;CYCLETIME;3196;I2CERR;0;PRESENT;23;MODE;2
RAW_IMU;AX;-33.0;AY;-18.0;AZ;250.0;GX;-9.0;GY;1.0;GZ;2.0;MAGX;95.0;MAGY;-75.0;MAGZ;44.0
MOT;0;1000.0;1;1000.0;2;1000.0;3;1000.0;4;0.0;5;0.0;6;0.0;7;0.0;
RC;ROLL;1496.0;PITCH;1504.0;YAW;1017.0;THROTTLE;1045.0;AUX1;1538.0;AUX2;1500.0;AUX3;1500.0;AUX4;1500.0
ALTITUDE;71.0
DEBUG;DEBUG10.0;DEBUG2;0.0;DEBUG3;71.0;DEBUG4;0.0
ATTITUDE;ANGX;-18.0;ANGY;0.0;HEAD;-114.0
STATUS;CYCLETIME;2876;I2CERR;0;PRESENT;23;MODE;2
RAW_IMU;AX;-35.0;AY;-19.0;AZ;249.0;GX;-10.0;GY;3.0;GZ;1.0;MAGX;95.0;MAGY;-75.0;MAGZ;44.0
MOT;0;1000.0;1;1000.0;2;1000.0;3;1000.0;4;0.0;5;0.0;6;0.0;7;0.0;
RC;ROLL;1496.0;PITCH;1504.0;YAW;1017.0;THROTTLE;1045.0;AUX1;1538.0;AUX2;1500.0;AUX3;1500.0;AUX4;1500.0
ALTITUDE;71.0
DEBUG;DEBUG10.0;DEBUG2;0.0;DEBUG3;71.0;DEBUG4;0.0
ATTITUDE;ANGX;-19.0;ANGY;0.0;HEAD;-113.0
STATUS;CYCLETIME;3004;I2CERR;0;PRESENT;23;MODE;2
RAW_IMU;AX;-43.0;AY;-18.0;AZ;252.0;GX;-7.0;GY;3.0;GZ;0.0;MAGX;95.0;MAGY;-75.0;MAGZ;44.0
MOT;0;1000.0;1;1000.0;2;1000.0;3;1000.0;4;0.0;5;0.0;6;0.0;7;0.0;
RC;ROLL;1496.0;PITCH;1504.0;YAW;1017.0;THROTTLE;1045.0;AUX1;1538.0;AUX2;1500.0;AUX3;1500.0;AUX4;1500.0
ALTITUDE;71.0
DEBUG;DEBUG10.0;DEBUG2;0.0;DEBUG3;71.0;DEBUG4;0.0
ATTITUDE;ANGX;-20.0;ANGY;0.0;HEAD;-113.0
STATUS;CYCLETIME;2800;I2CERR;0;PRESENT;23;MODE;2
RAW_IMU;AX;-46.0;AY;-18.0;AZ;253.0;GX;-2.0;GY;0.0;GZ;0.0;MAGX;93.0;MAGY;-76.0;MAGZ;39.0
MOT;0;1000.0;1;1000.0;2;1000.0;3;1000.0;4;0.0;5;0.0;6;0.0;7;0.0;
RC;ROLL;1496.0;PITCH;1504.0;YAW;1017.0;THROTTLE;1045.0;AUX1;1538.0;AUX2;1500.0;AUX3;1500.0;AUX4;1500.0
ALTITUDE;71.0
DEBUG;DEBUG10.0;DEBUG2;0.0;DEBUG3;71.0;DEBUG4;0.0
ATTITUDE;ANGX;-20.0;ANGY;0.0;HEAD;-114.0
STATUS;CYCLETIME;2876;I2CERR;0;PRESENT;23;MODE;2
RAW_IMU;AX;-45.0;AY;-18.0;AZ;254.0;GX;5.0;GY;0.0;GZ;0.0;MAGX;93.0;MAGY;-76.0;MAGZ;39.0
MOT;0;1000.0;1;1000.0;2;1000.0;3;1000.0;4;0.0;5;0.0;6;0.0;7;0.0;
RC;ROLL;1496.0;PITCH;1504.0;YAW;1017.0;THROTTLE;1045.0;AUX1;1538.0;AUX2;1500.0;AUX3;1500.0;AUX4;1500.0
ALTITUDE;71.0
DEBUG;DEBUG10.0;DEBUG2;0.0;DEBUG3;71.0;DEBUG4;0.0
ATTITUDE;ANGX;-19.0;ANGY;0.0;HEAD;-114.0
STATUS;CYCLETIME;3024;I2CERR;0;PRESENT;23;MODE;2
RAW_IMU;AX;-44.0;AY;-18.0;AZ;253.0;GX;10.0;GY;0.0;GZ;0.0;MAGX;93.0;MAGY;-76.0;MAGZ;38.0
MOT;0;1000.0;1;1000.0;2;1000.0;3;1000.0;4;0.0;5;0.0;6;0.0;7;0.0;
RC;ROLL;1496.0;PITCH;1504.0;YAW;1017.0;THROTTLE;1045.0;AUX1;1538.0;AUX2;1500.0;AUX3;1500.0;AUX4;1500.0
ALTITUDE;71.0
DEBUG;DEBUG10.0;DEBUG2;0.0;DEBUG3;71.0;DEBUG4;0.0
ATTITUDE;ANGX;-18.0;ANGY;0.0;HEAD;-114.0
STATUS;CYCLETIME;2928;I2CERR;0;PRESENT;23;MODE;2
RAW_IMU;AX;-42.0;AY;-19.0;AZ;250.0;GX;12.0;GY;1.0;GZ;0.0;MAGX;93.0;MAGY;-76.0;MAGZ;38.0
MOT;0;1000.0;1;1000.0;2;1000.0;3;1000.0;4;0.0;5;0.0;6;0.0;7;0.0;
RC;ROLL;1496.0;PITCH;1504.0;YAW;1025.0;THROTTLE;1047.0;AUX1;1538.0;AUX2;1500.0;AUX3;1500.0;AUX4;1500.0
ALTITUDE;71.0
DEBUG;DEBUG10.0;DEBUG2;0.0;DEBUG3;71.0;DEBUG4;0.0
ATTITUDE;ANGX;-16.0;ANGY;0.0;HEAD;-114.0
STATUS;CYCLETIME;2892;I2CERR;0;PRESENT;23;MODE;2
RAW_IMU;AX;-40.0;AY;-17.0;AZ;251.0;GX;11.0;GY;2.0;GZ;-1.0;MAGX;95.0;MAGY;-75.0;MAGZ;45.0
MOT;0;1000.0;1;1000.0;2;1000.0;3;1000.0;4;0.0;5;0.0;6;0.0;7;0.0;
RC;ROLL;1496.0;PITCH;1504.0;YAW;1090.0;THROTTLE;1054.0;AUX1;1538.0;AUX2;1500.0;AUX3;1500.0;AUX4;1500.0
ALTITUDE;71.0
DEBUG;DEBUG10.0;DEBUG2;0.0;DEBUG3;71.0;DEBUG4;0.0
ATTITUDE;ANGX;-15.0;ANGY;0.0;HEAD;-114.0
STATUS;CYCLETIME;2804;I2CERR;0;PRESENT;23;MODE;2
RAW_IMU;AX;-37.0;AY;-18.0;AZ;253.0;GX;6.0;GY;2.0;GZ;-1.0;MAGX;95.0;MAGY;-75.0;MAGZ;45.0
MOT;0;1000.0;1;1000.0;2;1000.0;3;1000.0;4;0.0;5;0.0;6;0.0;7;0.0;
RC;ROLL;1496.0;PITCH;1504.0;YAW;1447.0;THROTTLE;1057.0;AUX1;1532.0;AUX2;1500.0;AUX3;1500.0;AUX4;1500.0
ALTITUDE;71.0
DEBUG;DEBUG10.0;DEBUG2;0.0;DEBUG3;71.0;DEBUG4;0.0
ATTITUDE;ANGX;-14.0;ANGY;0.0;HEAD;-114.0
STATUS;CYCLETIME;2964;I2CERR;0;PRESENT;23;MODE;2
RAW_IMU;AX;-35.0;AY;-18.0;AZ;253.0;GX;0.0;GY;0.0;GZ;0.0;MAGX;94.0;MAGY;-76.0;MAGZ;54.0
MOT;0;1000.0;1;1000.0;2;1000.0;3;1000.0;4;0.0;5;0.0;6;0.0;7;0.0;
RC;ROLL;1496.0;PITCH;1502.0;YAW;1496.0;THROTTLE;1064.0;AUX1;1532.0;AUX2;1500.0;AUX3;1500.0;AUX4;1500.0
ALTITUDE;71.0
DEBUG;DEBUG10.0;DEBUG2;0.0;DEBUG3;71.0;DEBUG4;0.0
ATTITUDE;ANGX;-13.0;ANGY;0.0;HEAD;-114.0
STATUS;CYCLETIME;2840;I2CERR;0;PRESENT;23;MODE;2
RAW_IMU;AX;-36.0;AY;-15.0;AZ;255.0;GX;-7.0;GY;0.0;GZ;0.0;MAGX;94.0;MAGY;-76.0;MAGZ;54.0
MOT;0;1000.0;1;1000.0;2;1000.0;3;1000.0;4;0.0;5;0.0;6;0.0;7;0.0;
RC;ROLL;1496.0;PITCH;1502.0;YAW;1511.0;THROTTLE;1064.0;AUX1;1532.0;AUX2;1500.0;AUX3;1500.0;AUX4;1500.0
ALTITUDE;71.0
DEBUG;DEBUG10.0;DEBUG2;0.0;DEBUG3;71.0;DEBUG4;0.0
ATTITUDE;ANGX;-14.0;ANGY;0.0;HEAD;-114.0
STATUS;CYCLETIME;2896;I2CERR;0;PRESENT;23;MODE;2
RAW_IMU;AX;-34.0;AY;-16.0;AZ;254.0;GX;-14.0;GY;0.0;GZ;0.0;MAGX;94.0;MAGY;-75.0;MAGZ;54.0
MOT;0;1000.0;1;1000.0;2;1000.0;3;1000.0;4;0.0;5;0.0;6;0.0;7;0.0;
RC;ROLL;1496.0;PITCH;1502.0;YAW;1511.0;THROTTLE;1064.0;AUX1;1532.0;AUX2;1500.0;AUX3;1500.0;AUX4;1500.0
ALTITUDE;71.0
DEBUG;DEBUG10.0;DEBUG2;0.0;DEBUG3;71.0;DEBUG4;0.0
ATTITUDE;ANGX;-15.0;ANGY;0.0;HEAD;-114.0
STATUS;CYCLETIME;2932;I2CERR;0;PRESENT;23;MODE;2
RAW_IMU;AX;-36.0;AY;-16.0;AZ;252.0;GX;-17.0;GY;0.0;GZ;0.0;MAGX;94.0;MAGY;-75.0;MAGZ;54.0
MOT;0;1000.0;1;1000.0;2;1000.0;3;1000.0;4;0.0;5;0.0;6;0.0;7;0.0;
RC;ROLL;1496.0;PITCH;1502.0;YAW;1511.0;THROTTLE;1064.0;AUX1;1532.0;AUX2;1500.0;AUX3;1500.0;AUX4;1500.0
ALTITUDE;71.0
DEBUG;DEBUG10.0;DEBUG2;0.0;DEBUG3;71.0;DEBUG4;0.0
ATTITUDE;ANGX;-16.0;ANGY;0.0;HEAD;-114.0
STATUS;CYCLETIME;2988;I2CERR;0;PRESENT;23;MODE;2
RAW_IMU;AX;-38.0;AY;-15.0;AZ;253.0;GX;-17.0;GY;1.0;GZ;1.0;MAGX;95.0;MAGY;-75.0;MAGZ;45.0
MOT;0;1000.0;1;1000.0;2;1000.0;3;1000.0;4;0.0;5;0.0;6;0.0;7;0.0;
RC;ROLL;1496.0;PITCH;1502.0;YAW;1511.0;THROTTLE;1064.0;AUX1;1532.0;AUX2;1500.0;AUX3;1500.0;AUX4;1500.0
ALTITUDE;71.0
DEBUG;DEBUG10.0;DEBUG2;0.0;DEBUG3;71.0;DEBUG4;0.0
ATTITUDE;ANGX;-18.0;ANGY;0.0;HEAD;-114.0
STATUS;CYCLETIME;2884;I2CERR;0;PRESENT;23;MODE;2
RAW_IMU;AX;-44.0;AY;-15.0;AZ;255.0;GX;-14.0;GY;3.0;GZ;1.0;MAGX;95.0;MAGY;-75.0;MAGZ;45.0
MOT;0;1000.0;1;1000.0;2;1000.0;3;1000.0;4;0.0;5;0.0;6;0.0;7;0.0;
RC;ROLL;1496.0;PITCH;1502.0;YAW;1511.0;THROTTLE;1064.0;AUX1;1532.0;AUX2;1500.0;AUX3;1500.0;AUX4;1500.0
ALTITUDE;72.0
DEBUG;DEBUG10.0;DEBUG2;0.0;DEBUG3;72.0;DEBUG4;0.0
ATTITUDE;ANGX;-20.0;ANGY;0.0;HEAD;-114.0
STATUS;CYCLETIME;2876;I2CERR;0;PRESENT;23;MODE;2
RAW_IMU;AX;-44.0;AY;-14.0;AZ;255.0;GX;-9.0;GY;1.0;GZ;1.0;MAGX;93.0;MAGY;-75.0;MAGZ;37.0
MOT;0;1000.0;1;1000.0;2;1000.0;3;1000.0;4;0.0;5;0.0;6;0.0;7;0.0;
RC;ROLL;1496.0;PITCH;1502.0;YAW;1514.0;THROTTLE;1062.0;AUX1;1532.0;AUX2;1500.0;AUX3;1500.0;AUX4;1500.0
ALTITUDE;72.0
DEBUG;DEBUG10.0;DEBUG2;0.0;DEBUG3;72.0;DEBUG4;0.0
ATTITUDE;ANGX;-20.0;ANGY;0.0;HEAD;-114.0
STATUS;CYCLETIME;2992;I2CERR;0;PRESENT;23;MODE;2
RAW_IMU;AX;-42.0;AY;-14.0;AZ;257.0;GX;-4.0;GY;0.0;GZ;0.0;MAGX;93.0;MAGY;-75.0;MAGZ;37.0
MOT;0;1000.0;1;1000.0;2;1000.0;3;1000.0;4;0.0;5;0.0;6;0.0;7;0.0;
RC;ROLL;1496.0;PITCH;1502.0;YAW;1514.0;THROTTLE;1062.0;AUX1;1532.0;AUX2;1500.0;AUX3;1500.0;AUX4;1500.0
ALTITUDE;72.0
DEBUG;DEBUG10.0;DEBUG2;0.0;DEBUG3;72.0;DEBUG4;0.0
ATTITUDE;ANGX;-21.0;ANGY;0.0;HEAD;-114.0
STATUS;CYCLETIME;2900;I2CERR;0;PRESENT;23;MODE;2
RAW_IMU;AX;-43.0;AY;-17.0;AZ;258.0;GX;0.0;GY;-1.0;GZ;0.0;MAGX;93.0;MAGY;-75.0;MAGZ;37.0
MOT;0;1000.0;1;1000.0;2;1000.0;3;1000.0;4;0.0;5;0.0;6;0.0;7;0.0;
RC;ROLL;1496.0;PITCH;1502.0;YAW;1514.0;THROTTLE;1062.0;AUX1;1532.0;AUX2;1500.0;AUX3;1500.0;AUX4;1500.0
ALTITUDE;72.0
DEBUG;DEBUG10.0;DEBUG2;0.0;DEBUG3;72.0;DEBUG4;0.0
ATTITUDE;ANGX;-20.0;ANGY;0.0;HEAD;-114.0
STATUS;CYCLETIME;2896;I2CERR;0;PRESENT;23;MODE;2
RAW_IMU;AX;-41.0;AY;-18.0;AZ;251.0;GX;3.0;GY;0.0;GZ;0.0;MAGX;94.0;MAGY;-76.0;MAGZ;37.0
MOT;0;1000.0;1;1000.0;2;1000.0;3;1000.0;4;0.0;5;0.0;6;0.0;7;0.0;
RC;ROLL;1494.0;PITCH;1502.0;YAW;1514.0;THROTTLE;1062.0;AUX1;1532.0;AUX2;1500.0;AUX3;1500.0;AUX4;1500.0
ALTITUDE;72.0
DEBUG;DEBUG10.0;DEBUG2;0.0;DEBUG3;72.0;DEBUG4;0.0
ATTITUDE;ANGX;-20.0;ANGY;0.0;HEAD;-114.0
STATUS;CYCLETIME;2932;I2CERR;0;PRESENT;23;MODE;2
RAW_IMU;AX;-39.0;AY;-18.0;AZ;249.0;GX;3.0;GY;2.0;GZ;0.0;MAGX;94.0;MAGY;-76.0;MAGZ;37.0
MOT;0;1000.0;1;1000.0;2;1000.0;3;1000.0;4;0.0;5;0.0;6;0.0;7;0.0;
RC;ROLL;1494.0;PITCH;1502.0;YAW;1514.0;THROTTLE;1062.0;AUX1;1532.0;AUX2;1500.0;AUX3;1500.0;AUX4;1500.0
ALTITUDE;72.0
DEBUG;DEBUG10.0;DEBUG2;0.0;DEBUG3;72.0;DEBUG4;0.0
ATTITUDE;ANGX;-19.0;ANGY;0.0;HEAD;-114.0
STATUS;CYCLETIME;2892;I2CERR;0;PRESENT;23;MODE;2
RAW_IMU;AX;-37.0;AY;-16.0;AZ;252.0;GX;1.0;GY;3.0;GZ;0.0;MAGX;95.0;MAGY;-76.0;MAGZ;39.0
MOT;0;1000.0;1;1000.0;2;1000.0;3;1000.0;4;0.0;5;0.0;6;0.0;7;0.0;
RC;ROLL;1496.0;PITCH;1502.0;YAW;1514.0;THROTTLE;1062.0;AUX1;1532.0;AUX2;1500.0;AUX3;1500.0;AUX4;1500.0
ALTITUDE;72.0
DEBUG;DEBUG10.0;DEBUG2;0.0;DEBUG3;72.0;DEBUG4;0.0
ATTITUDE;ANGX;-19.0;ANGY;0.0;HEAD;-114.0
STATUS;CYCLETIME;2984;I2CERR;0;PRESENT;23;MODE;2
RAW_IMU;AX;-35.0;AY;-15.0;AZ;254.0;GX;-2.0;GY;1.0;GZ;0.0;MAGX;95.0;MAGY;-76.0;MAGZ;39.0
MOT;0;1000.0;1;1000.0;2;1000.0;3;1000.0;4;0.0;5;0.0;6;0.0;7;0.0;
RC;ROLL;1496.0;PITCH;1502.0;YAW;1514.0;THROTTLE;1065.0;AUX1;1532.0;AUX2;1500.0;AUX3;1500.0;AUX4;1500.0
ALTITUDE;72.0
DEBUG;DEBUG10.0;DEBUG2;0.0;DEBUG3;72.0;DEBUG4;0.0
ATTITUDE;ANGX;-19.0;ANGY;0.0;HEAD;-114.0
STATUS;CYCLETIME;2888;I2CERR;0;PRESENT;23;MODE;2
RAW_IMU;AX;-37.0;AY;-14.0;AZ;256.0;GX;-5.0;GY;1.0;GZ;0.0;MAGX;94.0;MAGY;-76.0;MAGZ;41.0
MOT;0;1000.0;1;1000.0;2;1000.0;3;1000.0;4;0.0;5;0.0;6;0.0;7;0.0;
RC;ROLL;1496.0;PITCH;1502.0;YAW;1510.0;THROTTLE;1065.0;AUX1;1532.0;AUX2;1500.0;AUX3;1500.0;AUX4;1500.0
ALTITUDE;72.0
DEBUG;DEBUG10.0;DEBUG2;0.0;DEBUG3;72.0;DEBUG4;0.0
ATTITUDE;ANGX;-19.0;ANGY;0.0;HEAD;-114.0
STATUS;CYCLETIME;2896;I2CERR;0;PRESENT;23;MODE;2
RAW_IMU;AX;-37.0;AY;-16.0;AZ;258.0;GX;-5.0;GY;0.0;GZ;1.0;MAGX;94.0;MAGY;-76.0;MAGZ;41.0
MOT;0;1000.0;1;1000.0;2;1000.0;3;1000.0;4;0.0;5;0.0;6;0.0;7;0.0;
RC;ROLL;1496.0;PITCH;1502.0;YAW;1510.0;THROTTLE;1063.0;AUX1;1532.0;AUX2;1500.0;AUX3;1500.0;AUX4;1500.0
ALTITUDE;72.0
DEBUG;DEBUG10.0;DEBUG2;0.0;DEBUG3;72.0;DEBUG4;0.0
ATTITUDE;ANGX;-19.0;ANGY;0.0;HEAD;-114.0
STATUS;CYCLETIME;2908;I2CERR;0;PRESENT;23;MODE;2
RAW_IMU;AX;-38.0;AY;-16.0;AZ;258.0;GX;-5.0;GY;1.0;GZ;1.0;MAGX;94.0;MAGY;-76.0;MAGZ;40.0
MOT;0;1000.0;1;1000.0;2;1000.0;3;1000.0;4;0.0;5;0.0;6;0.0;7;0.0;
RC;ROLL;1496.0;PITCH;1502.0;YAW;1510.0;THROTTLE;1063.0;AUX1;1532.0;AUX2;1500.0;AUX3;1500.0;AUX4;1500.0
ALTITUDE;72.0
DEBUG;DEBUG10.0;DEBUG2;0.0;DEBUG3;72.0;DEBUG4;0.0
ATTITUDE;ANGX;-19.0;ANGY;0.0;HEAD;-114.0
STATUS;CYCLETIME;2888;I2CERR;0;PRESENT;23;MODE;2
RAW_IMU;AX;-39.0;AY;-17.0;AZ;256.0;GX;-2.0;GY;1.0;GZ;0.0;MAGX;94.0;MAGY;-76.0;MAGZ;40.0
MOT;0;1000.0;1;1000.0;2;1000.0;3;1000.0;4;0.0;5;0.0;6;0.0;7;0.0;
RC;ROLL;1496.0;PITCH;1499.0;YAW;1510.0;THROTTLE;1063.0;AUX1;1532.0;AUX2;1500.0;AUX3;1500.0;AUX4;1500.0
ALTITUDE;72.0
DEBUG;DEBUG10.0;DEBUG2;0.0;DEBUG3;72.0;DEBUG4;0.0
ATTITUDE;ANGX;-19.0;ANGY;0.0;HEAD;-114.0
STATUS;CYCLETIME;2888;I2CERR;0;PRESENT;23;MODE;2
RAW_IMU;AX;-42.0;AY;-18.0;AZ;252.0;GX;0.0;GY;0.0;GZ;0.0;MAGX;94.0;MAGY;-75.0;MAGZ;40.0
MOT;0;1000.0;1;1000.0;2;1000.0;3;1000.0;4;0.0;5;0.0;6;0.0;7;0.0;
RC;ROLL;1496.0;PITCH;1499.0;YAW;1510.0;THROTTLE;1063.0;AUX1;1534.0;AUX2;1500.0;AUX3;1500.0;AUX4;1500.0
ALTITUDE;72.0
DEBUG;DEBUG10.0;DEBUG2;0.0;DEBUG3;72.0;DEBUG4;0.0
ATTITUDE;ANGX;-19.0;ANGY;0.0;HEAD;-114.0
STATUS;CYCLETIME;2872;I2CERR;0;PRESENT;23;MODE;2
RAW_IMU;AX;-43.0;AY;-17.0;AZ;248.0;GX;3.0;GY;0.0;GZ;1.0;MAGX;94.0;MAGY;-75.0;MAGZ;40.0
MOT;0;1000.0;1;1000.0;2;1000.0;3;1000.0;4;0.0;5;0.0;6;0.0;7;0.0;
RC;ROLL;1496.0;PITCH;1499.0;YAW;1510.0;THROTTLE;1063.0;AUX1;1534.0;AUX2;1500.0;AUX3;1500.0;AUX4;1500.0
ALTITUDE;72.0
DEBUG;DEBUG10.0;DEBUG2;0.0;DEBUG3;72.0;DEBUG4;0.0
ATTITUDE;ANGX;-19.0;ANGY;0.0;HEAD;-114.0
STATUS;CYCLETIME;2952;I2CERR;0;PRESENT;23;MODE;2
RAW_IMU;AX;-41.0;AY;-18.0;AZ;250.0;GX;6.0;GY;1.0;GZ;0.0;MAGX;95.0;MAGY;-76.0;MAGZ;43.0
MOT;0;1000.0;1;1000.0;2;1000.0;3;1000.0;4;0.0;5;0.0;6;0.0;7;0.0;
RC;ROLL;1496.0;PITCH;1499.0;YAW;1510.0;THROTTLE;1063.0;AUX1;1534.0;AUX2;1500.0;AUX3;1500.0;AUX4;1500.0
ALTITUDE;72.0
DEBUG;DEBUG10.0;DEBUG2;0.0;DEBUG3;72.0;DEBUG4;0.0
ATTITUDE;ANGX;-18.0;ANGY;0.0;HEAD;-114.0
STATUS;CYCLETIME;2988;I2CERR;0;PRESENT;23;MODE;2
RAW_IMU;AX;-40.0;AY;-15.0;AZ;252.0;GX;7.0;GY;2.0;GZ;-1.0;MAGX;95.0;MAGY;-76.0;MAGZ;43.0
MOT;0;1000.0;1;1000.0;2;1000.0;3;1000.0;4;0.0;5;0.0;6;0.0;7;0.0;
RC;ROLL;1496.0;PITCH;1501.0;YAW;1510.0;THROTTLE;1063.0;AUX1;1534.0;AUX2;1500.0;AUX3;1500.0;AUX4;1500.0
ALTITUDE;72.0
DEBUG;DEBUG10.0;DEBUG2;0.0;DEBUG3;72.0;DEBUG4;0.0
ATTITUDE;ANGX;-17.0;ANGY;0.0;HEAD;-114.0
STATUS;CYCLETIME;2808;I2CERR;0;PRESENT;23;MODE;2
RAW_IMU;AX;-38.0;AY;-13.0;AZ;257.0;GX;6.0;GY;2.0;GZ;-1.0;MAGX;95.0;MAGY;-76.0;MAGZ;43.0
MOT;0;1000.0;1;1000.0;2;1000.0;3;1000.0;4;0.0;5;0.0;6;0.0;7;0.0;
RC;ROLL;1496.0;PITCH;1501.0;YAW;1512.0;THROTTLE;1063.0;AUX1;1534.0;AUX2;1500.0;AUX3;1500.0;AUX4;1500.0
ALTITUDE;72.0
DEBUG;DEBUG10.0;DEBUG2;0.0;DEBUG3;72.0;DEBUG4;0.0
ATTITUDE;ANGX;-15.0;ANGY;0.0;HEAD;-115.0
STATUS;CYCLETIME;2804;I2CERR;0;PRESENT;23;MODE;2
RAW_IMU;AX;-37.0;AY;-13.0;AZ;261.0;GX;2.0;GY;0.0;GZ;0.0;MAGX;93.0;MAGY;-75.0;MAGZ;46.0
MOT;0;1000.0;1;1000.0;2;1000.0;3;1000.0;4;0.0;5;0.0;6;0.0;7;0.0;
RC;ROLL;1496.0;PITCH;1501.0;YAW;1512.0;THROTTLE;1063.0;AUX1;1534.0;AUX2;1500.0;AUX3;1500.0;AUX4;1500.0
ALTITUDE;72.0
DEBUG;DEBUG10.0;DEBUG2;0.0;DEBUG3;72.0;DEBUG4;0.0
ATTITUDE;ANGX;-15.0;ANGY;0.0;HEAD;-115.0
STATUS;CYCLETIME;2924;I2CERR;0;PRESENT;23;MODE;2
RAW_IMU;AX;-37.0;AY;-15.0;AZ;260.0;GX;-1.0;GY;0.0;GZ;1.0;MAGX;93.0;MAGY;-75.0;MAGZ;46.0
MOT;0;1000.0;1;1000.0;2;1000.0;3;1000.0;4;0.0;5;0.0;6;0.0;7;0.0;
RC;ROLL;1496.0;PITCH;1501.0;YAW;1512.0;THROTTLE;1063.0;AUX1;1534.0;AUX2;1500.0;AUX3;1500.0;AUX4;1500.0
ALTITUDE;72.0
DEBUG;DEBUG10.0;DEBUG2;0.0;DEBUG3;72.0;DEBUG4;0.0
ATTITUDE;ANGX;-15.0;ANGY;0.0;HEAD;-115.0
STATUS;CYCLETIME;2928;I2CERR;0;PRESENT;23;MODE;2
RAW_IMU;AX;-35.0;AY;-16.0;AZ;254.0;GX;-7.0;GY;-1.0;GZ;1.0;MAGX;94.0;MAGY;-75.0;MAGZ;50.0
MOT;0;1000.0;1;1000.0;2;1000.0;3;1000.0;4;0.0;5;0.0;6;0.0;7;0.0;
RC;ROLL;1496.0;PITCH;1501.0;YAW;1512.0;THROTTLE;1063.0;AUX1;1534.0;AUX2;1500.0;AUX3;1500.0;AUX4;1500.0
ALTITUDE;72.0
DEBUG;DEBUG10.0;DEBUG2;0.0;DEBUG3;72.0;DEBUG4;0.0
ATTITUDE;ANGX;-15.0;ANGY;0.0;HEAD;-114.0
STATUS;CYCLETIME;2888;I2CERR;0;PRESENT;23;MODE;2
RAW_IMU;AX;-36.0;AY;-16.0;AZ;251.0;GX;-12.0;GY;0.0;GZ;1.0;MAGX;94.0;MAGY;-75.0;MAGZ;50.0
MOT;0;1000.0;1;1000.0;2;1000.0;3;1000.0;4;0.0;5;0.0;6;0.0;7;0.0;
RC;ROLL;1496.0;PITCH;1501.0;YAW;1514.0;THROTTLE;1063.0;AUX1;1534.0;AUX2;1500.0;AUX3;1500.0;AUX4;1500.0
ALTITUDE;72.0
DEBUG;DEBUG10.0;DEBUG2;0.0;DEBUG3;72.0;DEBUG4;0.0
ATTITUDE;ANGX;-16.0;ANGY;0.0;HEAD;-114.0
STATUS;CYCLETIME;2884;I2CERR;0;PRESENT;23;MODE;2
RAW_IMU;AX;-34.0;AY;-19.0;AZ;246.0;GX;-16.0;GY;1.0;GZ;1.0;MAGX;94.0;MAGY;-76.0;MAGZ;45.0
MOT;0;1000.0;1;1000.0;2;1000.0;3;1000.0;4;0.0;5;0.0;6;0.0;7;0.0;
RC;ROLL;1496.0;PITCH;1501.0;YAW;1514.0;THROTTLE;1063.0;AUX1;1534.0;AUX2;1500.0;AUX3;1500.0;AUX4;1500.0
ALTITUDE;72.0
DEBUG;DEBUG10.0;DEBUG2;0.0;DEBUG3;72.0;DEBUG4;0.0
ATTITUDE;ANGX;-18.0;ANGY;0.0;HEAD;-114.0
STATUS;CYCLETIME;2868;I2CERR;0;PRESENT;23;MODE;2
RAW_IMU;AX;-35.0;AY;-16.0;AZ;248.0;GX;-16.0;GY;3.0;GZ;0.0;MAGX;94.0;MAGY;-76.0;MAGZ;45.0
MOT;0;1000.0;1;1000.0;2;1000.0;3;1000.0;4;0.0;5;0.0;6;0.0;7;0.0;
RC;ROLL;1496.0;PITCH;1501.0;YAW;1516.0;THROTTLE;1063.0;AUX1;1534.0;AUX2;1500.0;AUX3;1500.0;AUX4;1500.0
ALTITUDE;72.0
DEBUG;DEBUG10.0;DEBUG2;0.0;DEBUG3;72.0;DEBUG4;0.0
ATTITUDE;ANGX;-19.0;ANGY;0.0;HEAD;-114.0
STATUS;CYCLETIME;2936;I2CERR;0;PRESENT;23;MODE;2
RAW_IMU;AX;-38.0;AY;-16.0;AZ;251.0;GX;-13.0;GY;3.0;GZ;0.0;MAGX;94.0;MAGY;-75.0;MAGZ;40.0
MOT;0;1000.0;1;1000.0;2;1000.0;3;1000.0;4;0.0;5;0.0;6;0.0;7;0.0;
RC;ROLL;1496.0;PITCH;1501.0;YAW;1518.0;THROTTLE;1060.0;AUX1;1534.0;AUX2;1500.0;AUX3;1500.0;AUX4;1500.0
ALTITUDE;72.0
DEBUG;DEBUG10.0;DEBUG2;0.0;DEBUG3;72.0;DEBUG4;0.0
ATTITUDE;ANGX;-20.0;ANGY;0.0;HEAD;-114.0
STATUS;CYCLETIME;2844;I2CERR;0;PRESENT;23;MODE;2
RAW_IMU;AX;-44.0;AY;-15.0;AZ;258.0;GX;-7.0;GY;1.0;GZ;0.0;MAGX;94.0;MAGY;-75.0;MAGZ;40.0
MOT;0;1000.0;1;1000.0;2;1000.0;3;1000.0;4;0.0;5;0.0;6;0.0;7;0.0;
RC;ROLL;1496.0;PITCH;1501.0;YAW;1521.0;THROTTLE;1057.0;AUX1;1534.0;AUX2;1500.0;AUX3;1500.0;AUX4;1500.0
ALTITUDE;72.0
DEBUG;DEBUG10.0;DEBUG2;0.0;DEBUG3;72.0;DEBUG4;0.0
ATTITUDE;ANGX;-21.0;ANGY;0.0;HEAD;-114.0
STATUS;CYCLETIME;2820;I2CERR;0;PRESENT;23;MODE;2
RAW_IMU;AX;-45.0;AY;-15.0;AZ;259.0;GX;0.0;GY;-1.0;GZ;0.0;MAGX;93.0;MAGY;-76.0;MAGZ;36.0
MOT;0;1000.0;1;1000.0;2;1000.0;3;1000.0;4;0.0;5;0.0;6;0.0;7;0.0;
RC;ROLL;1496.0;PITCH;1499.0;YAW;1521.0;THROTTLE;1057.0;AUX1;1534.0;AUX2;1500.0;AUX3;1500.0;AUX4;1500.0
ALTITUDE;72.0
DEBUG;DEBUG10.0;DEBUG2;0.0;DEBUG3;72.0;DEBUG4;0.0
ATTITUDE;ANGX;-21.0;ANGY;0.0;HEAD;-114.0
STATUS;CYCLETIME;2888;I2CERR;0;PRESENT;23;MODE;2
RAW_IMU;AX;-43.0;AY;-15.0;AZ;256.0;GX;4.0;GY;-2.0;GZ;0.0;MAGX;93.0;MAGY;-76.0;MAGZ;36.0
MOT;0;1000.0;1;1000.0;2;1000.0;3;1000.0;4;0.0;5;0.0;6;0.0;7;0.0;
RC;ROLL;1494.0;PITCH;1499.0;YAW;1519.0;THROTTLE;1057.0;AUX1;1534.0;AUX2;1500.0;AUX3;1500.0;AUX4;1500.0
ALTITUDE;72.0
DEBUG;DEBUG10.0;DEBUG2;0.0;DEBUG3;72.0;DEBUG4;0.0
ATTITUDE;ANGX;-20.0;ANGY;0.0;HEAD;-115.0
STATUS;CYCLETIME;3180;I2CERR;0;PRESENT;23;MODE;2
RAW_IMU;AX;-41.0;AY;-17.0;AZ;252.0;GX;7.0;GY;0.0;GZ;0.0;MAGX;94.0;MAGY;-76.0;MAGZ;37.0
MOT;0;1000.0;1;1000.0;2;1000.0;3;1000.0;4;0.0;5;0.0;6;0.0;7;0.0;
RC;ROLL;1497.0;PITCH;1501.0;YAW;1519.0;THROTTLE;1057.0;AUX1;1532.0;AUX2;1500.0;AUX3;1500.0;AUX4;1500.0
ALTITUDE;72.0
DEBUG;DEBUG10.0;DEBUG2;0.0;DEBUG3;72.0;DEBUG4;0.0
ATTITUDE;ANGX;-19.0;ANGY;0.0;HEAD;-115.0
STATUS;CYCLETIME;3052;I2CERR;0;PRESENT;23;MODE;2
RAW_IMU;AX;-36.0;AY;-18.0;AZ;250.0;GX;6.0;GY;2.0;GZ;0.0;MAGX;94.0;MAGY;-76.0;MAGZ;37.0
MOT;0;1000.0;1;1000.0;2;1000.0;3;1000.0;4;0.0;5;0.0;6;0.0;7;0.0;
RC;ROLL;1497.0;PITCH;1501.0;YAW;1517.0;THROTTLE;1059.0;AUX1;1532.0;AUX2;1500.0;AUX3;1500.0;AUX4;1500.0
ALTITUDE;72.0
DEBUG;DEBUG10.0;DEBUG2;0.0;DEBUG3;72.0;DEBUG4;0.0
ATTITUDE;ANGX;-18.0;ANGY;0.0;HEAD;-115.0
STATUS;CYCLETIME;2940;I2CERR;0;PRESENT;23;MODE;2
RAW_IMU;AX;-35.0;AY;-19.0;AZ;252.0;GX;2.0;GY;3.0;GZ;0.0;MAGX;94.0;MAGY;-76.0;MAGZ;37.0
MOT;0;1000.0;1;1000.0;2;1000.0;3;1000.0;4;0.0;5;0.0;6;0.0;7;0.0;
RC;ROLL;1494.0;PITCH;1505.0;YAW;1517.0;THROTTLE;1056.0;AUX1;1532.0;AUX2;1500.0;AUX3;1500.0;AUX4;1500.0
ALTITUDE;72.0
DEBUG;DEBUG10.0;DEBUG2;0.0;DEBUG3;72.0;DEBUG4;0.0
ATTITUDE;ANGX;-17.0;ANGY;0.0;HEAD;-115.0
STATUS;CYCLETIME;2992;I2CERR;0;PRESENT;23;MODE;2
RAW_IMU;AX;-32.0;AY;-18.0;AZ;254.0;GX;-2.0;GY;2.0;GZ;0.0;MAGX;94.0;MAGY;-76.0;MAGZ;44.0
MOT;0;1000.0;1;1000.0;2;1000.0;3;1000.0;4;0.0;5;0.0;6;0.0;7;0.0;
RC;ROLL;1494.0;PITCH;1505.0;YAW;1517.0;THROTTLE;1056.0;AUX1;1532.0;AUX2;1500.0;AUX3;1500.0;AUX4;1500.0
ALTITUDE;72.0
DEBUG;DEBUG10.0;DEBUG2;0.0;DEBUG3;72.0;DEBUG4;0.0
ATTITUDE;ANGX;-17.0;ANGY;0.0;HEAD;-115.0
STATUS;CYCLETIME;2844;I2CERR;0;PRESENT;23;MODE;2
RAW_IMU;AX;-32.0;AY;-17.0;AZ;253.0;GX;-5.0;GY;1.0;GZ;0.0;MAGX;94.0;MAGY;-76.0;MAGZ;44.0
MOT;0;1000.0;1;1000.0;2;1000.0;3;1000.0;4;0.0;5;0.0;6;0.0;7;0.0;
RC;ROLL;1494.0;PITCH;1502.0;YAW;1517.0;THROTTLE;1061.0;AUX1;1532.0;AUX2;1500.0;AUX3;1500.0;AUX4;1500.0
ALTITUDE;72.0
DEBUG;DEBUG10.0;DEBUG2;0.0;DEBUG3;72.0;DEBUG4;0.0
ATTITUDE;ANGX;-17.0;ANGY;0.0;HEAD;-115.0
STATUS;CYCLETIME;2892;I2CERR;0;PRESENT;23;MODE;2
RAW_IMU;AX;-35.0;AY;-14.0;AZ;254.0;GX;-6.0;GY;0.0;GZ;0.0;MAGX;93.0;MAGY;-75.0;MAGZ;43.0
MOT;0;1000.0;1;1000.0;2;1000.0;3;1000.0;4;0.0;5;0.0;6;0.0;7;0.0;
RC;ROLL;1497.0;PITCH;1502.0;YAW;1517.0;THROTTLE;1059.0;AUX1;1536.0;AUX2;1500.0;AUX3;1500.0;AUX4;1500.0
ALTITUDE;72.0
DEBUG;DEBUG10.0;DEBUG2;0.0;DEBUG3;72.0;DEBUG4;0.0
ATTITUDE;ANGX;-18.0;ANGY;0.0;HEAD;-115.0
STATUS;CYCLETIME;2924;I2CERR;0;PRESENT;23;MODE;2
RAW_IMU;AX;-38.0;AY;-14.0;AZ;255.0;GX;-5.0;GY;0.0;GZ;1.0;MAGX;93.0;MAGY;-75.0;MAGZ;43.0
MOT;0;1000.0;1;1000.0;2;1000.0;3;1000.0;4;0.0;5;0.0;6;0.0;7;0.0;
RC;ROLL;1497.0;PITCH;1502.0;YAW;1520.0;THROTTLE;1059.0;AUX1;1532.0;AUX2;1500.0;AUX3;1500.0;AUX4;1500.0
ALTITUDE;72.0
DEBUG;DEBUG10.0;DEBUG2;0.0;DEBUG3;72.0;DEBUG4;0.0
ATTITUDE;ANGX;-18.0;ANGY;0.0;HEAD;-115.0
STATUS;CYCLETIME;2888;I2CERR;0;PRESENT;23;MODE;2
RAW_IMU;AX;-40.0;AY;-17.0;AZ;257.0;GX;-2.0;GY;0.0;GZ;1.0;MAGX;94.0;MAGY;-76.0;MAGZ;42.0
MOT;0;1000.0;1;1000.0;2;1000.0;3;1000.0;4;0.0;5;0.0;6;0.0;7;0.0;
RC;ROLL;1497.0;PITCH;1499.0;YAW;1516.0;THROTTLE;1064.0;AUX1;1532.0;AUX2;1500.0;AUX3;1500.0;AUX4;1500.0
ALTITUDE;72.0
DEBUG;DEBUG10.0;DEBUG2;0.0;DEBUG3;72.0;DEBUG4;0.0
ATTITUDE;ANGX;-18.0;ANGY;0.0;HEAD;-115.0
STATUS;CYCLETIME;2892;I2CERR;0;PRESENT;23;MODE;2
RAW_IMU;AX;-42.0;AY;-17.0;AZ;257.0;GX;0.0;GY;1.0;GZ;1.0;MAGX;94.0;MAGY;-76.0;MAGZ;42.0
MOT;0;1000.0;1;1000.0;2;1000.0;3;1000.0;4;0.0;5;0.0;6;0.0;7;0.0;
RC;ROLL;1501.0;PITCH;1494.0;YAW;1516.0;THROTTLE;1062.0;AUX1;1532.0;AUX2;1500.0;AUX3;1500.0;AUX4;1500.0
ALTITUDE;72.0
DEBUG;DEBUG10.0;DEBUG2;0.0;DEBUG3;72.0;DEBUG4;0.0
ATTITUDE;ANGX;-18.0;ANGY;0.0;HEAD;-115.0
STATUS;CYCLETIME;2880;I2CERR;0;PRESENT;23;MODE;2
RAW_IMU;AX;-44.0;AY;-17.0;AZ;255.0;GX;2.0;GY;1.0;GZ;0.0;MAGX;95.0;MAGY;-76.0;MAGZ;42.0
MOT;0;1000.0;1;1000.0;2;1000.0;3;1000.0;4;0.0;5;0.0;6;0.0;7;0.0;
RC;ROLL;1499.0;PITCH;1494.0;YAW;1524.0;THROTTLE;1054.0;AUX1;1532.0;AUX2;1500.0;AUX3;1500.0;AUX4;1500.0
ALTITUDE;72.0
DEBUG;DEBUG10.0;DEBUG2;0.0;DEBUG3;72.0;DEBUG4;0.0
ATTITUDE;ANGX;-18.0;ANGY;0.0;HEAD;-115.0
STATUS;CYCLETIME;2932;I2CERR;0;PRESENT;23;MODE;2
RAW_IMU;AX;-41.0;AY;-18.0;AZ;255.0;GX;3.0;GY;1.0;GZ;0.0;MAGX;95.0;MAGY;-76.0;MAGZ;42.0
MOT;0;1000.0;1;1000.0;2;1000.0;3;1000.0;4;0.0;5;0.0;6;0.0;7;0.0;
RC;ROLL;1501.0;PITCH;1503.0;YAW;1526.0;THROTTLE;1054.0;AUX1;1532.0;AUX2;1500.0;AUX3;1500.0;AUX4;1500.0
ALTITUDE;72.0
DEBUG;DEBUG10.0;DEBUG2;0.0;DEBUG3;72.0;DEBUG4;0.0
ATTITUDE;ANGX;-17.0;ANGY;0.0;HEAD;-115.0
STATUS;CYCLETIME;2920;I2CERR;0;PRESENT;23;MODE;2
RAW_IMU;AX;-38.0;AY;-18.0;AZ;255.0;GX;3.0;GY;1.0;GZ;0.0;MAGX;94.0;MAGY;-76.0;MAGZ;44.0
MOT;0;1000.0;1;1000.0;2;1000.0;3;1000.0;4;0.0;5;0.0;6;0.0;7;0.0;
RC;ROLL;1499.0;PITCH;1503.0;YAW;1524.0;THROTTLE;1056.0;AUX1;1532.0;AUX2;1500.0;AUX3;1500.0;AUX4;1500.0
ALTITUDE;72.0
DEBUG;DEBUG10.0;DEBUG2;0.0;DEBUG3;72.0;DEBUG4;0.0
ATTITUDE;ANGX;-16.0;ANGY;0.0;HEAD;-114.0
STATUS;CYCLETIME;2888;I2CERR;0;PRESENT;23;MODE;2
RAW_IMU;AX;-37.0;AY;-16.0;AZ;254.0;GX;0.0;GY;1.0;GZ;0.0;MAGX;94.0;MAGY;-76.0;MAGZ;44.0
MOT;0;1000.0;1;1000.0;2;1000.0;3;1000.0;4;0.0;5;0.0;6;0.0;7;0.0;
RC;ROLL;1495.0;PITCH;1499.0;YAW;1518.0;THROTTLE;1056.0;AUX1;1530.0;AUX2;1500.0;AUX3;1500.0;AUX4;1500.0
ALTITUDE;72.0
DEBUG;DEBUG10.0;DEBUG2;0.0;DEBUG3;72.0;DEBUG4;0.0
ATTITUDE;ANGX;-16.0;ANGY;0.0;HEAD;-114.0
STATUS;CYCLETIME;2972;I2CERR;0;PRESENT;23;MODE;2
RAW_IMU;AX;-36.0;AY;-16.0;AZ;251.0;GX;-1.0;GY;0.0;GZ;0.0;MAGX;94.0;MAGY;-76.0;MAGZ;47.0
MOT;0;1000.0;1;1000.0;2;1000.0;3;1000.0;4;0.0;5;0.0;6;0.0;7;0.0;
RC;ROLL;1495.0;PITCH;1499.0;YAW;1514.0;THROTTLE;1058.0;AUX1;1533.0;AUX2;1500.0;AUX3;1500.0;AUX4;1500.0
ALTITUDE;72.0
DEBUG;DEBUG10.0;DEBUG2;0.0;DEBUG3;72.0;DEBUG4;0.0
ATTITUDE;ANGX;-16.0;ANGY;0.0;HEAD;-114.0
STATUS;CYCLETIME;2888;I2CERR;0;PRESENT;23;MODE;2
RAW_IMU;AX;-35.0;AY;-17.0;AZ;246.0;GX;-5.0;GY;-2.0;GZ;0.0;MAGX;94.0;MAGY;-76.0;MAGZ;47.0
MOT;0;1000.0;1;1000.0;2;1000.0;3;1000.0;4;0.0;5;0.0;6;0.0;7;0.0;
RC;ROLL;1492.0;PITCH;1499.0;YAW;1516.0;THROTTLE;1058.0;AUX1;1533.0;AUX2;1500.0;AUX3;1500.0;AUX4;1500.0
ALTITUDE;72.0
DEBUG;DEBUG10.0;DEBUG2;0.0;DEBUG3;72.0;DEBUG4;0.0
ATTITUDE;ANGX;-16.0;ANGY;0.0;HEAD;-115.0
STATUS;CYCLETIME;2920;I2CERR;0;PRESENT;23;MODE;2
RAW_IMU;AX;-35.0;AY;-17.0;AZ;245.0;GX;-7.0;GY;0.0;GZ;1.0;MAGX;94.0;MAGY;-76.0;MAGZ;47.0
MOT;0;1000.0;1;1000.0;2;1000.0;3;1000.0;4;0.0;5;0.0;6;0.0;7;0.0;
RC;ROLL;1492.0;PITCH;1499.0;YAW;1518.0;THROTTLE;1058.0;AUX1;1529.0;AUX2;1500.0;AUX3;1500.0;AUX4;1500.0
ALTITUDE;72.0
DEBUG;DEBUG10.0;DEBUG2;0.0;DEBUG3;72.0;DEBUG4;0.0
ATTITUDE;ANGX;-17.0;ANGY;0.0;HEAD;-115.0
STATUS;CYCLETIME;2928;I2CERR;0;PRESENT;23;MODE;2
RAW_IMU;AX;-35.0;AY;-19.0;AZ;246.0;GX;-9.0;GY;2.0;GZ;1.0;MAGX;95.0;MAGY;-76.0;MAGZ;45.0
MOT;0;1000.0;1;1000.0;2;1000.0;3;1000.0;4;0.0;5;0.0;6;0.0;7;0.0;
RC;ROLL;1492.0;PITCH;1499.0;YAW;1518.0;THROTTLE;1058.0;AUX1;1529.0;AUX2;1500.0;AUX3;1500.0;AUX4;1500.0
ALTITUDE;72.0
DEBUG;DEBUG10.0;DEBUG2;0.0;DEBUG3;72.0;DEBUG4;0.0
ATTITUDE;ANGX;-17.0;ANGY;0.0;HEAD;-114.0
STATUS;CYCLETIME;2876;I2CERR;0;PRESENT;23;MODE;2
RAW_IMU;AX;-39.0;AY;-19.0;AZ;250.0;GX;-9.0;GY;5.0;GZ;0.0;MAGX;95.0;MAGY;-76.0;MAGZ;45.0
MOT;0;1000.0;1;1000.0;2;1000.0;3;1000.0;4;0.0;5;0.0;6;0.0;7;0.0;
RC;ROLL;1492.0;PITCH;1506.0;YAW;1523.0;THROTTLE;1052.0;AUX1;1527.0;AUX2;1500.0;AUX3;1500.0;AUX4;1500.0
ALTITUDE;72.0
DEBUG;DEBUG10.0;DEBUG2;0.0;DEBUG3;72.0;DEBUG4;0.0
ATTITUDE;ANGX;-18.0;ANGY;0.0;HEAD;-114.0
STATUS;CYCLETIME;3004;I2CERR;0;PRESENT;23;MODE;2
RAW_IMU;AX;-41.0;AY;-16.0;AZ;258.0;GX;-8.0;GY;4.0;GZ;0.0;MAGX;94.0;MAGY;-76.0;MAGZ;40.0
MOT;0;1000.0;1;1000.0;2;1000.0;3;1000.0;4;0.0;5;0.0;6;0.0;7;0.0;
RC;ROLL;1495.0;PITCH;1506.0;YAW;1518.0;THROTTLE;1053.0;AUX1;1530.0;AUX2;1500.0;AUX3;1500.0;AUX4;1500.0
ALTITUDE;72.0
DEBUG;DEBUG10.0;DEBUG2;0.0;DEBUG3;72.0;DEBUG4;0.0
ATTITUDE;ANGX;-19.0;ANGY;0.0;HEAD;-114.0
STATUS;CYCLETIME;2812;I2CERR;0;PRESENT;23;MODE;2
RAW_IMU;AX;-41.0;AY;-16.0;AZ;263.0;GX;-5.0;GY;1.0;GZ;1.0;MAGX;94.0;MAGY;-76.0;MAGZ;40.0
MOT;0;1000.0;1;1000.0;2;1000.0;3;1000.0;4;0.0;5;0.0;6;0.0;7;0.0;
RC;ROLL;1495.0;PITCH;1503.0;YAW;1515.0;THROTTLE;1059.0;AUX1;1530.0;AUX2;1500.0;AUX3;1500.0;AUX4;1500.0
ALTITUDE;72.0
DEBUG;DEBUG10.0;DEBUG2;0.0;DEBUG3;72.0;DEBUG4;0.0
ATTITUDE;ANGX;-19.0;ANGY;0.0;HEAD;-114.0
STATUS;CYCLETIME;2960;I2CERR;0;PRESENT;23;MODE;2
RAW_IMU;AX;-42.0;AY;-12.0;AZ;263.0;GX;-2.0;GY;-2.0;GZ;1.0;MAGX;94.0;MAGY;-76.0;MAGZ;39.0
MOT;0;1000.0;1;1000.0;2;1000.0;3;1000.0;4;0.0;5;0.0;6;0.0;7;0.0;
RC;ROLL;1495.0;PITCH;1499.0;YAW;1517.0;THROTTLE;1062.0;AUX1;1530.0;AUX2;1500.0;AUX3;1500.0;AUX4;1500.0
ALTITUDE;72.0
DEBUG;DEBUG10.0;DEBUG2;0.0;DEBUG3;72.0;DEBUG4;0.0
ATTITUDE;ANGX;-20.0;ANGY;0.0;HEAD;-114.0
STATUS;CYCLETIME;2936;I2CERR;0;PRESENT;23;MODE;2
RAW_IMU;AX;-41.0;AY;-16.0;AZ;255.0;GX;0.0;GY;-3.0;GZ;1.0;MAGX;94.0;MAGY;-76.0;MAGZ;39.0
MOT;0;1000.0;1;1000.0;2;1000.0;3;1000.0;4;0.0;5;0.0;6;0.0;7;0.0;
RC;ROLL;1495.0;PITCH;1502.0;YAW;1516.0;THROTTLE;1060.0;AUX1;1535.0;AUX2;1500.0;AUX3;1500.0;AUX4;1500.0
ALTITUDE;72.0
DEBUG;DEBUG10.0;DEBUG2;0.0;DEBUG3;72.0;DEBUG4;0.0
ATTITUDE;ANGX;-19.0;ANGY;0.0;HEAD;-114.0
STATUS;CYCLETIME;2892;I2CERR;0;PRESENT;23;MODE;2
RAW_IMU;AX;-39.0;AY;-18.0;AZ;248.0;GX;0.0;GY;-1.0;GZ;1.0;MAGX;95.0;MAGY;-75.0;MAGZ;40.0
MOT;0;1000.0;1;1000.0;2;1000.0;3;1000.0;4;0.0;5;0.0;6;0.0;7;0.0;
RC;ROLL;1495.0;PITCH;1502.0;YAW;1512.0;THROTTLE;1057.0;AUX1;1535.0;AUX2;1500.0;AUX3;1500.0;AUX4;1500.0
ALTITUDE;72.0
DEBUG;DEBUG10.0;DEBUG2;0.0;DEBUG3;72.0;DEBUG4;0.0
ATTITUDE;ANGX;-19.0;ANGY;-1.0;HEAD;-114.0
STATUS;CYCLETIME;2888;I2CERR;0;PRESENT;23;MODE;2
RAW_IMU;AX;-38.0;AY;-18.0;AZ;247.0;GX;0.0;GY;0.0;GZ;1.0;MAGX;95.0;MAGY;-75.0;MAGZ;40.0
MOT;0;1000.0;1;1000.0;2;1000.0;3;1000.0;4;0.0;5;0.0;6;0.0;7;0.0;
RC;ROLL;1495.0;PITCH;1505.0;YAW;1516.0;THROTTLE;1055.0;AUX1;1532.0;AUX2;1500.0;AUX3;1500.0;AUX4;1500.0
ALTITUDE;72.0
DEBUG;DEBUG10.0;DEBUG2;0.0;DEBUG3;72.0;DEBUG4;0.0
ATTITUDE;ANGX;-19.0;ANGY;-1.0;HEAD;-114.0
STATUS;CYCLETIME;2892;I2CERR;0;PRESENT;23;MODE;2
RAW_IMU;AX;-37.0;AY;-19.0;AZ;246.0;GX;-2.0;GY;3.0;GZ;0.0;MAGX;96.0;MAGY;-75.0;MAGZ;41.0
MOT;0;1000.0;1;1000.0;2;1000.0;3;1000.0;4;0.0;5;0.0;6;0.0;7;0.0;
RC;ROLL;1495.0;PITCH;1499.0;YAW;1518.0;THROTTLE;1061.0;AUX1;1532.0;AUX2;1500.0;AUX3;1500.0;AUX4;1500.0
ALTITUDE;72.0
DEBUG;DEBUG10.0;DEBUG2;0.0;DEBUG3;72.0;DEBUG4;0.0
ATTITUDE;ANGX;-19.0;ANGY;0.0;HEAD;-114.0
STATUS;CYCLETIME;2940;I2CERR;0;PRESENT;23;MODE;2
RAW_IMU;AX;-37.0;AY;-20.0;AZ;249.0;GX;-3.0;GY;4.0;GZ;0.0;MAGX;96.0;MAGY;-75.0;MAGZ;41.0
MOT;0;1000.0;1;1000.0;2;1000.0;3;1000.0;4;0.0;5;0.0;6;0.0;7;0.0;
RC;ROLL;1495.0;PITCH;1497.0;YAW;1518.0;THROTTLE;1061.0;AUX1;1532.0;AUX2;1500.0;AUX3;1500.0;AUX4;1500.0
ALTITUDE;72.0
DEBUG;DEBUG10.0;DEBUG2;0.0;DEBUG3;72.0;DEBUG4;0.0
ATTITUDE;ANGX;-19.0;ANGY;0.0;HEAD;-114.0
STATUS;CYCLETIME;2996;I2CERR;0;PRESENT;23;MODE;2
RAW_IMU;AX;-37.0;AY;-18.0;AZ;255.0;GX;-4.0;GY;4.0;GZ;0.0;MAGX;94.0;MAGY;-75.0;MAGZ;41.0
MOT;0;1000.0;1;1000.0;2;1000.0;3;1000.0;4;0.0;5;0.0;6;0.0;7;0.0;
RC;ROLL;1497.0;PITCH;1497.0;YAW;1518.0;THROTTLE;1061.0;AUX1;1532.0;AUX2;1500.0;AUX3;1500.0;AUX4;1500.0
ALTITUDE;72.0
DEBUG;DEBUG10.0;DEBUG2;0.0;DEBUG3;72.0;DEBUG4;0.0
ATTITUDE;ANGX;-19.0;ANGY;0.0;HEAD;-114.0
STATUS;CYCLETIME;2888;I2CERR;0;PRESENT;23;MODE;2
RAW_IMU;AX;-40.0;AY;-17.0;AZ;259.0;GX;-3.0;GY;1.0;GZ;0.0;MAGX;94.0;MAGY;-75.0;MAGZ;41.0
MOT;0;1000.0;1;1000.0;2;1000.0;3;1000.0;4;0.0;5;0.0;6;0.0;7;0.0;
RC;ROLL;1497.0;PITCH;1497.0;YAW;1520.0;THROTTLE;1061.0;AUX1;1532.0;AUX2;1500.0;AUX3;1500.0;AUX4;1500.0
ALTITUDE;72.0
DEBUG;DEBUG10.0;DEBUG2;0.0;DEBUG3;72.0;DEBUG4;0.0
ATTITUDE;ANGX;-19.0;ANGY;0.0;HEAD;-114.0
STATUS;CYCLETIME;2900;I2CERR;0;PRESENT;23;MODE;2
RAW_IMU;AX;-41.0;AY;-15.0;AZ;257.0;GX;0.0;GY;-1.0;GZ;0.0;MAGX;94.0;MAGY;-75.0;MAGZ;41.0
MOT;0;1000.0;1;1000.0;2;1000.0;3;1000.0;4;0.0;5;0.0;6;0.0;7;0.0;
RC;ROLL;1495.0;PITCH;1497.0;YAW;1520.0;THROTTLE;1061.0;AUX1;1530.0;AUX2;1500.0;AUX3;1500.0;AUX4;1500.0
ALTITUDE;72.0
DEBUG;DEBUG10.0;DEBUG2;0.0;DEBUG3;72.0;DEBUG4;0.0
ATTITUDE;ANGX;-19.0;ANGY;0.0;HEAD;-114.0
STATUS;CYCLETIME;3028;I2CERR;0;PRESENT;23;MODE;2
RAW_IMU;AX;-41.0;AY;-14.0;AZ;257.0;GX;2.0;GY;0.0;GZ;1.0;MAGX;94.0;MAGY;-76.0;MAGZ;41.0
MOT;0;1000.0;1;1000.0;2;1000.0;3;1000.0;4;0.0;5;0.0;6;0.0;7;0.0;
RC;ROLL;1495.0;PITCH;1499.0;YAW;1520.0;THROTTLE;1058.0;AUX1;1530.0;AUX2;1500.0;AUX3;1500.0;AUX4;1500.0
ALTITUDE;72.0
DEBUG;DEBUG10.0;DEBUG2;0.0;DEBUG3;72.0;DEBUG4;0.0
ATTITUDE;ANGX;-18.0;ANGY;0.0;HEAD;-114.0
STATUS;CYCLETIME;2904;I2CERR;0;PRESENT;23;MODE;2
RAW_IMU;AX;-39.0;AY;-14.0;AZ;255.0;GX;4.0;GY;0.0;GZ;1.0;MAGX;94.0;MAGY;-76.0;MAGZ;41.0
MOT;0;1000.0;1;1000.0;2;1000.0;3;1000.0;4;0.0;5;0.0;6;0.0;7;0.0;
RC;ROLL;1495.0;PITCH;1499.0;YAW;1520.0;THROTTLE;1056.0;AUX1;1534.0;AUX2;1500.0;AUX3;1500.0;AUX4;1500.0
ALTITUDE;72.0
DEBUG;DEBUG10.0;DEBUG2;0.0;DEBUG3;72.0;DEBUG4;0.0
ATTITUDE;ANGX;-18.0;ANGY;0.0;HEAD;-114.0
STATUS;CYCLETIME;2908;I2CERR;0;PRESENT;23;MODE;2
RAW_IMU;AX;-38.0;AY;-16.0;AZ;250.0;GX;4.0;GY;1.0;GZ;0.0;MAGX;94.0;MAGY;-76.0;MAGZ;44.0
MOT;0;1000.0;1;1000.0;2;1000.0;3;1000.0;4;0.0;5;0.0;6;0.0;7;0.0;
RC;ROLL;1495.0;PITCH;1501.0;YAW;1518.0;THROTTLE;1056.0;AUX1;1534.0;AUX2;1500.0;AUX3;1500.0;AUX4;1500.0
ALTITUDE;72.0
DEBUG;DEBUG10.0;DEBUG2;0.0;DEBUG3;72.0;DEBUG4;0.0
ATTITUDE;ANGX;-17.0;ANGY;0.0;HEAD;-114.0
STATUS;CYCLETIME;2884;I2CERR;0;PRESENT;23;MODE;2
RAW_IMU;AX;-38.0;AY;-18.0;AZ;249.0;GX;4.0;GY;2.0;GZ;0.0;MAGX;94.0;MAGY;-76.0;MAGZ;44.0
MOT;0;1000.0;1;1000.0;2;1000.0;3;1000.0;4;0.0;5;0.0;6;0.0;7;0.0;
RC;ROLL;1495.0;PITCH;1501.0;YAW;1518.0;THROTTLE;1059.0;AUX1;1532.0;AUX2;1500.0;AUX3;1500.0;AUX4;1500.0
ALTITUDE;72.0
DEBUG;DEBUG10.0;DEBUG2;0.0;DEBUG3;72.0;DEBUG4;0.0
ATTITUDE;ANGX;-16.0;ANGY;0.0;HEAD;-114.0
STATUS;CYCLETIME;2892;I2CERR;0;PRESENT;23;MODE;2
RAW_IMU;AX;-36.0;AY;-16.0;AZ;251.0;GX;1.0;GY;3.0;GZ;0.0;MAGX;94.0;MAGY;-75.0;MAGZ;46.0
MOT;0;1000.0;1;1000.0;2;1000.0;3;1000.0;4;0.0;5;0.0;6;0.0;7;0.0;
RC;ROLL;1495.0;PITCH;1498.0;YAW;1518.0;THROTTLE;1061.0;AUX1;1532.0;AUX2;1500.0;AUX3;1500.0;AUX4;1500.0
ALTITUDE;72.0
DEBUG;DEBUG10.0;DEBUG2;0.0;DEBUG3;72.0;DEBUG4;0.0
ATTITUDE;ANGX;-16.0;ANGY;0.0;HEAD;-114.0
STATUS;CYCLETIME;2996;I2CERR;0;PRESENT;23;MODE;2
RAW_IMU;AX;-33.0;AY;-19.0;AZ;252.0;GX;-1.0;GY;2.0;GZ;0.0;MAGX;94.0;MAGY;-75.0;MAGZ;46.0
MOT;0;1000.0;1;1000.0;2;1000.0;3;1000.0;4;0.0;5;0.0;6;0.0;7;0.0;
RC;ROLL;1495.0;PITCH;1502.0;YAW;1518.0;THROTTLE;1059.0;AUX1;1532.0;AUX2;1500.0;AUX3;1500.0;AUX4;1500.0
ALTITUDE;72.0
DEBUG;DEBUG10.0;DEBUG2;0.0;DEBUG3;72.0;DEBUG4;0.0
ATTITUDE;ANGX;-15.0;ANGY;0.0;HEAD;-114.0
STATUS;CYCLETIME;2884;I2CERR;0;PRESENT;23;MODE;2
RAW_IMU;AX;-31.0;AY;-18.0;AZ;254.0;GX;-5.0;GY;1.0;GZ;1.0;MAGX;94.0;MAGY;-75.0;MAGZ;49.0
MOT;0;1000.0;1;1000.0;2;1000.0;3;1000.0;4;0.0;5;0.0;6;0.0;7;0.0;
RC;ROLL;1492.0;PITCH;1503.0;YAW;1522.0;THROTTLE;1055.0;AUX1;1532.0;AUX2;1500.0;AUX3;1500.0;AUX4;1500.0
ALTITUDE;72.0
DEBUG;DEBUG10.0;DEBUG2;0.0;DEBUG3;72.0;DEBUG4;0.0
ATTITUDE;ANGX;-16.0;ANGY;0.0;HEAD;-114.0
STATUS;CYCLETIME;2892;I2CERR;0;PRESENT;23;MODE;2
RAW_IMU;AX;-34.0;AY;-16.0;AZ;256.0;GX;-7.0;GY;0.0;GZ;1.0;MAGX;94.0;MAGY;-75.0;MAGZ;49.0
MOT;0;1000.0;1;1000.0;2;1000.0;3;1000.0;4;0.0;5;0.0;6;0.0;7;0.0;
RC;ROLL;1492.0;PITCH;1507.0;YAW;1518.0;THROTTLE;1057.0;AUX1;1536.0;AUX2;1500.0;AUX3;1500.0;AUX4;1500.0
ALTITUDE;72.0
DEBUG;DEBUG10.0;DEBUG2;0.0;DEBUG3;72.0;DEBUG4;0.0
ATTITUDE;ANGX;-16.0;ANGY;0.0;HEAD;-114.0
STATUS;CYCLETIME;2984;I2CERR;0;PRESENT;23;MODE;2
RAW_IMU;AX;-37.0;AY;-15.0;AZ;248.0;GX;-17.0;GY;-7.0;GZ;0.0;MAGX;95.0;MAGY;-76.0;MAGZ;45.0
MOT;0;1000.0;1;1000.0;2;1000.0;3;1000.0;4;0.0;5;0.0;6;0.0;7;0.0;
RC;ROLL;1498.0;PITCH;1502.0;YAW;1523.0;THROTTLE;1057.0;AUX1;1536.0;AUX2;1500.0;AUX3;1500.0;AUX4;1500.0
ALTITUDE;72.0
DEBUG;DEBUG10.0;DEBUG2;0.0;DEBUG3;72.0;DEBUG4;0.0
ATTITUDE;ANGX;-17.0;ANGY;0.0;HEAD;-114.0
STATUS;CYCLETIME;2888;I2CERR;0;PRESENT;23;MODE;2
RAW_IMU;AX;-42.0;AY;-17.0;AZ;251.0;GX;-25.0;GY;-7.0;GZ;0.0;MAGX;95.0;MAGY;-76.0;MAGZ;45.0
MOT;0;1000.0;1;1000.0;2;1000.0;3;1000.0;4;0.0;5;0.0;6;0.0;7;0.0;
RC;ROLL;1501.0;PITCH;1499.0;YAW;1528.0;THROTTLE;1048.0;AUX1;1536.0;AUX2;1500.0;AUX3;1500.0;AUX4;1500.0
ALTITUDE;72.0
DEBUG;DEBUG10.0;DEBUG2;0.0;DEBUG3;72.0;DEBUG4;0.0
ATTITUDE;ANGX;-20.0;ANGY;-1.0;HEAD;-114.0
STATUS;CYCLETIME;3188;I2CERR;0;PRESENT;23;MODE;2
RAW_IMU;AX;-52.0;AY;-25.0;AZ;250.0;GX;-14.0;GY;7.0;GZ;1.0;MAGX;98.0;MAGY;-75.0;MAGZ;38.0
MOT;0;1000.0;1;1000.0;2;1000.0;3;1000.0;4;0.0;5;0.0;6;0.0;7;0.0;
RC;ROLL;1490.0;PITCH;1499.0;YAW;1521.0;THROTTLE;1053.0;AUX1;1536.0;AUX2;1500.0;AUX3;1500.0;AUX4;1500.0
ALTITUDE;72.0
DEBUG;DEBUG10.0;DEBUG2;0.0;DEBUG3;72.0;DEBUG4;0.0
ATTITUDE;ANGX;-22.0;ANGY;-1.0;HEAD;-114.0
STATUS;CYCLETIME;2904;I2CERR;0;PRESENT;23;MODE;2
RAW_IMU;AX;-55.0;AY;-22.0;AZ;254.0;GX;-13.0;GY;10.0;GZ;5.0;MAGX;98.0;MAGY;-75.0;MAGZ;38.0
MOT;0;1000.0;1;1000.0;2;1000.0;3;1000.0;4;0.0;5;0.0;6;0.0;7;0.0;
RC;ROLL;1488.0;PITCH;1501.0;YAW;1517.0;THROTTLE;1059.0;AUX1;1530.0;AUX2;1500.0;AUX3;1500.0;AUX4;1500.0
ALTITUDE;72.0
DEBUG;DEBUG10.0;DEBUG2;0.0;DEBUG3;72.0;DEBUG4;0.0
ATTITUDE;ANGX;-23.0;ANGY;0.0;HEAD;-113.0
STATUS;CYCLETIME;2876;I2CERR;0;PRESENT;23;MODE;2
RAW_IMU;AX;-49.0;AY;-18.0;AZ;256.0;GX;-14.0;GY;4.0;GZ;3.0;MAGX;98.0;MAGY;-75.0;MAGZ;38.0
MOT;0;1000.0;1;1000.0;2;1000.0;3;1000.0;4;0.0;5;0.0;6;0.0;7;0.0;
RC;ROLL;1495.0;PITCH;1501.0;YAW;1516.0;THROTTLE;1065.0;AUX1;1527.0;AUX2;1500.0;AUX3;1500.0;AUX4;1500.0
ALTITUDE;72.0
DEBUG;DEBUG10.0;DEBUG2;0.0;DEBUG3;72.0;DEBUG4;0.0
ATTITUDE;ANGX;-24.0;ANGY;0.0;HEAD;-113.0
STATUS;CYCLETIME;2996;I2CERR;0;PRESENT;23;MODE;2
RAW_IMU;AX;-46.0;AY;-16.0;AZ;256.0;GX;-11.0;GY;1.0;GZ;0.0;MAGX;93.0;MAGY;-75.0;MAGZ;28.0
MOT;0;1000.0;1;1000.0;2;1000.0;3;1000.0;4;0.0;5;0.0;6;0.0;7;0.0;
RC;ROLL;1503.0;PITCH;1492.0;YAW;1516.0;THROTTLE;1061.0;AUX1;1527.0;AUX2;1500.0;AUX3;1500.0;AUX4;1500.0
ALTITUDE;72.0
DEBUG;DEBUG10.0;DEBUG2;0.0;DEBUG3;72.0;DEBUG4;0.0
ATTITUDE;ANGX;-25.0;ANGY;0.0;HEAD;-113.0
STATUS;CYCLETIME;2908;I2CERR;0;PRESENT;23;MODE;2
RAW_IMU;AX;-53.0;AY;-15.0;AZ;251.0;GX;-8.0;GY;-1.0;GZ;-2.0;MAGX;93.0;MAGY;-75.0;MAGZ;28.0
MOT;0;1000.0;1;1000.0;2;1000.0;3;1000.0;4;0.0;5;0.0;6;0.0;7;0.0;
RC;ROLL;1500.0;PITCH;1492.0;YAW;1524.0;THROTTLE;1057.0;AUX1;1530.0;AUX2;1500.0;AUX3;1500.0;AUX4;1500.0
ALTITUDE;72.0
DEBUG;DEBUG10.0;DEBUG2;0.0;DEBUG3;72.0;DEBUG4;0.0
ATTITUDE;ANGX;-26.0;ANGY;0.0;HEAD;-113.0
STATUS;CYCLETIME;2944;I2CERR;0;PRESENT;23;MODE;2
RAW_IMU;AX;-53.0;AY;-18.0;AZ;251.0;GX;0.0;GY;-1.0;GZ;1.0;MAGX;94.0;MAGY;-76.0;MAGZ;23.0
MOT;0;1000.0;1;1000.0;2;1000.0;3;1000.0;4;0.0;5;0.0;6;0.0;7;0.0;
RC;ROLL;1494.0;PITCH;1494.0;YAW;1531.0;THROTTLE;1057.0;AUX1;1527.0;AUX2;1500.0;AUX3;1500.0;AUX4;1500.0
ALTITUDE;72.0
DEBUG;DEBUG10.0;DEBUG2;0.0;DEBUG3;72.0;DEBUG4;0.0
ATTITUDE;ANGX;-26.0;ANGY;0.0;HEAD;-114.0
STATUS;CYCLETIME;3004;I2CERR;0;PRESENT;23;MODE;2
RAW_IMU;AX;-53.0;AY;-18.0;AZ;250.0;GX;1.0;GY;-2.0;GZ;2.0;MAGX;94.0;MAGY;-76.0;MAGZ;23.0
MOT;0;1000.0;1;1000.0;2;1000.0;3;1000.0;4;0.0;5;0.0;6;0.0;7;0.0;
RC;ROLL;1494.0;PITCH;1494.0;YAW;1515.0;THROTTLE;1059.0;AUX1;1533.0;AUX2;1500.0;AUX3;1500.0;AUX4;1500.0
ALTITUDE;72.0
DEBUG;DEBUG10.0;DEBUG2;0.0;DEBUG3;72.0;DEBUG4;0.0
ATTITUDE;ANGX;-25.0;ANGY;-1.0;HEAD;-114.0
STATUS;CYCLETIME;2888;I2CERR;0;PRESENT;23;MODE;2
RAW_IMU;AX;-54.0;AY;-16.0;AZ;252.0;GX;2.0;GY;-1.0;GZ;-2.0;MAGX;95.0;MAGY;-75.0;MAGZ;25.0
MOT;0;1000.0;1;1000.0;2;1000.0;3;1000.0;4;0.0;5;0.0;6;0.0;7;0.0;
RC;ROLL;1494.0;PITCH;1494.0;YAW;1509.0;THROTTLE;1059.0;AUX1;1541.0;AUX2;1500.0;AUX3;1500.0;AUX4;1500.0
ALTITUDE;72.0
DEBUG;DEBUG10.0;DEBUG2;0.0;DEBUG3;72.0;DEBUG4;0.0
ATTITUDE;ANGX;-24.0;ANGY;-1.0;HEAD;-114.0
STATUS;CYCLETIME;2884;I2CERR;0;PRESENT;23;MODE;2
RAW_IMU;AX;-53.0;AY;-20.0;AZ;255.0;GX;12.0;GY;0.0;GZ;-5.0;MAGX;95.0;MAGY;-75.0;MAGZ;25.0
MOT;0;1000.0;1;1000.0;2;1000.0;3;1000.0;4;0.0;5;0.0;6;0.0;7;0.0;
RC;ROLL;1494.0;PITCH;1500.0;YAW;1512.0;THROTTLE;1050.0;AUX1;1544.0;AUX2;1500.0;AUX3;1500.0;AUX4;1500.0
ALTITUDE;72.0
DEBUG;DEBUG10.0;DEBUG2;0.0;DEBUG3;72.0;DEBUG4;0.0
ATTITUDE;ANGX;-23.0;ANGY;-1.0;HEAD;-115.0
STATUS;CYCLETIME;2932;I2CERR;0;PRESENT;23;MODE;2
RAW_IMU;AX;-47.0;AY;-19.0;AZ;250.0;GX;13.0;GY;0.0;GZ;2.0;MAGX;97.0;MAGY;-75.0;MAGZ;31.0
MOT;0;1000.0;1;1000.0;2;1000.0;3;1000.0;4;0.0;5;0.0;6;0.0;7;0.0;
RC;ROLL;1494.0;PITCH;1504.0;YAW;1518.0;THROTTLE;1052.0;AUX1;1534.0;AUX2;1500.0;AUX3;1500.0;AUX4;1500.0
ALTITUDE;72.0
DEBUG;DEBUG10.0;DEBUG2;0.0;DEBUG3;72.0;DEBUG4;0.0
ATTITUDE;ANGX;-21.0;ANGY;-1.0;HEAD;-115.0
STATUS;CYCLETIME;2912;I2CERR;0;PRESENT;23;MODE;2
RAW_IMU;AX;-37.0;AY;-20.0;AZ;256.0;GX;23.0;GY;2.0;GZ;3.0;MAGX;97.0;MAGY;-75.0;MAGZ;31.0
MOT;0;1000.0;1;1000.0;2;1000.0;3;1000.0;4;0.0;5;0.0;6;0.0;7;0.0;
RC;ROLL;1494.0;PITCH;1504.0;YAW;1525.0;THROTTLE;1052.0;AUX1;1536.0;AUX2;1500.0;AUX3;1500.0;AUX4;1500.0
ALTITUDE;72.0
DEBUG;DEBUG10.0;DEBUG2;0.0;DEBUG3;72.0;DEBUG4;0.0
ATTITUDE;ANGX;-19.0;ANGY;-1.0;HEAD;-115.0
STATUS;CYCLETIME;2880;I2CERR;0;PRESENT;23;MODE;2
RAW_IMU;AX;-31.0;AY;-20.0;AZ;253.0;GX;22.0;GY;10.0;GZ;1.0;MAGX;97.0;MAGY;-75.0;MAGZ;37.0
MOT;0;1000.0;1;1000.0;2;1000.0;3;1000.0;4;0.0;5;0.0;6;0.0;7;0.0;
RC;ROLL;1494.0;PITCH;1501.0;YAW;1522.0;THROTTLE;1046.0;AUX1;1545.0;AUX2;1500.0;AUX3;1500.0;AUX4;1500.0
ALTITUDE;72.0
DEBUG;DEBUG10.0;DEBUG2;0.0;DEBUG3;72.0;DEBUG4;0.0
ATTITUDE;ANGX;-16.0;ANGY;0.0;HEAD;-114.0
STATUS;CYCLETIME;2796;I2CERR;0;PRESENT;23;MODE;2
RAW_IMU;AX;-28.0;AY;-16.0;AZ;256.0;GX;19.0;GY;6.0;GZ;-4.0;MAGX;97.0;MAGY;-75.0;MAGZ;37.0
MOT;0;1000.0;1;1000.0;2;1000.0;3;1000.0;4;0.0;5;0.0;6;0.0;7;0.0;
RC;ROLL;1494.0;PITCH;1496.0;YAW;1522.0;THROTTLE;1054.0;AUX1;1542.0;AUX2;1500.0;AUX3;1500.0;AUX4;1500.0
ALTITUDE;72.0
DEBUG;DEBUG10.0;DEBUG2;0.0;DEBUG3;72.0;DEBUG4;0.0
ATTITUDE;ANGX;-13.0;ANGY;0.0;HEAD;-114.0
STATUS;CYCLETIME;2900;I2CERR;0;PRESENT;23;MODE;2
RAW_IMU;AX;-30.0;AY;-16.0;AZ;255.0;GX;16.0;GY;2.0;GZ;-3.0;MAGX;92.0;MAGY;-75.0;MAGZ;55.0
MOT;0;1000.0;1;1000.0;2;1000.0;3;1000.0;4;0.0;5;0.0;6;0.0;7;0.0;
RC;ROLL;1494.0;PITCH;1496.0;YAW;1521.0;THROTTLE;1057.0;AUX1;1538.0;AUX2;1500.0;AUX3;1500.0;AUX4;1500.0
ALTITUDE;72.0
DEBUG;DEBUG10.0;DEBUG2;0.0;DEBUG3;72.0;DEBUG4;0.0
ATTITUDE;ANGX;-11.0;ANGY;0.0;HEAD;-115.0
STATUS;CYCLETIME;2968;I2CERR;0;PRESENT;23;MODE;2
RAW_IMU;AX;-32.0;AY;-14.0;AZ;256.0;GX;12.0;GY;0.0;GZ;1.0;MAGX;92.0;MAGY;-75.0;MAGZ;55.0
MOT;0;1000.0;1;1000.0;2;1000.0;3;1000.0;4;0.0;5;0.0;6;0.0;7;0.0;
RC;ROLL;1494.0;PITCH;1499.0;YAW;1531.0;THROTTLE;1054.0;AUX1;1533.0;AUX2;1500.0;AUX3;1500.0;AUX4;1500.0
ALTITUDE;72.0
DEBUG;DEBUG10.0;DEBUG2;0.0;DEBUG3;72.0;DEBUG4;0.0
ATTITUDE;ANGX;-9.0;ANGY;0.0;HEAD;-115.0
STATUS;CYCLETIME;2804;I2CERR;0;PRESENT;23;MODE;2
RAW_IMU;AX;-24.0;AY;-13.0;AZ;257.0;GX;6.0;GY;-3.0;GZ;1.0;MAGX;92.0;MAGY;-75.0;MAGZ;55.0
MOT;0;1000.0;1;1000.0;2;1000.0;3;1000.0;4;0.0;5;0.0;6;0.0;7;0.0;
RC;ROLL;1497.0;PITCH;1508.0;YAW;1534.0;THROTTLE;1041.0;AUX1;1533.0;AUX2;1500.0;AUX3;1500.0;AUX4;1500.0
ALTITUDE;72.0
DEBUG;DEBUG10.0;DEBUG2;0.0;DEBUG3;72.0;DEBUG4;0.0
ATTITUDE;ANGX;-8.0;ANGY;0.0;HEAD;-115.0
STATUS;CYCLETIME;2912;I2CERR;0;PRESENT;23;MODE;2
RAW_IMU;AX;-19.0;AY;-17.0;AZ;256.0;GX;-1.0;GY;1.0;GZ;1.0;MAGX;94.0;MAGY;-74.0;MAGZ;62.0
MOT;0;1000.0;1;1000.0;2;1000.0;3;1000.0;4;0.0;5;0.0;6;0.0;7;0.0;
RC;ROLL;1501.0;PITCH;1497.0;YAW;1527.0;THROTTLE;1054.0;AUX1;1531.0;AUX2;1500.0;AUX3;1500.0;AUX4;1500.0
ALTITUDE;72.0
DEBUG;DEBUG10.0;DEBUG2;0.0;DEBUG3;72.0;DEBUG4;0.0
ATTITUDE;ANGX;-8.0;ANGY;0.0;HEAD;-115.0
STATUS;CYCLETIME;2792;I2CERR;0;PRESENT;23;MODE;2
RAW_IMU;AX;-15.0;AY;-18.0;AZ;255.0;GX;-1.0;GY;9.0;GZ;1.0;MAGX;94.0;MAGY;-74.0;MAGZ;62.0
MOT;0;1000.0;1;1000.0;2;1000.0;3;1000.0;4;0.0;5;0.0;6;0.0;7;0.0;
RC;ROLL;1501.0;PITCH;1491.0;YAW;1517.0;THROTTLE;1059.0;AUX1;1532.0;AUX2;1500.0;AUX3;1500.0;AUX4;1500.0
ALTITUDE;72.0
DEBUG;DEBUG10.0;DEBUG2;0.0;DEBUG3;72.0;DEBUG4;0.0
ATTITUDE;ANGX;-8.0;ANGY;0.0;HEAD;-114.0
STATUS;CYCLETIME;2896;I2CERR;0;PRESENT;23;MODE;2
RAW_IMU;AX;-10.0;AY;-14.0;AZ;257.0;GX;0.0;GY;8.0;GZ;1.0;MAGX;95.0;MAGY;-73.0;MAGZ;64.0
MOT;0;1000.0;1;1000.0;2;1000.0;3;1000.0;4;0.0;5;0.0;6;0.0;7;0.0;
RC;ROLL;1497.0;PITCH;1502.0;YAW;1524.0;THROTTLE;1051.0;AUX1;1527.0;AUX2;1500.0;AUX3;1500.0;AUX4;1500.0
ALTITUDE;72.0
DEBUG;DEBUG10.0;DEBUG2;0.0;DEBUG3;72.0;DEBUG4;0.0
ATTITUDE;ANGX;-8.0;ANGY;0.0;HEAD;-114.0
STATUS;CYCLETIME;2932;I2CERR;0;PRESENT;23;MODE;2
RAW_IMU;AX;-12.0;AY;-10.0;AZ;257.0;GX;2.0;GY;2.0;GZ;0.0;MAGX;95.0;MAGY;-73.0;MAGZ;64.0
MOT;0;1000.0;1;1000.0;2;1000.0;3;1000.0;4;0.0;5;0.0;6;0.0;7;0.0;
RC;ROLL;1498.0;PITCH;1500.0;YAW;1536.0;THROTTLE;1037.0;AUX1;1527.0;AUX2;1500.0;AUX3;1500.0;AUX4;1500.0
ALTITUDE;72.0
DEBUG;DEBUG10.0;DEBUG2;0.0;DEBUG3;72.0;DEBUG4;0.0
ATTITUDE;ANGX;-8.0;ANGY;1.0;HEAD;-114.0
STATUS;CYCLETIME;3000;I2CERR;0;PRESENT;23;MODE;2
