IDENT;V;220;TYPE;3
MSP_MOTOR_PINS
STATUS;CYCLETIME;2772;I2CERR;0;PRESENT;23;MODE;66
RAW_IMU;AX;3.0;AY;1.0;AZ;256.0;GX;0.0;GY;0.0;GZ;0.0;MAGX;4.0;MAGY;-65.0;MAGZ;-4.0
MOT;0;1000.0;1;1000.0;2;1000.0;3;1000.0;4;0.0;5;0.0;6;0.0;7;0.0;
RC;ROLL;1513.0;PITCH;1487.0;YAW;1500.0;THROTTLE;1065.0;AUX1;1685.0;AUX2;1500.0;AUX3;1500.0;AUX4;1500.0
ALTITUDE;20.0
DEBUG;DEBUG120.0;DEBUG2;139.0;DEBUG3;765.0;DEBUG4;0.0
ATTITUDE;ANGX;0.0;ANGY;0.0;HEAD;-165.0
STATUS;CYCLETIME;2724;I2CERR;0;PRESENT;23;MODE;66
RAW_IMU;AX;3.0;AY;1.0;AZ;255.0;GX;0.0;GY;0.0;GZ;0.0;MAGX;4.0;MAGY;-66.0;MAGZ;-5.0
MOT;0;1000.0;1;1000.0;2;1000.0;3;1000.0;4;0.0;5;0.0;6;0.0;7;0.0;
RC;ROLL;1513.0;PITCH;1485.0;YAW;1500.0;THROTTLE;1065.0;AUX1;1685.0;AUX2;1500.0;AUX3;1500.0;AUX4;1500.0
ALTITUDE;20.0
DEBUG;DEBUG120.0;DEBUG2;139.0;DEBUG3;765.0;DEBUG4;0.0
ATTITUDE;ANGX;0.0;ANGY;0.0;HEAD;-165.0
STATUS;CYCLETIME;2856;I2CERR;0;PRESENT;23;MODE;66
RAW_IMU;AX;3.0;AY;1.0;AZ;255.0;GX;0.0;GY;0.0;GZ;0.0;MAGX;4.0;MAGY;-66.0;MAGZ;-5.0
MOT;0;1000.0;1;1000.0;2;1000.0;3;1000.0;4;0.0;5;0.0;6;0.0;7;0.0;
RC;ROLL;1515.0;PITCH;1483.0;YAW;1500.0;THROTTLE;1067.0;AUX1;1682.0;AUX2;1500.0;AUX3;1500.0;AUX4;1500.0
ALTITUDE;20.0
DEBUG;DEBUG120.0;DEBUG2;139.0;DEBUG3;765.0;DEBUG4;0.0
ATTITUDE;ANGX;0.0;ANGY;0.0;HEAD;-165.0
STATUS;CYCLETIME;3000;I2CERR;0;PRESENT;23;MODE;66
RAW_IMU;AX;3.0;AY;1.0;AZ;256.0;GX;0.0;GY;0.0;GZ;0.0;MAGX;4.0;MAGY;-66.0;MAGZ;-6.0
MOT;0;1000.0;1;1000.0;2;1000.0;3;1000.0;4;0.0;5;0.0;6;0.0;7;0.0;
RC;ROLL;1515.0;PITCH;1483.0;YAW;1500.0;THROTTLE;1067.0;AUX1;1682.0;AUX2;1500.0;AUX3;1500.0;AUX4;1500.0
ALTITUDE;20.0
DEBUG;DEBUG120.0;DEBUG2;139.0;DEBUG3;765.0;DEBUG4;0.0
ATTITUDE;ANGX;0.0;ANGY;0.0;HEAD;-165.0
STATUS;CYCLETIME;2992;I2CERR;0;PRESENT;23;MODE;66
RAW_IMU;AX;3.0;AY;1.0;AZ;256.0;GX;0.0;GY;0.0;GZ;0.0;MAGX;4.0;MAGY;-66.0;MAGZ;-6.0
MOT;0;1000.0;1;1000.0;2;1000.0;3;1000.0;4;0.0;5;0.0;6;0.0;7;0.0;
RC;ROLL;1515.0;PITCH;1483.0;YAW;1500.0;THROTTLE;1067.0;AUX1;1669.0;AUX2;1500.0;AUX3;1500.0;AUX4;1500.0
ALTITUDE;20.0
DEBUG;DEBUG120.0;DEBUG2;139.0;DEBUG3;765.0;DEBUG4;0.0
ATTITUDE;ANGX;0.0;ANGY;0.0;HEAD;-165.0
STATUS;CYCLETIME;2748;I2CERR;0;PRESENT;23;MODE;66
RAW_IMU;AX;3.0;AY;0.0;AZ;256.0;GX;0.0;GY;0.0;GZ;0.0;MAGX;2.0;MAGY;-65.0;MAGZ;-6.0
MOT;0;1000.0;1;1000.0;2;1000.0;3;1000.0;4;0.0;5;0.0;6;0.0;7;0.0;
RC;ROLL;1515.0;PITCH;1483.0;YAW;1500.0;THROTTLE;1067.0;AUX1;1661.0;AUX2;1500.0;AUX3;1500.0;AUX4;1500.0
ALTITUDE;20.0
DEBUG;DEBUG120.0;DEBUG2;139.0;DEBUG3;765.0;DEBUG4;0.0
ATTITUDE;ANGX;0.0;ANGY;0.0;HEAD;-165.0
STATUS;CYCLETIME;2720;I2CERR;0;PRESENT;23;MODE;66
RAW_IMU;AX;3.0;AY;0.0;AZ;256.0;GX;0.0;GY;0.0;GZ;0.0;MAGX;2.0;MAGY;-65.0;MAGZ;-6.0
MOT;0;1000.0;1;1000.0;2;1000.0;3;1000.0;4;0.0;5;0.0;6;0.0;7;0.0;
RC;ROLL;1515.0;PITCH;1483.0;YAW;1500.0;THROTTLE;1067.0;AUX1;1657.0;AUX2;1500.0;AUX3;1500.0;AUX4;1500.0
ALTITUDE;20.0
DEBUG;DEBUG120.0;DEBUG2;139.0;DEBUG3;765.0;DEBUG4;0.0
ATTITUDE;ANGX;0.0;ANGY;0.0;HEAD;-165.0
STATUS;CYCLETIME;2760;I2CERR;0;PRESENT;23;MODE;66
RAW_IMU;AX;3.0;AY;0.0;AZ;255.0;GX;0.0;GY;0.0;GZ;0.0;MAGX;2.0;MAGY;-65.0;MAGZ;-6.0
MOT;0;1000.0;1;1000.0;2;1000.0;3;1000.0;4;0.0;5;0.0;6;0.0;7;0.0;
RC;ROLL;1515.0;PITCH;1485.0;YAW;1500.0;THROTTLE;1067.0;AUX1;1647.0;AUX2;1500.0;AUX3;1500.0;AUX4;1500.0
ALTITUDE;20.0
DEBUG;DEBUG120.0;DEBUG2;139.0;DEBUG3;765.0;DEBUG4;0.0
ATTITUDE;ANGX;0.0;ANGY;0.0;HEAD;-166.0
STATUS;CYCLETIME;2736;I2CERR;0;PRESENT;23;MODE;66
RAW_IMU;AX;3.0;AY;1.0;AZ;255.0;GX;0.0;GY;0.0;GZ;0.0;MAGX;3.0;MAGY;-66.0;MAGZ;-4.0
MOT;0;1000.0;1;1000.0;2;1000.0;3;1000.0;4;0.0;5;0.0;6;0.0;7;0.0;
RC;ROLL;1515.0;PITCH;1485.0;YAW;1500.0;THROTTLE;1067.0;AUX1;1639.0;AUX2;1500.0;AUX3;1500.0;AUX4;1500.0
ALTITUDE;20.0
DEBUG;DEBUG120.0;DEBUG2;139.0;DEBUG3;765.0;DEBUG4;0.0
ATTITUDE;ANGX;0.0;ANGY;0.0;HEAD;-166.0
STATUS;CYCLETIME;2980;I2CERR;0;PRESENT;23;MODE;66
RAW_IMU;AX;3.0;AY;0.0;AZ;255.0;GX;0.0;GY;0.0;GZ;0.0;MAGX;3.0;MAGY;-66.0;MAGZ;-4.0
MOT;0;1000.0;1;1000.0;2;1000.0;3;1000.0;4;0.0;5;0.0;6;0.0;7;0.0;
RC;ROLL;1515.0;PITCH;1485.0;YAW;1500.0;THROTTLE;1067.0;AUX1;1631.0;AUX2;1500.0;AUX3;1500.0;AUX4;1500.0
ALTITUDE;20.0
DEBUG;DEBUG120.0;DEBUG2;139.0;DEBUG3;765.0;DEBUG4;0.0
ATTITUDE;ANGX;0.0;ANGY;0.0;HEAD;-166.0
STATUS;CYCLETIME;2696;I2CERR;0;PRESENT;23;MODE;66
RAW_IMU;AX;3.0;AY;0.0;AZ;255.0;GX;0.0;GY;0.0;GZ;0.0;MAGX;4.0;MAGY;-65.0;MAGZ;-6.0
MOT;0;1000.0;1;1000.0;2;1000.0;3;1000.0;4;0.0;5;0.0;6;0.0;7;0.0;
RC;ROLL;1515.0;PITCH;1485.0;YAW;1500.0;THROTTLE;1067.0;AUX1;1622.0;AUX2;1500.0;AUX3;1500.0;AUX4;1500.0
ALTITUDE;20.0
DEBUG;DEBUG120.0;DEBUG2;139.0;DEBUG3;765.0;DEBUG4;0.0
ATTITUDE;ANGX;0.0;ANGY;0.0;HEAD;-166.0
STATUS;CYCLETIME;2800;I2CERR;0;PRESENT;23;MODE;66
RAW_IMU;AX;3.0;AY;0.0;AZ;255.0;GX;0.0;GY;0.0;GZ;0.0;MAGX;4.0;MAGY;-65.0;MAGZ;-6.0
MOT;0;1000.0;1;1000.0;2;1000.0;3;1000.0;4;0.0;5;0.0;6;0.0;7;0.0;
RC;ROLL;1515.0;PITCH;1483.0;YAW;1500.0;THROTTLE;1067.0;AUX1;1611.0;AUX2;1500.0;AUX3;1500.0;AUX4;1500.0
ALTITUDE;20.0
DEBUG;DEBUG120.0;DEBUG2;139.0;DEBUG3;765.0;DEBUG4;0.0
ATTITUDE;ANGX;0.0;ANGY;0.0;HEAD;-165.0
STATUS;CYCLETIME;2772;I2CERR;0;PRESENT;23;MODE;66
RAW_IMU;AX;3.0;AY;0.0;AZ;256.0;GX;0.0;GY;0.0;GZ;0.0;MAGX;3.0;MAGY;-65.0;MAGZ;-6.0
MOT;0;1000.0;1;1000.0;2;1000.0;3;1000.0;4;0.0;5;0.0;6;0.0;7;0.0;
RC;ROLL;1515.0;PITCH;1483.0;YAW;1500.0;THROTTLE;1067.0;AUX1;1604.0;AUX2;1500.0;AUX3;1500.0;AUX4;1500.0
ALTITUDE;20.0
DEBUG;DEBUG120.0;DEBUG2;139.0;DEBUG3;765.0;DEBUG4;0.0
ATTITUDE;ANGX;0.0;ANGY;0.0;HEAD;-166.0
STATUS;CYCLETIME;2712;I2CERR;0;PRESENT;23;MODE;66
RAW_IMU;AX;3.0;AY;0.0;AZ;256.0;GX;0.0;GY;0.0;GZ;0.0;MAGX;3.0;MAGY;-65.0;MAGZ;-6.0
MOT;0;1000.0;1;1000.0;2;1000.0;3;1000.0;4;0.0;5;0.0;6;0.0;7;0.0;
RC;ROLL;1515.0;PITCH;1483.0;YAW;1500.0;THROTTLE;1067.0;AUX1;1600.0;AUX2;1500.0;AUX3;1500.0;AUX4;1500.0
ALTITUDE;20.0
DEBUG;DEBUG120.0;DEBUG2;139.0;DEBUG3;765.0;DEBUG4;0.0
ATTITUDE;ANGX;0.0;ANGY;0.0;HEAD;-166.0
STATUS;CYCLETIME;2808;I2CERR;0;PRESENT;23;MODE;66
RAW_IMU;AX;3.0;AY;0.0;AZ;256.0;GX;0.0;GY;0.0;GZ;0.0;MAGX;5.0;MAGY;-65.0;MAGZ;-5.0
MOT;0;1000.0;1;1000.0;2;1000.0;3;1000.0;4;0.0;5;0.0;6;0.0;7;0.0;
RC;ROLL;1515.0;PITCH;1483.0;YAW;1500.0;THROTTLE;1067.0;AUX1;1591.0;AUX2;1500.0;AUX3;1500.0;AUX4;1500.0
ALTITUDE;20.0
DEBUG;DEBUG120.0;DEBUG2;139.0;DEBUG3;765.0;DEBUG4;0.0
ATTITUDE;ANGX;0.0;ANGY;0.0;HEAD;-165.0
STATUS;CYCLETIME;2752;I2CERR;0;PRESENT;23;MODE;66
RAW_IMU;AX;2.0;AY;0.0;AZ;256.0;GX;0.0;GY;0.0;GZ;0.0;MAGX;5.0;MAGY;-65.0;MAGZ;-5.0
MOT;0;1000.0;1;1000.0;2;1000.0;3;1000.0;4;0.0;5;0.0;6;0.0;7;0.0;
RC;ROLL;1515.0;PITCH;1483.0;YAW;1500.0;THROTTLE;1067.0;AUX1;1583.0;AUX2;1500.0;AUX3;1500.0;AUX4;1500.0
ALTITUDE;20.0
DEBUG;DEBUG120.0;DEBUG2;139.0;DEBUG3;765.0;DEBUG4;0.0
ATTITUDE;ANGX;0.0;ANGY;0.0;HEAD;-165.0
STATUS;CYCLETIME;2720;I2CERR;0;PRESENT;23;MODE;66
RAW_IMU;AX;3.0;AY;0.0;AZ;255.0;GX;0.0;GY;0.0;GZ;0.0;MAGX;4.0;MAGY;-66.0;MAGZ;-6.0
MOT;0;1000.0;1;1000.0;2;1000.0;3;1000.0;4;0.0;5;0.0;6;0.0;7;0.0;
RC;ROLL;1515.0;PITCH;1483.0;YAW;1500.0;THROTTLE;1067.0;AUX1;1573.0;AUX2;1500.0;AUX3;1500.0;AUX4;1500.0
ALTITUDE;20.0
DEBUG;DEBUG120.0;DEBUG2;139.0;DEBUG3;765.0;DEBUG4;0.0
ATTITUDE;ANGX;0.0;ANGY;0.0;HEAD;-165.0
STATUS;CYCLETIME;2760;I2CERR;0;PRESENT;23;MODE;66
RAW_IMU;AX;2.0;AY;0.0;AZ;256.0;GX;0.0;GY;0.0;GZ;0.0;MAGX;4.0;MAGY;-66.0;MAGZ;-6.0
MOT;0;1000.0;1;1000.0;2;1000.0;3;1000.0;4;0.0;5;0.0;6;0.0;7;0.0;
RC;ROLL;1515.0;PITCH;1483.0;YAW;1500.0;THROTTLE;1067.0;AUX1;1563.0;AUX2;1500.0;AUX3;1500.0;AUX4;1500.0
ALTITUDE;20.0
DEBUG;DEBUG120.0;DEBUG2;139.0;DEBUG3;765.0;DEBUG4;0.0
ATTITUDE;ANGX;0.0;ANGY;0.0;HEAD;-165.0
STATUS;CYCLETIME;2668;I2CERR;0;PRESENT;23;MODE;66
RAW_IMU;AX;2.0;AY;0.0;AZ;256.0;GX;0.0;GY;0.0;GZ;0.0;MAGX;4.0;MAGY;-65.0;MAGZ;-7.0
MOT;0;1000.0;1;1000.0;2;1000.0;3;1000.0;4;0.0;5;0.0;6;0.0;7;0.0;
RC;ROLL;1515.0;PITCH;1483.0;YAW;1500.0;THROTTLE;1067.0;AUX1;1555.0;AUX2;1500.0;AUX3;1500.0;AUX4;1500.0
ALTITUDE;20.0
DEBUG;DEBUG120.0;DEBUG2;139.0;DEBUG3;765.0;DEBUG4;0.0
ATTITUDE;ANGX;0.0;ANGY;0.0;HEAD;-165.0
STATUS;CYCLETIME;2756;I2CERR;0;PRESENT;23;MODE;66
RAW_IMU;AX;3.0;AY;0.0;AZ;256.0;GX;0.0;GY;0.0;GZ;0.0;MAGX;4.0;MAGY;-65.0;MAGZ;-7.0
MOT;0;1000.0;1;1000.0;2;1000.0;3;1000.0;4;0.0;5;0.0;6;0.0;7;0.0;
RC;ROLL;1515.0;PITCH;1483.0;YAW;1500.0;THROTTLE;1067.0;AUX1;1550.0;AUX2;1500.0;AUX3;1500.0;AUX4;1500.0
ALTITUDE;20.0
DEBUG;DEBUG120.0;DEBUG2;139.0;DEBUG3;765.0;DEBUG4;0.0
ATTITUDE;ANGX;0.0;ANGY;0.0;HEAD;-165.0
STATUS;CYCLETIME;2908;I2CERR;0;PRESENT;23;MODE;66
RAW_IMU;AX;3.0;AY;0.0;AZ;256.0;GX;0.0;GY;0.0;GZ;0.0;MAGX;4.0;MAGY;-65.0;MAGZ;-5.0
MOT;0;1000.0;1;1000.0;2;1000.0;3;1000.0;4;0.0;5;0.0;6;0.0;7;0.0;
RC;ROLL;1515.0;PITCH;1485.0;YAW;1500.0;THROTTLE;1067.0;AUX1;1546.0;AUX2;1500.0;AUX3;1500.0;AUX4;1500.0
ALTITUDE;20.0
DEBUG;DEBUG120.0;DEBUG2;139.0;DEBUG3;765.0;DEBUG4;0.0
ATTITUDE;ANGX;0.0;ANGY;0.0;HEAD;-165.0
STATUS;CYCLETIME;2716;I2CERR;0;PRESENT;23;MODE;66
RAW_IMU;AX;3.0;AY;0.0;AZ;256.0;GX;0.0;GY;0.0;GZ;0.0;MAGX;4.0;MAGY;-65.0;MAGZ;-5.0
MOT;0;1000.0;1;1000.0;2;1000.0;3;1000.0;4;0.0;5;0.0;6;0.0;7;0.0;
RC;ROLL;1513.0;PITCH;1485.0;YAW;1500.0;THROTTLE;1067.0;AUX1;1542.0;AUX2;1500.0;AUX3;1500.0;AUX4;1500.0
ALTITUDE;20.0
DEBUG;DEBUG120.0;DEBUG2;139.0;DEBUG3;765.0;DEBUG4;0.0
ATTITUDE;ANGX;0.0;ANGY;0.0;HEAD;-165.0
STATUS;CYCLETIME;2876;I2CERR;0;PRESENT;23;MODE;66
RAW_IMU;AX;3.0;AY;0.0;AZ;255.0;GX;0.0;GY;0.0;GZ;0.0;MAGX;4.0;MAGY;-66.0;MAGZ;-6.0
MOT;0;1000.0;1;1000.0;2;1000.0;3;1000.0;4;0.0;5;0.0;6;0.0;7;0.0;
RC;ROLL;1513.0;PITCH;1485.0;YAW;1500.0;THROTTLE;1069.0;AUX1;1534.0;AUX2;1500.0;AUX3;1500.0;AUX4;1500.0
ALTITUDE;20.0
DEBUG;DEBUG120.0;DEBUG2;139.0;DEBUG3;765.0;DEBUG4;0.0
ATTITUDE;ANGX;0.0;ANGY;0.0;HEAD;-165.0
STATUS;CYCLETIME;2688;I2CERR;0;PRESENT;23;MODE;66
RAW_IMU;AX;3.0;AY;0.0;AZ;255.0;GX;0.0;GY;0.0;GZ;0.0;MAGX;4.0;MAGY;-66.0;MAGZ;-6.0
MOT;0;1000.0;1;1000.0;2;1000.0;3;1000.0;4;0.0;5;0.0;6;0.0;7;0.0;
RC;ROLL;1516.0;PITCH;1485.0;YAW;1500.0;THROTTLE;1069.0;AUX1;1532.0;AUX2;1500.0;AUX3;1500.0;AUX4;1500.0
ALTITUDE;20.0
DEBUG;DEBUG120.0;DEBUG2;139.0;DEBUG3;765.0;DEBUG4;0.0
ATTITUDE;ANGX;0.0;ANGY;0.0;HEAD;-165.0
STATUS;CYCLETIME;2844;I2CERR;0;PRESENT;23;MODE;66
RAW_IMU;AX;3.0;AY;0.0;AZ;255.0;GX;0.0;GY;0.0;GZ;0.0;MAGX;3.0;MAGY;-64.0;MAGZ;-6.0
MOT;0;1000.0;1;1000.0;2;1000.0;3;1000.0;4;0.0;5;0.0;6;0.0;7;0.0;
RC;ROLL;1516.0;PITCH;1483.0;YAW;1500.0;THROTTLE;1069.0;AUX1;1532.0;AUX2;1500.0;AUX3;1500.0;AUX4;1500.0
ALTITUDE;20.0
DEBUG;DEBUG120.0;DEBUG2;139.0;DEBUG3;765.0;DEBUG4;0.0
ATTITUDE;ANGX;0.0;ANGY;0.0;HEAD;-165.0
STATUS;CYCLETIME;2684;I2CERR;0;PRESENT;23;MODE;66
RAW_IMU;AX;4.0;AY;0.0;AZ;255.0;GX;0.0;GY;0.0;GZ;0.0;MAGX;3.0;MAGY;-64.0;MAGZ;-6.0
MOT;0;1000.0;1;1000.0;2;1000.0;3;1000.0;4;0.0;5;0.0;6;0.0;7;0.0;
RC;ROLL;1516.0;PITCH;1483.0;YAW;1500.0;THROTTLE;1069.0;AUX1;1532.0;AUX2;1500.0;AUX3;1500.0;AUX4;1500.0
ALTITUDE;20.0
DEBUG;DEBUG120.0;DEBUG2;139.0;DEBUG3;765.0;DEBUG4;0.0
ATTITUDE;ANGX;0.0;ANGY;0.0;HEAD;-165.0
STATUS;CYCLETIME;2984;I2CERR;0;PRESENT;23;MODE;66
RAW_IMU;AX;3.0;AY;1.0;AZ;255.0;GX;0.0;GY;0.0;GZ;0.0;MAGX;3.0;MAGY;-65.0;MAGZ;-6.0
MOT;0;1000.0;1;1000.0;2;1000.0;3;1000.0;4;0.0;5;0.0;6;0.0;7;0.0;
RC;ROLL;1516.0;PITCH;1483.0;YAW;1500.0;THROTTLE;1067.0;AUX1;1534.0;AUX2;1500.0;AUX3;1500.0;AUX4;1500.0
ALTITUDE;20.0
DEBUG;DEBUG120.0;DEBUG2;139.0;DEBUG3;765.0;DEBUG4;0.0
ATTITUDE;ANGX;0.0;ANGY;0.0;HEAD;-165.0
STATUS;CYCLETIME;2692;I2CERR;0;PRESENT;23;MODE;66
RAW_IMU;AX;3.0;AY;0.0;AZ;255.0;GX;0.0;GY;0.0;GZ;0.0;MAGX;3.0;MAGY;-65.0;MAGZ;-6.0
MOT;0;1000.0;1;1000.0;2;1000.0;3;1000.0;4;0.0;5;0.0;6;0.0;7;0.0;
RC;ROLL;1514.0;PITCH;1486.0;YAW;1500.0;THROTTLE;1067.0;AUX1;1536.0;AUX2;1500.0;AUX3;1500.0;AUX4;1500.0
ALTITUDE;20.0
DEBUG;DEBUG120.0;DEBUG2;139.0;DEBUG3;765.0;DEBUG4;0.0
ATTITUDE;ANGX;0.0;ANGY;0.0;HEAD;-165.0
STATUS;CYCLETIME;2724;I2CERR;0;PRESENT;23;MODE;66
RAW_IMU;AX;3.0;AY;1.0;AZ;256.0;GX;0.0;GY;0.0;GZ;0.0;MAGX;3.0;MAGY;-65.0;MAGZ;-6.0
MOT;0;1000.0;1;1000.0;2;1000.0;3;1000.0;4;0.0;5;0.0;6;0.0;7;0.0;
RC;ROLL;1514.0;PITCH;1486.0;YAW;1500.0;THROTTLE;1067.0;AUX1;1536.0;AUX2;1500.0;AUX3;1500.0;AUX4;1500.0
ALTITUDE;20.0
DEBUG;DEBUG120.0;DEBUG2;139.0;DEBUG3;765.0;DEBUG4;0.0
ATTITUDE;ANGX;0.0;ANGY;0.0;HEAD;-165.0
STATUS;CYCLETIME;2776;I2CERR;0;PRESENT;23;MODE;66
RAW_IMU;AX;3.0;AY;1.0;AZ;256.0;GX;0.0;GY;0.0;GZ;0.0;MAGX;3.0;MAGY;-65.0;MAGZ;-6.0
MOT;0;1000.0;1;1000.0;2;1000.0;3;1000.0;4;0.0;5;0.0;6;0.0;7;0.0;
RC;ROLL;1518.0;PITCH;1486.0;YAW;1500.0;THROTTLE;1067.0;AUX1;1536.0;AUX2;1500.0;AUX3;1500.0;AUX4;1500.0
ALTITUDE;20.0
DEBUG;DEBUG120.0;DEBUG2;139.0;DEBUG3;765.0;DEBUG4;0.0
ATTITUDE;ANGX;0.0;ANGY;0.0;HEAD;-165.0
STATUS;CYCLETIME;2740;I2CERR;0;PRESENT;23;MODE;66
RAW_IMU;AX;3.0;AY;1.0;AZ;255.0;GX;0.0;GY;0.0;GZ;0.0;MAGX;4.0;MAGY;-66.0;MAGZ;-5.0
MOT;0;1000.0;1;1000.0;2;1000.0;3;1000.0;4;0.0;5;0.0;6;0.0;7;0.0;
RC;ROLL;1518.0;PITCH;1486.0;YAW;1500.0;THROTTLE;1067.0;AUX1;1536.0;AUX2;1500.0;AUX3;1500.0;AUX4;1500.0
ALTITUDE;20.0
DEBUG;DEBUG120.0;DEBUG2;139.0;DEBUG3;765.0;DEBUG4;0.0
ATTITUDE;ANGX;0.0;ANGY;0.0;HEAD;-165.0
STATUS;CYCLETIME;2872;I2CERR;0;PRESENT;23;MODE;66
RAW_IMU;AX;3.0;AY;1.0;AZ;255.0;GX;0.0;GY;0.0;GZ;0.0;MAGX;4.0;MAGY;-66.0;MAGZ;-5.0
MOT;0;1000.0;1;1000.0;2;1000.0;3;1000.0;4;0.0;5;0.0;6;0.0;7;0.0;
RC;ROLL;1520.0;PITCH;1484.0;YAW;1500.0;THROTTLE;1067.0;AUX1;1541.0;AUX2;1500.0;AUX3;1500.0;AUX4;1500.0
ALTITUDE;20.0
DEBUG;DEBUG120.0;DEBUG2;139.0;DEBUG3;765.0;DEBUG4;0.0
ATTITUDE;ANGX;0.0;ANGY;0.0;HEAD;-165.0
STATUS;CYCLETIME;2936;I2CERR;0;PRESENT;23;MODE;66
RAW_IMU;AX;3.0;AY;1.0;AZ;255.0;GX;0.0;GY;0.0;GZ;0.0;MAGX;4.0;MAGY;-64.0;MAGZ;-5.0
MOT;0;1000.0;1;1000.0;2;1000.0;3;1000.0;4;0.0;5;0.0;6;0.0;7;0.0;
RC;ROLL;1520.0;PITCH;1484.0;YAW;1500.0;THROTTLE;1067.0;AUX1;1551.0;AUX2;1500.0;AUX3;1500.0;AUX4;1500.0
ALTITUDE;20.0
DEBUG;DEBUG120.0;DEBUG2;139.0;DEBUG3;765.0;DEBUG4;0.0
ATTITUDE;ANGX;0.0;ANGY;0.0;HEAD;-165.0
STATUS;CYCLETIME;3004;I2CERR;0;PRESENT;23;MODE;66
RAW_IMU;AX;3.0;AY;1.0;AZ;255.0;GX;0.0;GY;0.0;GZ;0.0;MAGX;4.0;MAGY;-64.0;MAGZ;-5.0
MOT;0;1000.0;1;1000.0;2;1000.0;3;1000.0;4;0.0;5;0.0;6;0.0;7;0.0;
RC;ROLL;1517.0;PITCH;1484.0;YAW;1500.0;THROTTLE;1067.0;AUX1;1561.0;AUX2;1500.0;AUX3;1500.0;AUX4;1500.0
ALTITUDE;20.0
DEBUG;DEBUG120.0;DEBUG2;139.0;DEBUG3;765.0;DEBUG4;0.0
ATTITUDE;ANGX;0.0;ANGY;0.0;HEAD;-165.0
STATUS;CYCLETIME;2792;I2CERR;0;PRESENT;23;MODE;66
RAW_IMU;AX;2.0;AY;1.0;AZ;256.0;GX;0.0;GY;0.0;GZ;0.0;MAGX;3.0;MAGY;-67.0;MAGZ;-5.0
MOT;0;1000.0;1;1000.0;2;1000.0;3;1000.0;4;0.0;5;0.0;6;0.0;7;0.0;
RC;ROLL;1515.0;PITCH;1484.0;YAW;1500.0;THROTTLE;1067.0;AUX1;1573.0;AUX2;1500.0;AUX3;1500.0;AUX4;1500.0
ALTITUDE;20.0
DEBUG;DEBUG120.0;DEBUG2;139.0;DEBUG3;765.0;DEBUG4;0.0
ATTITUDE;ANGX;0.0;ANGY;0.0;HEAD;-165.0
STATUS;CYCLETIME;2704;I2CERR;0;PRESENT;23;MODE;66
RAW_IMU;AX;3.0;AY;1.0;AZ;256.0;GX;0.0;GY;0.0;GZ;0.0;MAGX;3.0;MAGY;-67.0;MAGZ;-5.0
MOT;0;1000.0;1;1000.0;2;1000.0;3;1000.0;4;0.0;5;0.0;6;0.0;7;0.0;
RC;ROLL;1515.0;PITCH;1484.0;YAW;1500.0;THROTTLE;1067.0;AUX1;1578.0;AUX2;1500.0;AUX3;1500.0;AUX4;1500.0
ALTITUDE;20.0
DEBUG;DEBUG120.0;DEBUG2;139.0;DEBUG3;765.0;DEBUG4;0.0
ATTITUDE;ANGX;0.0;ANGY;0.0;HEAD;-165.0
STATUS;CYCLETIME;2804;I2CERR;0;PRESENT;23;MODE;66
RAW_IMU;AX;3.0;AY;0.0;AZ;256.0;GX;0.0;GY;0.0;GZ;0.0;MAGX;3.0;MAGY;-65.0;MAGZ;-5.0
MOT;0;1000.0;1;1000.0;2;1000.0;3;1000.0;4;0.0;5;0.0;6;0.0;7;0.0;
RC;ROLL;1515.0;PITCH;1484.0;YAW;1500.0;THROTTLE;1067.0;AUX1;1580.0;AUX2;1500.0;AUX3;1500.0;AUX4;1500.0
ALTITUDE;20.0
DEBUG;DEBUG120.0;DEBUG2;139.0;DEBUG3;765.0;DEBUG4;0.0
ATTITUDE;ANGX;0.0;ANGY;0.0;HEAD;-165.0
STATUS;CYCLETIME;2760;I2CERR;0;PRESENT;23;MODE;66
RAW_IMU;AX;3.0;AY;0.0;AZ;256.0;GX;0.0;GY;0.0;GZ;0.0;MAGX;3.0;MAGY;-65.0;MAGZ;-5.0
MOT;0;1000.0;1;1000.0;2;1000.0;3;1000.0;4;0.0;5;0.0;6;0.0;7;0.0;
RC;ROLL;1517.0;PITCH;1482.0;YAW;1500.0;THROTTLE;1067.0;AUX1;1589.0;AUX2;1500.0;AUX3;1500.0;AUX4;1500.0
ALTITUDE;20.0
DEBUG;DEBUG120.0;DEBUG2;139.0;DEBUG3;765.0;DEBUG4;0.0
ATTITUDE;ANGX;0.0;ANGY;0.0;HEAD;-165.0
STATUS;CYCLETIME;2752;I2CERR;0;PRESENT;23;MODE;66
RAW_IMU;AX;3.0;AY;0.0;AZ;256.0;GX;0.0;GY;0.0;GZ;0.0;MAGX;4.0;MAGY;-64.0;MAGZ;-5.0
MOT;0;1000.0;1;1000.0;2;1000.0;3;1000.0;4;0.0;5;0.0;6;0.0;7;0.0;
RC;ROLL;1517.0;PITCH;1482.0;YAW;1500.0;THROTTLE;1067.0;AUX1;1598.0;AUX2;1500.0;AUX3;1500.0;AUX4;1500.0
ALTITUDE;20.0
DEBUG;DEBUG120.0;DEBUG2;139.0;DEBUG3;765.0;DEBUG4;0.0
ATTITUDE;ANGX;0.0;ANGY;0.0;HEAD;-165.0
STATUS;CYCLETIME;2704;I2CERR;0;PRESENT;23;MODE;66
RAW_IMU;AX;3.0;AY;0.0;AZ;256.0;GX;0.0;GY;0.0;GZ;0.0;MAGX;4.0;MAGY;-64.0;MAGZ;-5.0
MOT;0;1000.0;1;1000.0;2;1000.0;3;1000.0;4;0.0;5;0.0;6;0.0;7;0.0;
RC;ROLL;1513.0;PITCH;1484.0;YAW;1500.0;THROTTLE;1064.0;AUX1;1606.0;AUX2;1500.0;AUX3;1500.0;AUX4;1500.0
ALTITUDE;20.0
DEBUG;DEBUG120.0;DEBUG2;139.0;DEBUG3;765.0;DEBUG4;0.0
ATTITUDE;ANGX;0.0;ANGY;0.0;HEAD;-165.0
STATUS;CYCLETIME;2740;I2CERR;0;PRESENT;23;MODE;66
RAW_IMU;AX;3.0;AY;0.0;AZ;256.0;GX;0.0;GY;0.0;GZ;0.0;MAGX;4.0;MAGY;-65.0;MAGZ;-5.0
MOT;0;1000.0;1;1000.0;2;1000.0;3;1000.0;4;0.0;5;0.0;6;0.0;7;0.0;
RC;ROLL;1513.0;PITCH;1484.0;YAW;1500.0;THROTTLE;1064.0;AUX1;1615.0;AUX2;1500.0;AUX3;1500.0;AUX4;1500.0
ALTITUDE;20.0
DEBUG;DEBUG120.0;DEBUG2;139.0;DEBUG3;765.0;DEBUG4;0.0
ATTITUDE;ANGX;0.0;ANGY;0.0;HEAD;-165.0
STATUS;CYCLETIME;2800;I2CERR;0;PRESENT;23;MODE;66
RAW_IMU;AX;3.0;AY;0.0;AZ;256.0;GX;0.0;GY;0.0;GZ;0.0;MAGX;4.0;MAGY;-65.0;MAGZ;-5.0
MOT;0;1000.0;1;1000.0;2;1000.0;3;1000.0;4;0.0;5;0.0;6;0.0;7;0.0;
RC;ROLL;1513.0;PITCH;1484.0;YAW;1500.0;THROTTLE;1066.0;AUX1;1631.0;AUX2;1500.0;AUX3;1500.0;AUX4;1500.0
ALTITUDE;20.0
DEBUG;DEBUG120.0;DEBUG2;139.0;DEBUG3;765.0;DEBUG4;0.0
ATTITUDE;ANGX;0.0;ANGY;0.0;HEAD;-165.0
STATUS;CYCLETIME;2992;I2CERR;0;PRESENT;23;MODE;66
RAW_IMU;AX;3.0;AY;0.0;AZ;256.0;GX;0.0;GY;0.0;GZ;0.0;MAGX;4.0;MAGY;-66.0;MAGZ;-5.0
MOT;0;1000.0;1;1000.0;2;1000.0;3;1000.0;4;0.0;5;0.0;6;0.0;7;0.0;
RC;ROLL;1513.0;PITCH;1484.0;YAW;1500.0;THROTTLE;1066.0;AUX1;1636.0;AUX2;1500.0;AUX3;1500.0;AUX4;1500.0
ALTITUDE;20.0
DEBUG;DEBUG120.0;DEBUG2;139.0;DEBUG3;765.0;DEBUG4;0.0
ATTITUDE;ANGX;0.0;ANGY;0.0;HEAD;-165.0
STATUS;CYCLETIME;2720;I2CERR;0;PRESENT;23;MODE;66
RAW_IMU;AX;2.0;AY;0.0;AZ;256.0;GX;0.0;GY;0.0;GZ;0.0;MAGX;4.0;MAGY;-66.0;MAGZ;-5.0
MOT;0;1000.0;1;1000.0;2;1000.0;3;1000.0;4;0.0;5;0.0;6;0.0;7;0.0;
RC;ROLL;1515.0;PITCH;1484.0;YAW;1500.0;THROTTLE;1066.0;AUX1;1640.0;AUX2;1500.0;AUX3;1500.0;AUX4;1500.0
ALTITUDE;20.0
DEBUG;DEBUG120.0;DEBUG2;139.0;DEBUG3;765.0;DEBUG4;0.0
ATTITUDE;ANGX;0.0;ANGY;0.0;HEAD;-165.0
STATUS;CYCLETIME;2792;I2CERR;0;PRESENT;23;MODE;66
RAW_IMU;AX;3.0;AY;1.0;AZ;256.0;GX;0.0;GY;0.0;GZ;0.0;MAGX;4.0;MAGY;-66.0;MAGZ;-5.0
MOT;0;1000.0;1;1000.0;2;1000.0;3;1000.0;4;0.0;5;0.0;6;0.0;7;0.0;
RC;ROLL;1517.0;PITCH;1482.0;YAW;1500.0;THROTTLE;1066.0;AUX1;1647.0;AUX2;1500.0;AUX3;1500.0;AUX4;1500.0
ALTITUDE;20.0
DEBUG;DEBUG120.0;DEBUG2;139.0;DEBUG3;765.0;DEBUG4;0.0
ATTITUDE;ANGX;0.0;ANGY;0.0;HEAD;-165.0
STATUS;CYCLETIME;2740;I2CERR;0;PRESENT;23;MODE;66
RAW_IMU;AX;3.0;AY;1.0;AZ;256.0;GX;0.0;GY;0.0;GZ;0.0;MAGX;4.0;MAGY;-66.0;MAGZ;-5.0
MOT;0;1000.0;1;1000.0;2;1000.0;3;1000.0;4;0.0;5;0.0;6;0.0;7;0.0;
RC;ROLL;1517.0;PITCH;1482.0;YAW;1500.0;THROTTLE;1066.0;AUX1;1655.0;AUX2;1500.0;AUX3;1500.0;AUX4;1500.0
ALTITUDE;20.0
DEBUG;DEBUG120.0;DEBUG2;139.0;DEBUG3;765.0;DEBUG4;0.0
ATTITUDE;ANGX;0.0;ANGY;0.0;HEAD;-165.0
STATUS;CYCLETIME;2780;I2CERR;0;PRESENT;23;MODE;66
RAW_IMU;AX;3.0;AY;1.0;AZ;255.0;GX;0.0;GY;0.0;GZ;0.0;MAGX;4.0;MAGY;-66.0;MAGZ;-5.0
MOT;0;1000.0;1;1000.0;2;1000.0;3;1000.0;4;0.0;5;0.0;6;0.0;7;0.0;
RC;ROLL;1514.0;PITCH;1485.0;YAW;1500.0;THROTTLE;1066.0;AUX1;1663.0;AUX2;1500.0;AUX3;1500.0;AUX4;1500.0
ALTITUDE;20.0
DEBUG;DEBUG120.0;DEBUG2;139.0;DEBUG3;765.0;DEBUG4;0.0
ATTITUDE;ANGX;0.0;ANGY;0.0;HEAD;-165.0
STATUS;CYCLETIME;2992;I2CERR;0;PRESENT;23;MODE;66
RAW_IMU;AX;3.0;AY;1.0;AZ;255.0;GX;0.0;GY;0.0;GZ;0.0;MAGX;5.0;MAGY;-64.0;MAGZ;-5.0
MOT;0;1000.0;1;1000.0;2;1000.0;3;1000.0;4;0.0;5;0.0;6;0.0;7;0.0;
RC;ROLL;1514.0;PITCH;1485.0;YAW;1500.0;THROTTLE;1066.0;AUX1;1678.0;AUX2;1500.0;AUX3;1500.0;AUX4;1500.0
ALTITUDE;20.0
DEBUG;DEBUG120.0;DEBUG2;139.0;DEBUG3;765.0;DEBUG4;0.0
ATTITUDE;ANGX;0.0;ANGY;0.0;HEAD;-165.0
STATUS;CYCLETIME;2748;I2CERR;0;PRESENT;23;MODE;66
RAW_IMU;AX;3.0;AY;1.0;AZ;255.0;GX;0.0;GY;0.0;GZ;0.0;MAGX;5.0;MAGY;-64.0;MAGZ;-5.0
MOT;0;1000.0;1;1000.0;2;1000.0;3;1000.0;4;0.0;5;0.0;6;0.0;7;0.0;
RC;ROLL;1514.0;PITCH;1485.0;YAW;1500.0;THROTTLE;1066.0;AUX1;1688.0;AUX2;1500.0;AUX3;1500.0;AUX4;1500.0
ALTITUDE;20.0
DEBUG;DEBUG120.0;DEBUG2;139.0;DEBUG3;765.0;DEBUG4;0.0
ATTITUDE;ANGX;0.0;ANGY;0.0;HEAD;-165.0
STATUS;CYCLETIME;2776;I2CERR;0;PRESENT;23;MODE;66
RAW_IMU;AX;3.0;AY;1.0;AZ;255.0;GX;0.0;GY;0.0;GZ;0.0;MAGX;3.0;MAGY;-66.0;MAGZ;-6.0
MOT;0;1000.0;1;1000.0;2;1000.0;3;1000.0;4;0.0;5;0.0;6;0.0;7;0.0;
RC;ROLL;1514.0;PITCH;1485.0;YAW;1500.0;THROTTLE;1066.0;AUX1;1692.0;AUX2;1500.0;AUX3;1500.0;AUX4;1500.0
ALTITUDE;20.0
DEBUG;DEBUG120.0;DEBUG2;139.0;DEBUG3;765.0;DEBUG4;0.0
ATTITUDE;ANGX;0.0;ANGY;0.0;HEAD;-165.0
STATUS;CYCLETIME;2780;I2CERR;0;PRESENT;23;MODE;66
RAW_IMU;AX;3.0;AY;0.0;AZ;256.0;GX;0.0;GY;0.0;GZ;0.0;MAGX;3.0;MAGY;-66.0;MAGZ;-6.0
MOT;0;1000.0;1;1000.0;2;1000.0;3;1000.0;4;0.0;5;0.0;6;0.0;7;0.0;
RC;ROLL;1517.0;PITCH;1485.0;YAW;1500.0;THROTTLE;1066.0;AUX1;1698.0;AUX2;1500.0;AUX3;1500.0;AUX4;1500.0
ALTITUDE;20.0
DEBUG;DEBUG120.0;DEBUG2;139.0;DEBUG3;765.0;DEBUG4;0.0
ATTITUDE;ANGX;0.0;ANGY;0.0;HEAD;-165.0
STATUS;CYCLETIME;2828;I2CERR;0;PRESENT;23;MODE;66
RAW_IMU;AX;3.0;AY;0.0;AZ;256.0;GX;0.0;GY;0.0;GZ;0.0;MAGX;4.0;MAGY;-64.0;MAGZ;-6.0
MOT;0;1000.0;1;1000.0;2;1000.0;3;1000.0;4;0.0;5;0.0;6;0.0;7;0.0;
RC;ROLL;1517.0;PITCH;1485.0;YAW;1500.0;THROTTLE;1066.0;AUX1;1706.0;AUX2;1500.0;AUX3;1500.0;AUX4;1500.0
ALTITUDE;20.0
DEBUG;DEBUG120.0;DEBUG2;139.0;DEBUG3;765.0;DEBUG4;0.0
ATTITUDE;ANGX;0.0;ANGY;0.0;HEAD;-165.0
STATUS;CYCLETIME;2740;I2CERR;0;PRESENT;23;MODE;66
RAW_IMU;AX;3.0;AY;1.0;AZ;255.0;GX;0.0;GY;0.0;GZ;0.0;MAGX;4.0;MAGY;-64.0;MAGZ;-6.0
MOT;0;1000.0;1;1000.0;2;1000.0;3;1000.0;4;0.0;5;0.0;6;0.0;7;0.0;
RC;ROLL;1517.0;PITCH;1483.0;YAW;1500.0;THROTTLE;1066.0;AUX1;1713.0;AUX2;1500.0;AUX3;1500.0;AUX4;1500.0
ALTITUDE;20.0
DEBUG;DEBUG120.0;DEBUG2;139.0;DEBUG3;765.0;DEBUG4;0.0
ATTITUDE;ANGX;0.0;ANGY;0.0;HEAD;-165.0
STATUS;CYCLETIME;2768;I2CERR;0;PRESENT;23;MODE;66
RAW_IMU;AX;3.0;AY;1.0;AZ;255.0;GX;0.0;GY;0.0;GZ;0.0;MAGX;3.0;MAGY;-66.0;MAGZ;-5.0
MOT;0;1000.0;1;1000.0;2;1000.0;3;1000.0;4;0.0;5;0.0;6;0.0;7;0.0;
RC;ROLL;1517.0;PITCH;1485.0;YAW;1500.0;THROTTLE;1066.0;AUX1;1719.0;AUX2;1500.0;AUX3;1500.0;AUX4;1500.0
ALTITUDE;20.0
DEBUG;DEBUG120.0;DEBUG2;139.0;DEBUG3;765.0;DEBUG4;0.0
ATTITUDE;ANGX;0.0;ANGY;0.0;HEAD;-165.0
STATUS;CYCLETIME;2876;I2CERR;0;PRESENT;23;MODE;66
RAW_IMU;AX;3.0;AY;1.0;AZ;255.0;GX;0.0;GY;0.0;GZ;0.0;MAGX;3.0;MAGY;-66.0;MAGZ;-5.0
MOT;0;1000.0;1;1000.0;2;1000.0;3;1000.0;4;0.0;5;0.0;6;0.0;7;0.0;
RC;ROLL;1513.0;PITCH;1485.0;YAW;1500.0;THROTTLE;1066.0;AUX1;1719.0;AUX2;1500.0;AUX3;1500.0;AUX4;1500.0
ALTITUDE;20.0
DEBUG;DEBUG120.0;DEBUG2;139.0;DEBUG3;765.0;DEBUG4;0.0
ATTITUDE;ANGX;0.0;ANGY;0.0;HEAD;-165.0
STATUS;CYCLETIME;2804;I2CERR;0;PRESENT;23;MODE;66
RAW_IMU;AX;3.0;AY;1.0;AZ;255.0;GX;0.0;GY;0.0;GZ;0.0;MAGX;3.0;MAGY;-65.0;MAGZ;-6.0
MOT;0;1000.0;1;1000.0;2;1000.0;3;1000.0;4;0.0;5;0.0;6;0.0;7;0.0;
RC;ROLL;1513.0;PITCH;1485.0;YAW;1500.0;THROTTLE;1066.0;AUX1;1714.0;AUX2;1500.0;AUX3;1500.0;AUX4;1500.0
ALTITUDE;20.0
DEBUG;DEBUG120.0;DEBUG2;139.0;DEBUG3;765.0;DEBUG4;0.0
ATTITUDE;ANGX;0.0;ANGY;0.0;HEAD;-165.0
STATUS;CYCLETIME;2752;I2CERR;0;PRESENT;23;MODE;66
RAW_IMU;AX;3.0;AY;1.0;AZ;255.0;GX;0.0;GY;0.0;GZ;0.0;MAGX;3.0;MAGY;-65.0;MAGZ;-6.0
MOT;0;1000.0;1;1000.0;2;1000.0;3;1000.0;4;0.0;5;0.0;6;0.0;7;0.0;
RC;ROLL;1517.0;PITCH;1483.0;YAW;1500.0;THROTTLE;1066.0;AUX1;1706.0;AUX2;1500.0;AUX3;1500.0;AUX4;1500.0
ALTITUDE;20.0
DEBUG;DEBUG120.0;DEBUG2;139.0;DEBUG3;765.0;DEBUG4;0.0
ATTITUDE;ANGX;0.0;ANGY;0.0;HEAD;-165.0
STATUS;CYCLETIME;2724;I2CERR;0;PRESENT;23;MODE;66
RAW_IMU;AX;3.0;AY;1.0;AZ;255.0;GX;0.0;GY;0.0;GZ;0.0;MAGX;4.0;MAGY;-65.0;MAGZ;-5.0
MOT;0;1000.0;1;1000.0;2;1000.0;3;1000.0;4;0.0;5;0.0;6;0.0;7;0.0;
RC;ROLL;1517.0;PITCH;1483.0;YAW;1500.0;THROTTLE;1066.0;AUX1;1691.0;AUX2;1500.0;AUX3;1500.0;AUX4;1500.0
ALTITUDE;20.0
DEBUG;DEBUG120.0;DEBUG2;139.0;DEBUG3;765.0;DEBUG4;0.0
ATTITUDE;ANGX;0.0;ANGY;0.0;HEAD;-165.0
STATUS;CYCLETIME;2768;I2CERR;0;PRESENT;23;MODE;66
RAW_IMU;AX;3.0;AY;1.0;AZ;255.0;GX;0.0;GY;0.0;GZ;0.0;MAGX;4.0;MAGY;-65.0;MAGZ;-5.0
MOT;0;1000.0;1;1000.0;2;1000.0;3;1000.0;4;0.0;5;0.0;6;0.0;7;0.0;
RC;ROLL;1517.0;PITCH;1483.0;YAW;1500.0;THROTTLE;1066.0;AUX1;1688.0;AUX2;1500.0;AUX3;1500.0;AUX4;1500.0
ALTITUDE;20.0
DEBUG;DEBUG120.0;DEBUG2;139.0;DEBUG3;765.0;DEBUG4;0.0
ATTITUDE;ANGX;0.0;ANGY;0.0;HEAD;-165.0
STATUS;CYCLETIME;2768;I2CERR;0;PRESENT;23;MODE;66
RAW_IMU;AX;3.0;AY;1.0;AZ;255.0;GX;0.0;GY;0.0;GZ;0.0;MAGX;3.0;MAGY;-66.0;MAGZ;-5.0
MOT;0;1000.0;1;1000.0;2;1000.0;3;1000.0;4;0.0;5;0.0;6;0.0;7;0.0;
RC;ROLL;1517.0;PITCH;1483.0;YAW;1500.0;THROTTLE;1066.0;AUX1;1686.0;AUX2;1500.0;AUX3;1500.0;AUX4;1500.0
ALTITUDE;20.0
DEBUG;DEBUG120.0;DEBUG2;139.0;DEBUG3;765.0;DEBUG4;0.0
ATTITUDE;ANGX;0.0;ANGY;0.0;HEAD;-165.0
STATUS;CYCLETIME;2948;I2CERR;0;PRESENT;23;MODE;66
RAW_IMU;AX;2.0;AY;1.0;AZ;255.0;GX;0.0;GY;0.0;GZ;0.0;MAGX;3.0;MAGY;-66.0;MAGZ;-5.0
MOT;0;1000.0;1;1000.0;2;1000.0;3;1000.0;4;0.0;5;0.0;6;0.0;7;0.0;
RC;ROLL;1514.0;PITCH;1485.0;YAW;1500.0;THROTTLE;1066.0;AUX1;1678.0;AUX2;1500.0;AUX3;1500.0;AUX4;1500.0
ALTITUDE;20.0
DEBUG;DEBUG120.0;DEBUG2;139.0;DEBUG3;765.0;DEBUG4;0.0
ATTITUDE;ANGX;0.0;ANGY;0.0;HEAD;-165.0
STATUS;CYCLETIME;2856;I2CERR;0;PRESENT;23;MODE;66
RAW_IMU;AX;3.0;AY;0.0;AZ;255.0;GX;0.0;GY;0.0;GZ;0.0;MAGX;4.0;MAGY;-66.0;MAGZ;-6.0
MOT;0;1000.0;1;1000.0;2;1000.0;3;1000.0;4;0.0;5;0.0;6;0.0;7;0.0;
RC;ROLL;1514.0;PITCH;1485.0;YAW;1500.0;THROTTLE;1066.0;AUX1;1678.0;AUX2;1500.0;AUX3;1500.0;AUX4;1500.0
ALTITUDE;20.0
DEBUG;DEBUG120.0;DEBUG2;139.0;DEBUG3;765.0;DEBUG4;0.0
ATTITUDE;ANGX;0.0;ANGY;0.0;HEAD;-165.0
STATUS;CYCLETIME;2780;I2CERR;0;PRESENT;23;MODE;66
RAW_IMU;AX;3.0;AY;1.0;AZ;255.0;GX;0.0;GY;0.0;GZ;0.0;MAGX;4.0;MAGY;-66.0;MAGZ;-6.0
MOT;0;1000.0;1;1000.0;2;1000.0;3;1000.0;4;0.0;5;0.0;6;0.0;7;0.0;
RC;ROLL;1514.0;PITCH;1485.0;YAW;1500.0;THROTTLE;1066.0;AUX1;1682.0;AUX2;1500.0;AUX3;1500.0;AUX4;1500.0
ALTITUDE;20.0
DEBUG;DEBUG120.0;DEBUG2;139.0;DEBUG3;765.0;DEBUG4;0.0
ATTITUDE;ANGX;0.0;ANGY;0.0;HEAD;-165.0
STATUS;CYCLETIME;2776;I2CERR;0;PRESENT;23;MODE;66
RAW_IMU;AX;3.0;AY;1.0;AZ;255.0;GX;0.0;GY;0.0;GZ;0.0;MAGX;3.0;MAGY;-67.0;MAGZ;-5.0
MOT;0;1000.0;1;1000.0;2;1000.0;3;1000.0;4;0.0;5;0.0;6;0.0;7;0.0;
RC;ROLL;1517.0;PITCH;1482.0;YAW;1500.0;THROTTLE;1066.0;AUX1;1682.0;AUX2;1500.0;AUX3;1500.0;AUX4;1500.0
ALTITUDE;20.0
DEBUG;DEBUG120.0;DEBUG2;139.0;DEBUG3;765.0;DEBUG4;0.0
ATTITUDE;ANGX;0.0;ANGY;0.0;HEAD;-165.0
STATUS;CYCLETIME;2748;I2CERR;0;PRESENT;23;MODE;66
RAW_IMU;AX;3.0;AY;1.0;AZ;255.0;GX;0.0;GY;0.0;GZ;0.0;MAGX;3.0;MAGY;-67.0;MAGZ;-5.0
MOT;0;1000.0;1;1000.0;2;1000.0;3;1000.0;4;0.0;5;0.0;6;0.0;7;0.0;
RC;ROLL;1517.0;PITCH;1482.0;YAW;1500.0;THROTTLE;1066.0;AUX1;1682.0;AUX2;1500.0;AUX3;1500.0;AUX4;1500.0
ALTITUDE;20.0
DEBUG;DEBUG120.0;DEBUG2;139.0;DEBUG3;765.0;DEBUG4;0.0
ATTITUDE;ANGX;0.0;ANGY;0.0;HEAD;-165.0
STATUS;CYCLETIME;3008;I2CERR;0;PRESENT;23;MODE;66
RAW_IMU;AX;3.0;AY;0.0;AZ;255.0;GX;0.0;GY;0.0;GZ;0.0;MAGX;4.0;MAGY;-65.0;MAGZ;-6.0
MOT;0;1000.0;1;1000.0;2;1000.0;3;1000.0;4;0.0;5;0.0;6;0.0;7;0.0;
RC;ROLL;1517.0;PITCH;1482.0;YAW;1500.0;THROTTLE;1066.0;AUX1;1682.0;AUX2;1500.0;AUX3;1500.0;AUX4;1500.0
ALTITUDE;20.0
DEBUG;DEBUG120.0;DEBUG2;139.0;DEBUG3;765.0;DEBUG4;0.0
ATTITUDE;ANGX;0.0;ANGY;0.0;HEAD;-166.0
STATUS;CYCLETIME;2792;I2CERR;0;PRESENT;23;MODE;66
RAW_IMU;AX;4.0;AY;0.0;AZ;256.0;GX;0.0;GY;0.0;GZ;0.0;MAGX;4.0;MAGY;-65.0;MAGZ;-6.0
MOT;0;1000.0;1;1000.0;2;1000.0;3;1000.0;4;0.0;5;0.0;6;0.0;7;0.0;
RC;ROLL;1515.0;PITCH;1487.0;YAW;1500.0;THROTTLE;1066.0;AUX1;1682.0;AUX2;1500.0;AUX3;1500.0;AUX4;1500.0
ALTITUDE;20.0
DEBUG;DEBUG120.0;DEBUG2;139.0;DEBUG3;765.0;DEBUG4;0.0
ATTITUDE;ANGX;0.0;ANGY;0.0;HEAD;-166.0
STATUS;CYCLETIME;2924;I2CERR;0;PRESENT;23;MODE;66
RAW_IMU;AX;3.0;AY;0.0;AZ;255.0;GX;0.0;GY;0.0;GZ;0.0;MAGX;4.0;MAGY;-66.0;MAGZ;-5.0
MOT;0;1000.0;1;1000.0;2;1000.0;3;1000.0;4;0.0;5;0.0;6;0.0;7;0.0;
RC;ROLL;1515.0;PITCH;1487.0;YAW;1500.0;THROTTLE;1066.0;AUX1;1677.0;AUX2;1500.0;AUX3;1500.0;AUX4;1500.0
ALTITUDE;20.0
DEBUG;DEBUG120.0;DEBUG2;139.0;DEBUG3;765.0;DEBUG4;0.0
ATTITUDE;ANGX;0.0;ANGY;0.0;HEAD;-165.0
STATUS;CYCLETIME;2832;I2CERR;0;PRESENT;23;MODE;66
RAW_IMU;AX;3.0;AY;1.0;AZ;255.0;GX;0.0;GY;0.0;GZ;0.0;MAGX;4.0;MAGY;-66.0;MAGZ;-5.0
MOT;0;1000.0;1;1000.0;2;1000.0;3;1000.0;4;0.0;5;0.0;6;0.0;7;0.0;
RC;ROLL;1515.0;PITCH;1487.0;YAW;1500.0;THROTTLE;1066.0;AUX1;1675.0;AUX2;1500.0;AUX3;1500.0;AUX4;1500.0
ALTITUDE;20.0
DEBUG;DEBUG120.0;DEBUG2;139.0;DEBUG3;765.0;DEBUG4;0.0
ATTITUDE;ANGX;0.0;ANGY;0.0;HEAD;-165.0
STATUS;CYCLETIME;2816;I2CERR;0;PRESENT;23;MODE;66
RAW_IMU;AX;4.0;AY;1.0;AZ;255.0;GX;0.0;GY;0.0;GZ;0.0;MAGX;5.0;MAGY;-65.0;MAGZ;-6.0
MOT;0;1000.0;1;1000.0;2;1000.0;3;1000.0;4;0.0;5;0.0;6;0.0;7;0.0;
RC;ROLL;1515.0;PITCH;1487.0;YAW;1500.0;THROTTLE;1066.0;AUX1;1668.0;AUX2;1500.0;AUX3;1500.0;AUX4;1500.0
ALTITUDE;20.0
DEBUG;DEBUG120.0;DEBUG2;139.0;DEBUG3;765.0;DEBUG4;0.0
ATTITUDE;ANGX;0.0;ANGY;0.0;HEAD;-165.0
STATUS;CYCLETIME;2748;I2CERR;0;PRESENT;23;MODE;66
RAW_IMU;AX;4.0;AY;1.0;AZ;255.0;GX;0.0;GY;0.0;GZ;0.0;MAGX;5.0;MAGY;-65.0;MAGZ;-6.0
MOT;0;1000.0;1;1000.0;2;1000.0;3;1000.0;4;0.0;5;0.0;6;0.0;7;0.0;
RC;ROLL;1515.0;PITCH;1485.0;YAW;1500.0;THROTTLE;1066.0;AUX1;1656.0;AUX2;1500.0;AUX3;1500.0;AUX4;1500.0
ALTITUDE;20.0
DEBUG;DEBUG120.0;DEBUG2;139.0;DEBUG3;765.0;DEBUG4;0.0
ATTITUDE;ANGX;0.0;ANGY;0.0;HEAD;-165.0
STATUS;CYCLETIME;2780;I2CERR;0;PRESENT;23;MODE;66
RAW_IMU;AX;4.0;AY;1.0;AZ;256.0;GX;0.0;GY;0.0;GZ;0.0;MAGX;5.0;MAGY;-65.0;MAGZ;-6.0
MOT;0;1000.0;1;1000.0;2;1000.0;3;1000.0;4;0.0;5;0.0;6;0.0;7;0.0;
RC;ROLL;1515.0;PITCH;1485.0;YAW;1500.0;THROTTLE;1066.0;AUX1;1643.0;AUX2;1500.0;AUX3;1500.0;AUX4;1500.0
ALTITUDE;20.0
DEBUG;DEBUG120.0;DEBUG2;139.0;DEBUG3;765.0;DEBUG4;0.0
ATTITUDE;ANGX;0.0;ANGY;0.0;HEAD;-165.0
STATUS;CYCLETIME;2988;I2CERR;0;PRESENT;23;MODE;66
RAW_IMU;AX;4.0;AY;1.0;AZ;256.0;GX;0.0;GY;0.0;GZ;0.0;MAGX;3.0;MAGY;-66.0;MAGZ;-5.0
MOT;0;1000.0;1;1000.0;2;1000.0;3;1000.0;4;0.0;5;0.0;6;0.0;7;0.0;
RC;ROLL;1515.0;PITCH;1483.0;YAW;1500.0;THROTTLE;1066.0;AUX1;1636.0;AUX2;1500.0;AUX3;1500.0;AUX4;1500.0
ALTITUDE;20.0
DEBUG;DEBUG120.0;DEBUG2;139.0;DEBUG3;765.0;DEBUG4;0.0
ATTITUDE;ANGX;0.0;ANGY;0.0;HEAD;-165.0
STATUS;CYCLETIME;2736;I2CERR;0;PRESENT;23;MODE;66
RAW_IMU;AX;4.0;AY;1.0;AZ;256.0;GX;0.0;GY;0.0;GZ;0.0;MAGX;3.0;MAGY;-66.0;MAGZ;-5.0
MOT;0;1000.0;1;1000.0;2;1000.0;3;1000.0;4;0.0;5;0.0;6;0.0;7;0.0;
RC;ROLL;1515.0;PITCH;1483.0;YAW;1500.0;THROTTLE;1066.0;AUX1;1629.0;AUX2;1500.0;AUX3;1500.0;AUX4;1500.0
ALTITUDE;20.0
DEBUG;DEBUG120.0;DEBUG2;180.0;DEBUG3;765.0;DEBUG4;0.0
ATTITUDE;ANGX;0.0;ANGY;0.0;HEAD;-165.0
STATUS;CYCLETIME;2712;I2CERR;0;PRESENT;23;MODE;66
RAW_IMU;AX;4.0;AY;0.0;AZ;256.0;GX;0.0;GY;0.0;GZ;0.0;MAGX;3.0;MAGY;-64.0;MAGZ;-6.0
MOT;0;1000.0;1;1000.0;2;1000.0;3;1000.0;4;0.0;5;0.0;6;0.0;7;0.0;
RC;ROLL;1515.0;PITCH;1483.0;YAW;1500.0;THROTTLE;1066.0;AUX1;1619.0;AUX2;1500.0;AUX3;1500.0;AUX4;1500.0
ALTITUDE;20.0
DEBUG;DEBUG120.0;DEBUG2;180.0;DEBUG3;765.0;DEBUG4;0.0
ATTITUDE;ANGX;0.0;ANGY;0.0;HEAD;-165.0
STATUS;CYCLETIME;2672;I2CERR;0;PRESENT;23;MODE;66
RAW_IMU;AX;4.0;AY;0.0;AZ;256.0;GX;0.0;GY;0.0;GZ;0.0;MAGX;3.0;MAGY;-64.0;MAGZ;-6.0
MOT;0;1000.0;1;1000.0;2;1000.0;3;1000.0;4;0.0;5;0.0;6;0.0;7;0.0;
RC;ROLL;1515.0;PITCH;1483.0;YAW;1500.0;THROTTLE;1066.0;AUX1;1615.0;AUX2;1500.0;AUX3;1500.0;AUX4;1500.0
ALTITUDE;20.0
DEBUG;DEBUG120.0;DEBUG2;180.0;DEBUG3;765.0;DEBUG4;0.0
ATTITUDE;ANGX;0.0;ANGY;0.0;HEAD;-165.0
STATUS;CYCLETIME;2728;I2CERR;0;PRESENT;23;MODE;66
RAW_IMU;AX;4.0;AY;0.0;AZ;256.0;GX;0.0;GY;0.0;GZ;0.0;MAGX;3.0;MAGY;-67.0;MAGZ;-5.0
MOT;0;1000.0;1;1000.0;2;1000.0;3;1000.0;4;0.0;5;0.0;6;0.0;7;0.0;
RC;ROLL;1515.0;PITCH;1483.0;YAW;1500.0;THROTTLE;1066.0;AUX1;1608.0;AUX2;1500.0;AUX3;1500.0;AUX4;1500.0
ALTITUDE;20.0
DEBUG;DEBUG120.0;DEBUG2;180.0;DEBUG3;765.0;DEBUG4;0.0
ATTITUDE;ANGX;0.0;ANGY;0.0;HEAD;-165.0
STATUS;CYCLETIME;2748;I2CERR;0;PRESENT;23;MODE;66
RAW_IMU;AX;4.0;AY;0.0;AZ;256.0;GX;0.0;GY;0.0;GZ;0.0;MAGX;3.0;MAGY;-67.0;MAGZ;-5.0
MOT;0;1000.0;1;1000.0;2;1000.0;3;1000.0;4;0.0;5;0.0;6;0.0;7;0.0;
RC;ROLL;1518.0;PITCH;1480.0;YAW;1500.0;THROTTLE;1066.0;AUX1;1595.0;AUX2;1500.0;AUX3;1500.0;AUX4;1500.0
ALTITUDE;20.0
DEBUG;DEBUG120.0;DEBUG2;180.0;DEBUG3;765.0;DEBUG4;0.0
ATTITUDE;ANGX;0.0;ANGY;0.0;HEAD;-165.0
STATUS;CYCLETIME;2836;I2CERR;0;PRESENT;23;MODE;66
RAW_IMU;AX;3.0;AY;0.0;AZ;256.0;GX;0.0;GY;0.0;GZ;0.0;MAGX;4.0;MAGY;-67.0;MAGZ;-5.0
MOT;0;1000.0;1;1000.0;2;1000.0;3;1000.0;4;0.0;5;0.0;6;0.0;7;0.0;
RC;ROLL;1518.0;PITCH;1480.0;YAW;1500.0;THROTTLE;1066.0;AUX1;1587.0;AUX2;1500.0;AUX3;1500.0;AUX4;1500.0
ALTITUDE;20.0
DEBUG;DEBUG120.0;DEBUG2;180.0;DEBUG3;765.0;DEBUG4;0.0
ATTITUDE;ANGX;0.0;ANGY;0.0;HEAD;-165.0
STATUS;CYCLETIME;2812;I2CERR;0;PRESENT;23;MODE;66
RAW_IMU;AX;3.0;AY;0.0;AZ;256.0;GX;0.0;GY;0.0;GZ;0.0;MAGX;4.0;MAGY;-67.0;MAGZ;-5.0
MOT;0;1000.0;1;1000.0;2;1000.0;3;1000.0;4;0.0;5;0.0;6;0.0;7;0.0;
RC;ROLL;1518.0;PITCH;1480.0;YAW;1500.0;THROTTLE;1066.0;AUX1;1578.0;AUX2;1500.0;AUX3;1500.0;AUX4;1500.0
ALTITUDE;20.0
DEBUG;DEBUG120.0;DEBUG2;180.0;DEBUG3;765.0;DEBUG4;0.0
ATTITUDE;ANGX;0.0;ANGY;0.0;HEAD;-165.0
STATUS;CYCLETIME;2712;I2CERR;0;PRESENT;23;MODE;66
RAW_IMU;AX;3.0;AY;0.0;AZ;256.0;GX;0.0;GY;0.0;GZ;0.0;MAGX;4.0;MAGY;-67.0;MAGZ;-6.0
MOT;0;1000.0;1;1000.0;2;1000.0;3;1000.0;4;0.0;5;0.0;6;0.0;7;0.0;
RC;ROLL;1516.0;PITCH;1483.0;YAW;1500.0;THROTTLE;1066.0;AUX1;1572.0;AUX2;1500.0;AUX3;1500.0;AUX4;1500.0
ALTITUDE;20.0
DEBUG;DEBUG120.0;DEBUG2;180.0;DEBUG3;765.0;DEBUG4;0.0
ATTITUDE;ANGX;0.0;ANGY;0.0;HEAD;-165.0
STATUS;CYCLETIME;2844;I2CERR;0;PRESENT;23;MODE;66
RAW_IMU;AX;3.0;AY;0.0;AZ;256.0;GX;0.0;GY;0.0;GZ;0.0;MAGX;4.0;MAGY;-67.0;MAGZ;-6.0
MOT;0;1000.0;1;1000.0;2;1000.0;3;1000.0;4;0.0;5;0.0;6;0.0;7;0.0;
RC;ROLL;1514.0;PITCH;1485.0;YAW;1500.0;THROTTLE;1066.0;AUX1;1565.0;AUX2;1500.0;AUX3;1500.0;AUX4;1500.0
ALTITUDE;20.0
DEBUG;DEBUG120.0;DEBUG2;180.0;DEBUG3;765.0;DEBUG4;0.0
ATTITUDE;ANGX;0.0;ANGY;0.0;HEAD;-165.0
STATUS;CYCLETIME;2772;I2CERR;0;PRESENT;23;MODE;66
RAW_IMU;AX;3.0;AY;0.0;AZ;255.0;GX;0.0;GY;0.0;GZ;0.0;MAGX;4.0;MAGY;-67.0;MAGZ;-6.0
MOT;0;1000.0;1;1000.0;2;1000.0;3;1000.0;4;0.0;5;0.0;6;0.0;7;0.0;
RC;ROLL;1514.0;PITCH;1485.0;YAW;1500.0;THROTTLE;1066.0;AUX1;1557.0;AUX2;1500.0;AUX3;1500.0;AUX4;1500.0
ALTITUDE;20.0
DEBUG;DEBUG120.0;DEBUG2;180.0;DEBUG3;765.0;DEBUG4;0.0
ATTITUDE;ANGX;0.0;ANGY;0.0;HEAD;-165.0
STATUS;CYCLETIME;2804;I2CERR;0;PRESENT;23;MODE;66
RAW_IMU;AX;3.0;AY;0.0;AZ;256.0;GX;0.0;GY;0.0;GZ;0.0;MAGX;4.0;MAGY;-67.0;MAGZ;-6.0
MOT;0;1000.0;1;1000.0;2;1000.0;3;1000.0;4;0.0;5;0.0;6;0.0;7;0.0;
RC;ROLL;1516.0;PITCH;1485.0;YAW;1500.0;THROTTLE;1066.0;AUX1;1549.0;AUX2;1500.0;AUX3;1500.0;AUX4;1500.0
ALTITUDE;20.0
DEBUG;DEBUG120.0;DEBUG2;180.0;DEBUG3;765.0;DEBUG4;0.0
ATTITUDE;ANGX;0.0;ANGY;0.0;HEAD;-165.0
STATUS;CYCLETIME;2748;I2CERR;0;PRESENT;23;MODE;66
RAW_IMU;AX;3.0;AY;0.0;AZ;255.0;GX;0.0;GY;0.0;GZ;0.0;MAGX;4.0;MAGY;-65.0;MAGZ;-5.0
MOT;0;1000.0;1;1000.0;2;1000.0;3;1000.0;4;0.0;5;0.0;6;0.0;7;0.0;
RC;ROLL;1516.0;PITCH;1483.0;YAW;1500.0;THROTTLE;1068.0;AUX1;1535.0;AUX2;1500.0;AUX3;1500.0;AUX4;1500.0
ALTITUDE;20.0
DEBUG;DEBUG120.0;DEBUG2;180.0;DEBUG3;765.0;DEBUG4;0.0
ATTITUDE;ANGX;0.0;ANGY;0.0;HEAD;-165.0
STATUS;CYCLETIME;2880;I2CERR;0;PRESENT;23;MODE;66
RAW_IMU;AX;3.0;AY;0.0;AZ;255.0;GX;0.0;GY;0.0;GZ;0.0;MAGX;4.0;MAGY;-65.0;MAGZ;-5.0
MOT;0;1000.0;1;1000.0;2;1000.0;3;1000.0;4;0.0;5;0.0;6;0.0;7;0.0;
RC;ROLL;1516.0;PITCH;1483.0;YAW;1500.0;THROTTLE;1068.0;AUX1;1533.0;AUX2;1500.0;AUX3;1500.0;AUX4;1500.0
ALTITUDE;20.0
DEBUG;DEBUG120.0;DEBUG2;180.0;DEBUG3;765.0;DEBUG4;0.0
ATTITUDE;ANGX;0.0;ANGY;0.0;HEAD;-165.0
STATUS;CYCLETIME;2764;I2CERR;0;PRESENT;23;MODE;66
RAW_IMU;AX;3.0;AY;0.0;AZ;255.0;GX;0.0;GY;0.0;GZ;0.0;MAGX;3.0;MAGY;-66.0;MAGZ;-5.0
MOT;0;1000.0;1;1000.0;2;1000.0;3;1000.0;4;0.0;5;0.0;6;0.0;7;0.0;
RC;ROLL;1516.0;PITCH;1483.0;YAW;1500.0;THROTTLE;1066.0;AUX1;1533.0;AUX2;1500.0;AUX3;1500.0;AUX4;1500.0
ALTITUDE;20.0
DEBUG;DEBUG120.0;DEBUG2;180.0;DEBUG3;765.0;DEBUG4;0.0
ATTITUDE;ANGX;0.0;ANGY;0.0;HEAD;-165.0
STATUS;CYCLETIME;2808;I2CERR;0;PRESENT;23;MODE;66
RAW_IMU;AX;3.0;AY;0.0;AZ;256.0;GX;0.0;GY;0.0;GZ;0.0;MAGX;3.0;MAGY;-66.0;MAGZ;-5.0
MOT;0;1000.0;1;1000.0;2;1000.0;3;1000.0;4;0.0;5;0.0;6;0.0;7;0.0;
RC;ROLL;1514.0;PITCH;1485.0;YAW;1500.0;THROTTLE;1066.0;AUX1;1533.0;AUX2;1500.0;AUX3;1500.0;AUX4;1500.0
ALTITUDE;20.0
DEBUG;DEBUG120.0;DEBUG2;180.0;DEBUG3;765.0;DEBUG4;0.0
ATTITUDE;ANGX;0.0;ANGY;0.0;HEAD;-165.0
STATUS;CYCLETIME;2784;I2CERR;0;PRESENT;23;MODE;66
RAW_IMU;AX;3.0;AY;0.0;AZ;255.0;GX;0.0;GY;0.0;GZ;0.0;MAGX;4.0;MAGY;-67.0;MAGZ;-6.0
MOT;0;1000.0;1;1000.0;2;1000.0;3;1000.0;4;0.0;5;0.0;6;0.0;7;0.0;
RC;ROLL;1514.0;PITCH;1485.0;YAW;1500.0;THROTTLE;1066.0;AUX1;1536.0;AUX2;1500.0;AUX3;1500.0;AUX4;1500.0
ALTITUDE;20.0
DEBUG;DEBUG120.0;DEBUG2;180.0;DEBUG3;765.0;DEBUG4;0.0
ATTITUDE;ANGX;0.0;ANGY;0.0;HEAD;-165.0
STATUS;CYCLETIME;2732;I2CERR;0;PRESENT;23;MODE;66
RAW_IMU;AX;3.0;AY;1.0;AZ;255.0;GX;0.0;GY;0.0;GZ;0.0;MAGX;4.0;MAGY;-67.0;MAGZ;-6.0
MOT;0;1000.0;1;1000.0;2;1000.0;3;1000.0;4;0.0;5;0.0;6;0.0;7;0.0;
RC;ROLL;1516.0;PITCH;1485.0;YAW;1500.0;THROTTLE;1066.0;AUX1;1536.0;AUX2;1500.0;AUX3;1500.0;AUX4;1500.0
ALTITUDE;20.0
DEBUG;DEBUG120.0;DEBUG2;180.0;DEBUG3;765.0;DEBUG4;0.0
ATTITUDE;ANGX;0.0;ANGY;0.0;HEAD;-165.0
STATUS;CYCLETIME;2992;I2CERR;0;PRESENT;23;MODE;66
RAW_IMU;AX;3.0;AY;1.0;AZ;256.0;GX;0.0;GY;0.0;GZ;0.0;MAGX;3.0;MAGY;-67.0;MAGZ;-5.0
MOT;0;1000.0;1;1000.0;2;1000.0;3;1000.0;4;0.0;5;0.0;6;0.0;7;0.0;
RC;ROLL;1516.0;PITCH;1483.0;YAW;1500.0;THROTTLE;1066.0;AUX1;1536.0;AUX2;1500.0;AUX3;1500.0;AUX4;1500.0
ALTITUDE;20.0
DEBUG;DEBUG120.0;DEBUG2;180.0;DEBUG3;765.0;DEBUG4;0.0
ATTITUDE;ANGX;0.0;ANGY;0.0;HEAD;-165.0
STATUS;CYCLETIME;2716;I2CERR;0;PRESENT;23;MODE;66
RAW_IMU;AX;4.0;AY;1.0;AZ;256.0;GX;0.0;GY;0.0;GZ;0.0;MAGX;3.0;MAGY;-67.0;MAGZ;-5.0
MOT;0;1000.0;1;1000.0;2;1000.0;3;1000.0;4;0.0;5;0.0;6;0.0;7;0.0;
RC;ROLL;1518.0;PITCH;1483.0;YAW;1500.0;THROTTLE;1066.0;AUX1;1533.0;AUX2;1500.0;AUX3;1500.0;AUX4;1500.0
ALTITUDE;20.0
DEBUG;DEBUG120.0;DEBUG2;139.0;DEBUG3;765.0;DEBUG4;0.0
ATTITUDE;ANGX;0.0;ANGY;0.0;HEAD;-165.0
STATUS;CYCLETIME;2796;I2CERR;0;PRESENT;23;MODE;66
RAW_IMU;AX;3.0;AY;1.0;AZ;256.0;GX;0.0;GY;0.0;GZ;0.0;MAGX;4.0;MAGY;-65.0;MAGZ;-6.0
MOT;0;1000.0;1;1000.0;2;1000.0;3;1000.0;4;0.0;5;0.0;6;0.0;7;0.0;
RC;ROLL;1518.0;PITCH;1483.0;YAW;1500.0;THROTTLE;1066.0;AUX1;1533.0;AUX2;1500.0;AUX3;1500.0;AUX4;1500.0
ALTITUDE;20.0
DEBUG;DEBUG120.0;DEBUG2;139.0;DEBUG3;765.0;DEBUG4;0.0
ATTITUDE;ANGX;0.0;ANGY;0.0;HEAD;-165.0
STATUS;CYCLETIME;2752;I2CERR;0;PRESENT;23;MODE;66
RAW_IMU;AX;3.0;AY;0.0;AZ;256.0;GX;0.0;GY;0.0;GZ;0.0;MAGX;4.0;MAGY;-65.0;MAGZ;-6.0
MOT;0;1000.0;1;1000.0;2;1000.0;3;1000.0;4;0.0;5;0.0;6;0.0;7;0.0;
RC;ROLL;1516.0;PITCH;1483.0;YAW;1500.0;THROTTLE;1066.0;AUX1;1533.0;AUX2;1500.0;AUX3;1500.0;AUX4;1500.0
ALTITUDE;20.0
DEBUG;DEBUG120.0;DEBUG2;139.0;DEBUG3;765.0;DEBUG4;0.0
ATTITUDE;ANGX;0.0;ANGY;0.0;HEAD;-165.0
STATUS;CYCLETIME;2756;I2CERR;0;PRESENT;23;MODE;66
RAW_IMU;AX;3.0;AY;1.0;AZ;256.0;GX;0.0;GY;0.0;GZ;0.0;MAGX;4.0;MAGY;-67.0;MAGZ;-5.0
MOT;0;1000.0;1;1000.0;2;1000.0;3;1000.0;4;0.0;5;0.0;6;0.0;7;0.0;
RC;ROLL;1513.0;PITCH;1485.0;YAW;1500.0;THROTTLE;1066.0;AUX1;1546.0;AUX2;1500.0;AUX3;1500.0;AUX4;1500.0
ALTITUDE;20.0
DEBUG;DEBUG120.0;DEBUG2;139.0;DEBUG3;765.0;DEBUG4;0.0
ATTITUDE;ANGX;0.0;ANGY;0.0;HEAD;-165.0
STATUS;CYCLETIME;2844;I2CERR;0;PRESENT;23;MODE;66
RAW_IMU;AX;3.0;AY;1.0;AZ;256.0;GX;0.0;GY;0.0;GZ;0.0;MAGX;4.0;MAGY;-67.0;MAGZ;-5.0
MOT;0;1000.0;1;1000.0;2;1000.0;3;1000.0;4;0.0;5;0.0;6;0.0;7;0.0;
RC;ROLL;1513.0;PITCH;1485.0;YAW;1500.0;THROTTLE;1066.0;AUX1;1551.0;AUX2;1500.0;AUX3;1500.0;AUX4;1500.0
ALTITUDE;20.0
DEBUG;DEBUG120.0;DEBUG2;139.0;DEBUG3;765.0;DEBUG4;0.0
ATTITUDE;ANGX;0.0;ANGY;0.0;HEAD;-165.0
STATUS;CYCLETIME;2768;I2CERR;0;PRESENT;23;MODE;66
RAW_IMU;AX;3.0;AY;0.0;AZ;255.0;GX;0.0;GY;0.0;GZ;0.0;MAGX;4.0;MAGY;-67.0;MAGZ;-5.0
MOT;0;1000.0;1;1000.0;2;1000.0;3;1000.0;4;0.0;5;0.0;6;0.0;7;0.0;
RC;ROLL;1516.0;PITCH;1485.0;YAW;1500.0;THROTTLE;1066.0;AUX1;1556.0;AUX2;1500.0;AUX3;1500.0;AUX4;1500.0
ALTITUDE;20.0
DEBUG;DEBUG120.0;DEBUG2;139.0;DEBUG3;765.0;DEBUG4;0.0
ATTITUDE;ANGX;0.0;ANGY;0.0;HEAD;-165.0
STATUS;CYCLETIME;2756;I2CERR;0;PRESENT;23;MODE;66
RAW_IMU;AX;3.0;AY;0.0;AZ;256.0;GX;0.0;GY;0.0;GZ;0.0;MAGX;4.0;MAGY;-67.0;MAGZ;-5.0
MOT;0;1000.0;1;1000.0;2;1000.0;3;1000.0;4;0.0;5;0.0;6;0.0;7;0.0;
RC;ROLL;1518.0;PITCH;1483.0;YAW;1500.0;THROTTLE;1066.0;AUX1;1562.0;AUX2;1500.0;AUX3;1500.0;AUX4;1500.0
ALTITUDE;20.0
DEBUG;DEBUG120.0;DEBUG2;139.0;DEBUG3;765.0;DEBUG4;0.0
ATTITUDE;ANGX;0.0;ANGY;0.0;HEAD;-165.0
STATUS;CYCLETIME;2680;I2CERR;0;PRESENT;23;MODE;66
RAW_IMU;AX;4.0;AY;1.0;AZ;255.0;GX;0.0;GY;0.0;GZ;0.0;MAGX;4.0;MAGY;-66.0;MAGZ;-5.0
MOT;0;1000.0;1;1000.0;2;1000.0;3;1000.0;4;0.0;5;0.0;6;0.0;7;0.0;
RC;ROLL;1518.0;PITCH;1483.0;YAW;1500.0;THROTTLE;1066.0;AUX1;1570.0;AUX2;1500.0;AUX3;1500.0;AUX4;1500.0
ALTITUDE;20.0
DEBUG;DEBUG120.0;DEBUG2;139.0;DEBUG3;765.0;DEBUG4;0.0
ATTITUDE;ANGX;0.0;ANGY;0.0;HEAD;-165.0
STATUS;CYCLETIME;2768;I2CERR;0;PRESENT;23;MODE;66
RAW_IMU;AX;3.0;AY;1.0;AZ;255.0;GX;0.0;GY;0.0;GZ;0.0;MAGX;4.0;MAGY;-66.0;MAGZ;-5.0
MOT;0;1000.0;1;1000.0;2;1000.0;3;1000.0;4;0.0;5;0.0;6;0.0;7;0.0;
RC;ROLL;1518.0;PITCH;1483.0;YAW;1500.0;THROTTLE;1066.0;AUX1;1577.0;AUX2;1500.0;AUX3;1500.0;AUX4;1500.0
ALTITUDE;20.0
DEBUG;DEBUG120.0;DEBUG2;139.0;DEBUG3;765.0;DEBUG4;0.0
ATTITUDE;ANGX;0.0;ANGY;0.0;HEAD;-165.0
STATUS;CYCLETIME;3036;I2CERR;0;PRESENT;23;MODE;66
RAW_IMU;AX;3.0;AY;1.0;AZ;255.0;GX;0.0;GY;0.0;GZ;0.0;MAGX;4.0;MAGY;-67.0;MAGZ;-5.0
MOT;0;1000.0;1;1000.0;2;1000.0;3;1000.0;4;0.0;5;0.0;6;0.0;7;0.0;
RC;ROLL;1515.0;PITCH;1486.0;YAW;1500.0;THROTTLE;1066.0;AUX1;1584.0;AUX2;1500.0;AUX3;1500.0;AUX4;1500.0
ALTITUDE;20.0
DEBUG;DEBUG120.0;DEBUG2;139.0;DEBUG3;765.0;DEBUG4;0.0
ATTITUDE;ANGX;0.0;ANGY;0.0;HEAD;-165.0
STATUS;CYCLETIME;3032;I2CERR;0;PRESENT;23;MODE;66
RAW_IMU;AX;3.0;AY;0.0;AZ;256.0;GX;0.0;GY;0.0;GZ;0.0;MAGX;4.0;MAGY;-67.0;MAGZ;-5.0
MOT;0;1000.0;1;1000.0;2;1000.0;3;1000.0;4;0.0;5;0.0;6;0.0;7;0.0;
RC;ROLL;1513.0;PITCH;1486.0;YAW;1500.0;THROTTLE;1066.0;AUX1;1594.0;AUX2;1500.0;AUX3;1500.0;AUX4;1500.0
ALTITUDE;20.0
DEBUG;DEBUG120.0;DEBUG2;139.0;DEBUG3;765.0;DEBUG4;0.0
ATTITUDE;ANGX;0.0;ANGY;0.0;HEAD;-165.0
STATUS;CYCLETIME;2868;I2CERR;0;PRESENT;23;MODE;66
RAW_IMU;AX;4.0;AY;0.0;AZ;256.0;GX;0.0;GY;0.0;GZ;0.0;MAGX;4.0;MAGY;-66.0;MAGZ;-5.0
MOT;0;1000.0;1;1000.0;2;1000.0;3;1000.0;4;0.0;5;0.0;6;0.0;7;0.0;
RC;ROLL;1513.0;PITCH;1486.0;YAW;1500.0;THROTTLE;1066.0;AUX1;1610.0;AUX2;1500.0;AUX3;1500.0;AUX4;1500.0
ALTITUDE;20.0
DEBUG;DEBUG120.0;DEBUG2;139.0;DEBUG3;765.0;DEBUG4;0.0
ATTITUDE;ANGX;0.0;ANGY;0.0;HEAD;-165.0
STATUS;CYCLETIME;2708;I2CERR;0;PRESENT;23;MODE;66
RAW_IMU;AX;4.0;AY;1.0;AZ;255.0;GX;0.0;GY;0.0;GZ;0.0;MAGX;4.0;MAGY;-66.0;MAGZ;-5.0
MOT;0;1000.0;1;1000.0;2;1000.0;3;1000.0;4;0.0;5;0.0;6;0.0;7;0.0;
RC;ROLL;1513.0;PITCH;1486.0;YAW;1500.0;THROTTLE;1066.0;AUX1;1613.0;AUX2;1500.0;AUX3;1500.0;AUX4;1500.0
ALTITUDE;20.0
DEBUG;DEBUG120.0;DEBUG2;139.0;DEBUG3;765.0;DEBUG4;0.0
ATTITUDE;ANGX;0.0;ANGY;0.0;HEAD;-165.0
STATUS;CYCLETIME;2724;I2CERR;0;PRESENT;23;MODE;66
RAW_IMU;AX;4.0;AY;1.0;AZ;255.0;GX;0.0;GY;0.0;GZ;0.0;MAGX;3.0;MAGY;-66.0;MAGZ;-6.0
MOT;0;1000.0;1;1000.0;2;1000.0;3;1000.0;4;0.0;5;0.0;6;0.0;7;0.0;
RC;ROLL;1515.0;PITCH;1486.0;YAW;1500.0;THROTTLE;1066.0;AUX1;1618.0;AUX2;1500.0;AUX3;1500.0;AUX4;1500.0
ALTITUDE;20.0
DEBUG;DEBUG120.0;DEBUG2;139.0;DEBUG3;765.0;DEBUG4;0.0
ATTITUDE;ANGX;0.0;ANGY;0.0;HEAD;-165.0
STATUS;CYCLETIME;2744;I2CERR;0;PRESENT;23;MODE;66
RAW_IMU;AX;3.0;AY;0.0;AZ;255.0;GX;0.0;GY;0.0;GZ;0.0;MAGX;3.0;MAGY;-66.0;MAGZ;-6.0
MOT;0;1000.0;1;1000.0;2;1000.0;3;1000.0;4;0.0;5;0.0;6;0.0;7;0.0;
RC;ROLL;1515.0;PITCH;1484.0;YAW;1500.0;THROTTLE;1066.0;AUX1;1628.0;AUX2;1500.0;AUX3;1500.0;AUX4;1500.0
ALTITUDE;20.0
DEBUG;DEBUG120.0;DEBUG2;139.0;DEBUG3;765.0;DEBUG4;0.0
ATTITUDE;ANGX;0.0;ANGY;0.0;HEAD;-165.0
STATUS;CYCLETIME;3012;I2CERR;0;PRESENT;23;MODE;66
RAW_IMU;AX;4.0;AY;1.0;AZ;255.0;GX;0.0;GY;0.0;GZ;0.0;MAGX;4.0;MAGY;-65.0;MAGZ;-5.0
MOT;0;1000.0;1;1000.0;2;1000.0;3;1000.0;4;0.0;5;0.0;6;0.0;7;0.0;
RC;ROLL;1515.0;PITCH;1484.0;YAW;1500.0;THROTTLE;1066.0;AUX1;1636.0;AUX2;1500.0;AUX3;1500.0;AUX4;1500.0
ALTITUDE;20.0
DEBUG;DEBUG120.0;DEBUG2;139.0;DEBUG3;765.0;DEBUG4;0.0
ATTITUDE;ANGX;0.0;ANGY;0.0;HEAD;-165.0
STATUS;CYCLETIME;2932;I2CERR;0;PRESENT;23;MODE;66
RAW_IMU;AX;3.0;AY;0.0;AZ;255.0;GX;0.0;GY;0.0;GZ;0.0;MAGX;4.0;MAGY;-65.0;MAGZ;-5.0
MOT;0;1000.0;1;1000.0;2;1000.0;3;1000.0;4;0.0;5;0.0;6;0.0;7;0.0;
RC;ROLL;1515.0;PITCH;1484.0;YAW;1500.0;THROTTLE;1066.0;AUX1;1642.0;AUX2;1500.0;AUX3;1500.0;AUX4;1500.0
ALTITUDE;20.0
DEBUG;DEBUG120.0;DEBUG2;139.0;DEBUG3;765.0;DEBUG4;0.0
ATTITUDE;ANGX;0.0;ANGY;0.0;HEAD;-165.0
STATUS;CYCLETIME;2772;I2CERR;0;PRESENT;23;MODE;66
RAW_IMU;AX;3.0;AY;1.0;AZ;255.0;GX;0.0;GY;0.0;GZ;0.0;MAGX;4.0;MAGY;-65.0;MAGZ;-5.0
MOT;0;1000.0;1;1000.0;2;1000.0;3;1000.0;4;0.0;5;0.0;6;0.0;7;0.0;
RC;ROLL;1515.0;PITCH;1487.0;YAW;1500.0;THROTTLE;1066.0;AUX1;1653.0;AUX2;1500.0;AUX3;1500.0;AUX4;1500.0
ALTITUDE;20.0
DEBUG;DEBUG120.0;DEBUG2;139.0;DEBUG3;765.0;DEBUG4;0.0
ATTITUDE;ANGX;0.0;ANGY;0.0;HEAD;-165.0
STATUS;CYCLETIME;2848;I2CERR;0;PRESENT;23;MODE;66
RAW_IMU;AX;3.0;AY;1.0;AZ;255.0;GX;0.0;GY;0.0;GZ;0.0;MAGX;4.0;MAGY;-67.0;MAGZ;-5.0
MOT;0;1000.0;1;1000.0;2;1000.0;3;1000.0;4;0.0;5;0.0;6;0.0;7;0.0;
RC;ROLL;1513.0;PITCH;1487.0;YAW;1500.0;THROTTLE;1066.0;AUX1;1668.0;AUX2;1500.0;AUX3;1500.0;AUX4;1500.0
ALTITUDE;20.0
DEBUG;DEBUG120.0;DEBUG2;139.0;DEBUG3;765.0;DEBUG4;0.0
ATTITUDE;ANGX;0.0;ANGY;0.0;HEAD;-165.0
STATUS;CYCLETIME;2868;I2CERR;0;PRESENT;23;MODE;66
RAW_IMU;AX;3.0;AY;1.0;AZ;255.0;GX;0.0;GY;0.0;GZ;0.0;MAGX;4.0;MAGY;-67.0;MAGZ;-5.0
MOT;0;1000.0;1;1000.0;2;1000.0;3;1000.0;4;0.0;5;0.0;6;0.0;7;0.0;
RC;ROLL;1515.0;PITCH;1485.0;YAW;1500.0;THROTTLE;1066.0;AUX1;1671.0;AUX2;1500.0;AUX3;1500.0;AUX4;1500.0
ALTITUDE;20.0
DEBUG;DEBUG120.0;DEBUG2;139.0;DEBUG3;765.0;DEBUG4;0.0
ATTITUDE;ANGX;0.0;ANGY;0.0;HEAD;-165.0
STATUS;CYCLETIME;2720;I2CERR;0;PRESENT;23;MODE;66
RAW_IMU;AX;3.0;AY;1.0;AZ;256.0;GX;0.0;GY;0.0;GZ;0.0;MAGX;4.0;MAGY;-66.0;MAGZ;-5.0
MOT;0;1000.0;1;1000.0;2;1000.0;3;1000.0;4;0.0;5;0.0;6;0.0;7;0.0;
RC;ROLL;1517.0;PITCH;1483.0;YAW;1500.0;THROTTLE;1066.0;AUX1;1675.0;AUX2;1500.0;AUX3;1500.0;AUX4;1500.0
ALTITUDE;20.0
DEBUG;DEBUG120.0;DEBUG2;139.0;DEBUG3;765.0;DEBUG4;0.0
ATTITUDE;ANGX;0.0;ANGY;0.0;HEAD;-165.0
STATUS;CYCLETIME;2692;I2CERR;0;PRESENT;23;MODE;66
RAW_IMU;AX;3.0;AY;1.0;AZ;255.0;GX;0.0;GY;0.0;GZ;0.0;MAGX;4.0;MAGY;-66.0;MAGZ;-5.0
MOT;0;1000.0;1;1000.0;2;1000.0;3;1000.0;4;0.0;5;0.0;6;0.0;7;0.0;
RC;ROLL;1517.0;PITCH;1483.0;YAW;1500.0;THROTTLE;1066.0;AUX1;1688.0;AUX2;1500.0;AUX3;1500.0;AUX4;1500.0
ALTITUDE;20.0
DEBUG;DEBUG120.0;DEBUG2;139.0;DEBUG3;765.0;DEBUG4;0.0
ATTITUDE;ANGX;0.0;ANGY;0.0;HEAD;-165.0
STATUS;CYCLETIME;2988;I2CERR;0;PRESENT;23;MODE;66
RAW_IMU;AX;3.0;AY;1.0;AZ;255.0;GX;0.0;GY;0.0;GZ;0.0;MAGX;3.0;MAGY;-66.0;MAGZ;-6.0
MOT;0;1000.0;1;1000.0;2;1000.0;3;1000.0;4;0.0;5;0.0;6;0.0;7;0.0;
RC;ROLL;1517.0;PITCH;1483.0;YAW;1500.0;THROTTLE;1066.0;AUX1;1694.0;AUX2;1500.0;AUX3;1500.0;AUX4;1500.0
ALTITUDE;20.0
DEBUG;DEBUG120.0;DEBUG2;139.0;DEBUG3;765.0;DEBUG4;0.0
ATTITUDE;ANGX;0.0;ANGY;0.0;HEAD;-165.0
STATUS;CYCLETIME;2740;I2CERR;0;PRESENT;23;MODE;66
RAW_IMU;AX;3.0;AY;1.0;AZ;255.0;GX;0.0;GY;0.0;GZ;0.0;MAGX;3.0;MAGY;-66.0;MAGZ;-6.0
MOT;0;1000.0;1;1000.0;2;1000.0;3;1000.0;4;0.0;5;0.0;6;0.0;7;0.0;
RC;ROLL;1517.0;PITCH;1483.0;YAW;1500.0;THROTTLE;1066.0;AUX1;1701.0;AUX2;1500.0;AUX3;1500.0;AUX4;1500.0
ALTITUDE;20.0
DEBUG;DEBUG120.0;DEBUG2;139.0;DEBUG3;765.0;DEBUG4;0.0
ATTITUDE;ANGX;0.0;ANGY;0.0;HEAD;-165.0
STATUS;CYCLETIME;2740;I2CERR;0;PRESENT;23;MODE;66
RAW_IMU;AX;3.0;AY;0.0;AZ;255.0;GX;0.0;GY;0.0;GZ;0.0;MAGX;3.0;MAGY;-66.0;MAGZ;-5.0
MOT;0;1000.0;1;1000.0;2;1000.0;3;1000.0;4;0.0;5;0.0;6;0.0;7;0.0;
RC;ROLL;1517.0;PITCH;1483.0;YAW;1500.0;THROTTLE;1066.0;AUX1;1713.0;AUX2;1500.0;AUX3;1500.0;AUX4;1500.0
ALTITUDE;20.0
DEBUG;DEBUG120.0;DEBUG2;139.0;DEBUG3;765.0;DEBUG4;0.0
ATTITUDE;ANGX;0.0;ANGY;0.0;HEAD;-166.0
STATUS;CYCLETIME;2784;I2CERR;0;PRESENT;23;MODE;66
RAW_IMU;AX;4.0;AY;1.0;AZ;256.0;GX;0.0;GY;0.0;GZ;0.0;MAGX;3.0;MAGY;-66.0;MAGZ;-5.0
MOT;0;1000.0;1;1000.0;2;1000.0;3;1000.0;4;0.0;5;0.0;6;0.0;7;0.0;
RC;ROLL;1517.0;PITCH;1483.0;YAW;1500.0;THROTTLE;1066.0;AUX1;1722.0;AUX2;1500.0;AUX3;1500.0;AUX4;1500.0
ALTITUDE;20.0
DEBUG;DEBUG120.0;DEBUG2;139.0;DEBUG3;765.0;DEBUG4;0.0
ATTITUDE;ANGX;0.0;ANGY;0.0;HEAD;-166.0
STATUS;CYCLETIME;2716;I2CERR;0;PRESENT;23;MODE;66
RAW_IMU;AX;4.0;AY;1.0;AZ;256.0;GX;0.0;GY;0.0;GZ;0.0;MAGX;4.0;MAGY;-65.0;MAGZ;-6.0
MOT;0;1000.0;1;1000.0;2;1000.0;3;1000.0;4;0.0;5;0.0;6;0.0;7;0.0;
RC;ROLL;1517.0;PITCH;1483.0;YAW;1500.0;THROTTLE;1066.0;AUX1;1729.0;AUX2;1500.0;AUX3;1500.0;AUX4;1500.0
ALTITUDE;20.0
DEBUG;DEBUG120.0;DEBUG2;139.0;DEBUG3;765.0;DEBUG4;0.0
ATTITUDE;ANGX;0.0;ANGY;0.0;HEAD;-166.0
STATUS;CYCLETIME;2748;I2CERR;0;PRESENT;23;MODE;66
RAW_IMU;AX;4.0;AY;1.0;AZ;256.0;GX;0.0;GY;0.0;GZ;0.0;MAGX;4.0;MAGY;-65.0;MAGZ;-6.0
MOT;0;1000.0;1;1000.0;2;1000.0;3;1000.0;4;0.0;5;0.0;6;0.0;7;0.0;
RC;ROLL;1517.0;PITCH;1483.0;YAW;1500.0;THROTTLE;1066.0;AUX1;1735.0;AUX2;1500.0;AUX3;1500.0;AUX4;1500.0
ALTITUDE;20.0
DEBUG;DEBUG120.0;DEBUG2;139.0;DEBUG3;765.0;DEBUG4;0.0
ATTITUDE;ANGX;0.0;ANGY;0.0;HEAD;-166.0
STATUS;CYCLETIME;2796;I2CERR;0;PRESENT;23;MODE;66
RAW_IMU;AX;3.0;AY;1.0;AZ;256.0;GX;0.0;GY;0.0;GZ;0.0;MAGX;4.0;MAGY;-66.0;MAGZ;-5.0
MOT;0;1000.0;1;1000.0;2;1000.0;3;1000.0;4;0.0;5;0.0;6;0.0;7;0.0;
RC;ROLL;1517.0;PITCH;1483.0;YAW;1500.0;THROTTLE;1066.0;AUX1;1745.0;AUX2;1500.0;AUX3;1500.0;AUX4;1500.0
ALTITUDE;20.0
DEBUG;DEBUG120.0;DEBUG2;139.0;DEBUG3;765.0;DEBUG4;0.0
ATTITUDE;ANGX;0.0;ANGY;0.0;HEAD;-165.0
STATUS;CYCLETIME;3016;I2CERR;0;PRESENT;23;MODE;66
RAW_IMU;AX;3.0;AY;1.0;AZ;256.0;GX;0.0;GY;0.0;GZ;0.0;MAGX;4.0;MAGY;-66.0;MAGZ;-5.0
MOT;0;1000.0;1;1000.0;2;1000.0;3;1000.0;4;0.0;5;0.0;6;0.0;7;0.0;
RC;ROLL;1517.0;PITCH;1483.0;YAW;1500.0;THROTTLE;1066.0;AUX1;1752.0;AUX2;1500.0;AUX3;1500.0;AUX4;1500.0
ALTITUDE;20.0
DEBUG;DEBUG120.0;DEBUG2;139.0;DEBUG3;765.0;DEBUG4;0.0
ATTITUDE;ANGX;0.0;ANGY;0.0;HEAD;-165.0
STATUS;CYCLETIME;2716;I2CERR;0;PRESENT;23;MODE;66
RAW_IMU;AX;3.0;AY;0.0;AZ;256.0;GX;0.0;GY;0.0;GZ;0.0;MAGX;4.0;MAGY;-65.0;MAGZ;-6.0
MOT;0;1000.0;1;1000.0;2;1000.0;3;1000.0;4;0.0;5;0.0;6;0.0;7;0.0;
RC;ROLL;1517.0;PITCH;1483.0;YAW;1500.0;THROTTLE;1066.0;AUX1;1763.0;AUX2;1500.0;AUX3;1500.0;AUX4;1500.0
ALTITUDE;20.0
DEBUG;DEBUG120.0;DEBUG2;139.0;DEBUG3;765.0;DEBUG4;0.0
ATTITUDE;ANGX;0.0;ANGY;0.0;HEAD;-165.0
STATUS;CYCLETIME;2812;I2CERR;0;PRESENT;23;MODE;66
RAW_IMU;AX;4.0;AY;0.0;AZ;256.0;GX;0.0;GY;0.0;GZ;0.0;MAGX;4.0;MAGY;-65.0;MAGZ;-6.0
MOT;0;1000.0;1;1000.0;2;1000.0;3;1000.0;4;0.0;5;0.0;6;0.0;7;0.0;
RC;ROLL;1517.0;PITCH;1483.0;YAW;1500.0;THROTTLE;1066.0;AUX1;1772.0;AUX2;1500.0;AUX3;1500.0;AUX4;1500.0
ALTITUDE;20.0
DEBUG;DEBUG120.0;DEBUG2;139.0;DEBUG3;765.0;DEBUG4;0.0
ATTITUDE;ANGX;0.0;ANGY;0.0;HEAD;-165.0
STATUS;CYCLETIME;2692;I2CERR;0;PRESENT;23;MODE;66
RAW_IMU;AX;4.0;AY;0.0;AZ;255.0;GX;0.0;GY;0.0;GZ;0.0;MAGX;2.0;MAGY;-67.0;MAGZ;-6.0
MOT;0;1000.0;1;1000.0;2;1000.0;3;1000.0;4;0.0;5;0.0;6;0.0;7;0.0;
RC;ROLL;1515.0;PITCH;1485.0;YAW;1500.0;THROTTLE;1066.0;AUX1;1783.0;AUX2;1500.0;AUX3;1500.0;AUX4;1500.0
ALTITUDE;20.0
DEBUG;DEBUG120.0;DEBUG2;139.0;DEBUG3;765.0;DEBUG4;0.0
ATTITUDE;ANGX;0.0;ANGY;0.0;HEAD;-165.0
STATUS;CYCLETIME;2756;I2CERR;0;PRESENT;23;MODE;66
RAW_IMU;AX;3.0;AY;1.0;AZ;255.0;GX;0.0;GY;0.0;GZ;0.0;MAGX;2.0;MAGY;-67.0;MAGZ;-6.0
MOT;0;1000.0;1;1000.0;2;1000.0;3;1000.0;4;0.0;5;0.0;6;0.0;7;0.0;
RC;ROLL;1515.0;PITCH;1485.0;YAW;1500.0;THROTTLE;1066.0;AUX1;1786.0;AUX2;1500.0;AUX3;1500.0;AUX4;1500.0
ALTITUDE;20.0
DEBUG;DEBUG120.0;DEBUG2;139.0;DEBUG3;765.0;DEBUG4;0.0
ATTITUDE;ANGX;0.0;ANGY;0.0;HEAD;-166.0
STATUS;CYCLETIME;2716;I2CERR;0;PRESENT;23;MODE;66
RAW_IMU;AX;3.0;AY;0.0;AZ;256.0;GX;0.0;GY;0.0;GZ;0.0;MAGX;5.0;MAGY;-65.0;MAGZ;-6.0
MOT;0;1000.0;1;1000.0;2;1000.0;3;1000.0;4;0.0;5;0.0;6;0.0;7;0.0;
RC;ROLL;1520.0;PITCH;1483.0;YAW;1500.0;THROTTLE;1066.0;AUX1;1794.0;AUX2;1500.0;AUX3;1500.0;AUX4;1500.0
ALTITUDE;20.0
DEBUG;DEBUG120.0;DEBUG2;139.0;DEBUG3;765.0;DEBUG4;0.0
ATTITUDE;ANGX;0.0;ANGY;0.0;HEAD;-166.0
STATUS;CYCLETIME;2740;I2CERR;0;PRESENT;23;MODE;66
RAW_IMU;AX;3.0;AY;0.0;AZ;255.0;GX;0.0;GY;0.0;GZ;0.0;MAGX;5.0;MAGY;-65.0;MAGZ;-6.0
MOT;0;1000.0;1;1000.0;2;1000.0;3;1000.0;4;0.0;5;0.0;6;0.0;7;0.0;
RC;ROLL;1520.0;PITCH;1483.0;YAW;1500.0;THROTTLE;1066.0;AUX1;1804.0;AUX2;1500.0;AUX3;1500.0;AUX4;1500.0
ALTITUDE;20.0
DEBUG;DEBUG120.0;DEBUG2;139.0;DEBUG3;765.0;DEBUG4;0.0
ATTITUDE;ANGX;0.0;ANGY;0.0;HEAD;-166.0
STATUS;CYCLETIME;2816;I2CERR;0;PRESENT;23;MODE;66
RAW_IMU;AX;3.0;AY;0.0;AZ;255.0;GX;0.0;GY;0.0;GZ;0.0;MAGX;3.0;MAGY;-66.0;MAGZ;-6.0
MOT;0;1000.0;1;1000.0;2;1000.0;3;1000.0;4;0.0;5;0.0;6;0.0;7;0.0;
RC;ROLL;1512.0;PITCH;1485.0;YAW;1500.0;THROTTLE;1064.0;AUX1;1812.0;AUX2;1500.0;AUX3;1500.0;AUX4;1500.0
ALTITUDE;20.0
DEBUG;DEBUG120.0;DEBUG2;139.0;DEBUG3;765.0;DEBUG4;0.0
ATTITUDE;ANGX;0.0;ANGY;0.0;HEAD;-165.0
STATUS;CYCLETIME;2780;I2CERR;0;PRESENT;23;MODE;66
RAW_IMU;AX;4.0;AY;0.0;AZ;255.0;GX;0.0;GY;0.0;GZ;0.0;MAGX;3.0;MAGY;-66.0;MAGZ;-6.0
MOT;0;1000.0;1;1000.0;2;1000.0;3;1000.0;4;0.0;5;0.0;6;0.0;7;0.0;
RC;ROLL;1512.0;PITCH;1487.0;YAW;1500.0;THROTTLE;1064.0;AUX1;1820.0;AUX2;1500.0;AUX3;1500.0;AUX4;1500.0
ALTITUDE;20.0
DEBUG;DEBUG120.0;DEBUG2;139.0;DEBUG3;765.0;DEBUG4;0.0
ATTITUDE;ANGX;0.0;ANGY;0.0;HEAD;-166.0
STATUS;CYCLETIME;2852;I2CERR;0;PRESENT;23;MODE;66
RAW_IMU;AX;4.0;AY;0.0;AZ;255.0;GX;0.0;GY;0.0;GZ;0.0;MAGX;3.0;MAGY;-67.0;MAGZ;-6.0
MOT;0;1000.0;1;1000.0;2;1000.0;3;1000.0;4;0.0;5;0.0;6;0.0;7;0.0;
RC;ROLL;1512.0;PITCH;1487.0;YAW;1500.0;THROTTLE;1064.0;AUX1;1828.0;AUX2;1500.0;AUX3;1500.0;AUX4;1500.0
ALTITUDE;20.0
DEBUG;DEBUG120.0;DEBUG2;139.0;DEBUG3;765.0;DEBUG4;0.0
ATTITUDE;ANGX;0.0;ANGY;0.0;HEAD;-166.0
STATUS;CYCLETIME;2716;I2CERR;0;PRESENT;23;MODE;66
RAW_IMU;AX;3.0;AY;0.0;AZ;256.0;GX;0.0;GY;0.0;GZ;0.0;MAGX;3.0;MAGY;-67.0;MAGZ;-6.0
MOT;0;1000.0;1;1000.0;2;1000.0;3;1000.0;4;0.0;5;0.0;6;0.0;7;0.0;
RC;ROLL;1514.0;PITCH;1483.0;YAW;1500.0;THROTTLE;1064.0;AUX1;1835.0;AUX2;1500.0;AUX3;1500.0;AUX4;1500.0
ALTITUDE;20.0
DEBUG;DEBUG120.0;DEBUG2;139.0;DEBUG3;765.0;DEBUG4;0.0
ATTITUDE;ANGX;0.0;ANGY;0.0;HEAD;-166.0
STATUS;CYCLETIME;2984;I2CERR;0;PRESENT;23;MODE;66
RAW_IMU;AX;3.0;AY;0.0;AZ;256.0;GX;0.0;GY;0.0;GZ;0.0;MAGX;4.0;MAGY;-66.0;MAGZ;-6.0
MOT;0;1000.0;1;1000.0;2;1000.0;3;1000.0;4;0.0;5;0.0;6;0.0;7;0.0;
RC;ROLL;1516.0;PITCH;1483.0;YAW;1500.0;THROTTLE;1064.0;AUX1;1837.0;AUX2;1500.0;AUX3;1500.0;AUX4;1500.0
ALTITUDE;20.0
DEBUG;DEBUG120.0;DEBUG2;139.0;DEBUG3;765.0;DEBUG4;0.0
ATTITUDE;ANGX;0.0;ANGY;0.0;HEAD;-166.0
STATUS;CYCLETIME;2832;I2CERR;0;PRESENT;23;MODE;66
RAW_IMU;AX;3.0;AY;0.0;AZ;255.0;GX;0.0;GY;0.0;GZ;0.0;MAGX;4.0;MAGY;-66.0;MAGZ;-6.0
MOT;0;1000.0;1;1000.0;2;1000.0;3;1000.0;4;0.0;5;0.0;6;0.0;7;0.0;
RC;ROLL;1516.0;PITCH;1483.0;YAW;1500.0;THROTTLE;1064.0;AUX1;1850.0;AUX2;1500.0;AUX3;1500.0;AUX4;1500.0
ALTITUDE;20.0
DEBUG;DEBUG120.0;DEBUG2;139.0;DEBUG3;765.0;DEBUG4;0.0
ATTITUDE;ANGX;0.0;ANGY;0.0;HEAD;-166.0
STATUS;CYCLETIME;2812;I2CERR;0;PRESENT;23;MODE;66
RAW_IMU;AX;3.0;AY;0.0;AZ;255.0;GX;0.0;GY;0.0;GZ;0.0;MAGX;3.0;MAGY;-66.0;MAGZ;-5.0
MOT;0;1000.0;1;1000.0;2;1000.0;3;1000.0;4;0.0;5;0.0;6;0.0;7;0.0;
RC;ROLL;1516.0;PITCH;1483.0;YAW;1500.0;THROTTLE;1064.0;AUX1;1860.0;AUX2;1500.0;AUX3;1500.0;AUX4;1500.0
ALTITUDE;20.0
DEBUG;DEBUG120.0;DEBUG2;139.0;DEBUG3;765.0;DEBUG4;0.0
ATTITUDE;ANGX;0.0;ANGY;0.0;HEAD;-166.0
STATUS;CYCLETIME;2792;I2CERR;0;PRESENT;23;MODE;66
RAW_IMU;AX;4.0;AY;0.0;AZ;255.0;GX;0.0;GY;0.0;GZ;0.0;MAGX;3.0;MAGY;-66.0;MAGZ;-5.0
MOT;0;1000.0;1;1000.0;2;1000.0;3;1000.0;4;0.0;5;0.0;6;0.0;7;0.0;
RC;ROLL;1516.0;PITCH;1483.0;YAW;1500.0;THROTTLE;1064.0;AUX1;1868.0;AUX2;1500.0;AUX3;1500.0;AUX4;1500.0
ALTITUDE;20.0
DEBUG;DEBUG120.0;DEBUG2;139.0;DEBUG3;765.0;DEBUG4;0.0
ATTITUDE;ANGX;0.0;ANGY;0.0;HEAD;-166.0
STATUS;CYCLETIME;2848;I2CERR;0;PRESENT;23;MODE;66
RAW_IMU;AX;4.0;AY;0.0;AZ;255.0;GX;0.0;GY;0.0;GZ;0.0;MAGX;4.0;MAGY;-66.0;MAGZ;-6.0
MOT;0;1000.0;1;1000.0;2;1000.0;3;1000.0;4;0.0;5;0.0;6;0.0;7;0.0;
RC;ROLL;1516.0;PITCH;1483.0;YAW;1500.0;THROTTLE;1064.0;AUX1;1880.0;AUX2;1500.0;AUX3;1500.0;AUX4;1500.0
ALTITUDE;20.0
DEBUG;DEBUG120.0;DEBUG2;139.0;DEBUG3;765.0;DEBUG4;0.0
ATTITUDE;ANGX;0.0;ANGY;0.0;HEAD;-166.0
STATUS;CYCLETIME;2792;I2CERR;0;PRESENT;23;MODE;66
RAW_IMU;AX;4.0;AY;0.0;AZ;255.0;GX;0.0;GY;0.0;GZ;0.0;MAGX;4.0;MAGY;-66.0;MAGZ;-6.0
MOT;0;1000.0;1;1000.0;2;1000.0;3;1000.0;4;0.0;5;0.0;6;0.0;7;0.0;
RC;ROLL;1516.0;PITCH;1483.0;YAW;1500.0;THROTTLE;1064.0;AUX1;1885.0;AUX2;1500.0;AUX3;1500.0;AUX4;1500.0
ALTITUDE;20.0
DEBUG;DEBUG120.0;DEBUG2;139.0;DEBUG3;765.0;DEBUG4;0.0
ATTITUDE;ANGX;0.0;ANGY;0.0;HEAD;-166.0
STATUS;CYCLETIME;2696;I2CERR;0;PRESENT;23;MODE;66
RAW_IMU;AX;3.0;AY;0.0;AZ;255.0;GX;0.0;GY;0.0;GZ;0.0;MAGX;4.0;MAGY;-67.0;MAGZ;-6.0
MOT;0;1000.0;1;1000.0;2;1000.0;3;1000.0;4;0.0;5;0.0;6;0.0;7;0.0;
RC;ROLL;1516.0;PITCH;1483.0;YAW;1500.0;THROTTLE;1064.0;AUX1;1892.0;AUX2;1500.0;AUX3;1500.0;AUX4;1500.0
ALTITUDE;20.0
DEBUG;DEBUG120.0;DEBUG2;139.0;DEBUG3;765.0;DEBUG4;0.0
ATTITUDE;ANGX;0.0;ANGY;0.0;HEAD;-166.0
STATUS;CYCLETIME;2856;I2CERR;0;PRESENT;23;MODE;66
RAW_IMU;AX;4.0;AY;1.0;AZ;255.0;GX;0.0;GY;0.0;GZ;0.0;MAGX;4.0;MAGY;-67.0;MAGZ;-6.0
MOT;0;1000.0;1;1000.0;2;1000.0;3;1000.0;4;0.0;5;0.0;6;0.0;7;0.0;
RC;ROLL;1514.0;PITCH;1487.0;YAW;1500.0;THROTTLE;1064.0;AUX1;1904.0;AUX2;1500.0;AUX3;1500.0;AUX4;1500.0
ALTITUDE;20.0
DEBUG;DEBUG120.0;DEBUG2;139.0;DEBUG3;765.0;DEBUG4;0.0
ATTITUDE;ANGX;0.0;ANGY;0.0;HEAD;-166.0
STATUS;CYCLETIME;3028;I2CERR;0;PRESENT;23;MODE;66
RAW_IMU;AX;3.0;AY;0.0;AZ;255.0;GX;0.0;GY;0.0;GZ;0.0;MAGX;5.0;MAGY;-65.0;MAGZ;-5.0
MOT;0;1000.0;1;1000.0;2;1000.0;3;1000.0;4;0.0;5;0.0;6;0.0;7;0.0;
RC;ROLL;1514.0;PITCH;1487.0;YAW;1500.0;THROTTLE;1064.0;AUX1;1912.0;AUX2;1500.0;AUX3;1500.0;AUX4;1500.0
ALTITUDE;20.0
DEBUG;DEBUG120.0;DEBUG2;139.0;DEBUG3;765.0;DEBUG4;0.0
ATTITUDE;ANGX;0.0;ANGY;0.0;HEAD;-166.0
STATUS;CYCLETIME;2960;I2CERR;0;PRESENT;23;MODE;66
RAW_IMU;AX;3.0;AY;0.0;AZ;256.0;GX;0.0;GY;0.0;GZ;0.0;MAGX;5.0;MAGY;-65.0;MAGZ;-5.0
MOT;0;1000.0;1;1000.0;2;1000.0;3;1000.0;4;0.0;5;0.0;6;0.0;7;0.0;
RC;ROLL;1514.0;PITCH;1485.0;YAW;1500.0;THROTTLE;1064.0;AUX1;1918.0;AUX2;1500.0;AUX3;1500.0;AUX4;1500.0
ALTITUDE;20.0
DEBUG;DEBUG120.0;DEBUG2;139.0;DEBUG3;765.0;DEBUG4;0.0
ATTITUDE;ANGX;0.0;ANGY;0.0;HEAD;-165.0
STATUS;CYCLETIME;2680;I2CERR;0;PRESENT;23;MODE;66
RAW_IMU;AX;3.0;AY;1.0;AZ;256.0;GX;0.0;GY;0.0;GZ;0.0;MAGX;5.0;MAGY;-65.0;MAGZ;-5.0
MOT;0;1000.0;1;1000.0;2;1000.0;3;1000.0;4;0.0;5;0.0;6;0.0;7;0.0;
RC;ROLL;1514.0;PITCH;1485.0;YAW;1500.0;THROTTLE;1066.0;AUX1;1929.0;AUX2;1500.0;AUX3;1500.0;AUX4;1500.0
ALTITUDE;20.0
DEBUG;DEBUG120.0;DEBUG2;139.0;DEBUG3;765.0;DEBUG4;0.0
ATTITUDE;ANGX;0.0;ANGY;0.0;HEAD;-165.0
STATUS;CYCLETIME;2812;I2CERR;0;PRESENT;23;MODE;66
RAW_IMU;AX;3.0;AY;1.0;AZ;256.0;GX;0.0;GY;0.0;GZ;0.0;MAGX;3.0;MAGY;-66.0;MAGZ;-5.0
MOT;0;1000.0;1;1000.0;2;1000.0;3;1000.0;4;0.0;5;0.0;6;0.0;7;0.0;
RC;ROLL;1514.0;PITCH;1485.0;YAW;1500.0;THROTTLE;1066.0;AUX1;1935.0;AUX2;1500.0;AUX3;1500.0;AUX4;1500.0
ALTITUDE;20.0
DEBUG;DEBUG120.0;DEBUG2;139.0;DEBUG3;765.0;DEBUG4;0.0
ATTITUDE;ANGX;0.0;ANGY;0.0;HEAD;-165.0
STATUS;CYCLETIME;2788;I2CERR;0;PRESENT;23;MODE;66
RAW_IMU;AX;3.0;AY;1.0;AZ;255.0;GX;0.0;GY;0.0;GZ;0.0;MAGX;3.0;MAGY;-66.0;MAGZ;-5.0
MOT;0;1000.0;1;1000.0;2;1000.0;3;1000.0;4;0.0;5;0.0;6;0.0;7;0.0;
RC;ROLL;1514.0;PITCH;1485.0;YAW;1500.0;THROTTLE;1066.0;AUX1;1944.0;AUX2;1500.0;AUX3;1500.0;AUX4;1500.0
ALTITUDE;20.0
DEBUG;DEBUG120.0;DEBUG2;139.0;DEBUG3;765.0;DEBUG4;0.0
ATTITUDE;ANGX;0.0;ANGY;0.0;HEAD;-165.0
STATUS;CYCLETIME;2720;I2CERR;0;PRESENT;23;MODE;66
RAW_IMU;AX;3.0;AY;0.0;AZ;255.0;GX;0.0;GY;0.0;GZ;0.0;MAGX;3.0;MAGY;-65.0;MAGZ;-6.0
MOT;0;1000.0;1;1000.0;2;1000.0;3;1000.0;4;0.0;5;0.0;6;0.0;7;0.0;
RC;ROLL;1514.0;PITCH;1485.0;YAW;1500.0;THROTTLE;1066.0;AUX1;1952.0;AUX2;1500.0;AUX3;1500.0;AUX4;1500.0
ALTITUDE;20.0
DEBUG;DEBUG120.0;DEBUG2;139.0;DEBUG3;765.0;DEBUG4;0.0
ATTITUDE;ANGX;0.0;ANGY;0.0;HEAD;-165.0
STATUS;CYCLETIME;2748;I2CERR;0;PRESENT;23;MODE;66
RAW_IMU;AX;3.0;AY;1.0;AZ;256.0;GX;0.0;GY;0.0;GZ;0.0;MAGX;3.0;MAGY;-65.0;MAGZ;-6.0
MOT;0;1000.0;1;1000.0;2;1000.0;3;1000.0;4;0.0;5;0.0;6;0.0;7;0.0;
RC;ROLL;1514.0;PITCH;1485.0;YAW;1500.0;THROTTLE;1066.0;AUX1;1961.0;AUX2;1500.0;AUX3;1500.0;AUX4;1500.0
ALTITUDE;20.0
DEBUG;DEBUG120.0;DEBUG2;139.0;DEBUG3;765.0;DEBUG4;0.0
ATTITUDE;ANGX;0.0;ANGY;0.0;HEAD;-166.0
STATUS;CYCLETIME;2948;I2CERR;0;PRESENT;23;MODE;66
RAW_IMU;AX;3.0;AY;1.0;AZ;255.0;GX;0.0;GY;0.0;GZ;0.0;MAGX;4.0;MAGY;-66.0;MAGZ;-6.0
MOT;0;1000.0;1;1000.0;2;1000.0;3;1000.0;4;0.0;5;0.0;6;0.0;7;0.0;
RC;ROLL;1514.0;PITCH;1485.0;YAW;1500.0;THROTTLE;1066.0;AUX1;1970.0;AUX2;1500.0;AUX3;1500.0;AUX4;1500.0
ALTITUDE;20.0
DEBUG;DEBUG120.0;DEBUG2;139.0;DEBUG3;765.0;DEBUG4;0.0
ATTITUDE;ANGX;0.0;ANGY;0.0;HEAD;-166.0
STATUS;CYCLETIME;3016;I2CERR;0;PRESENT;23;MODE;66
RAW_IMU;AX;3.0;AY;1.0;AZ;256.0;GX;0.0;GY;0.0;GZ;0.0;MAGX;4.0;MAGY;-66.0;MAGZ;-6.0
