IDENT;V;220;TYPE;3
MSP_MOTOR_PINS
STATUS;CYCLETIME;2876;I2CERR;0;PRESENT;23;MODE;0
RAW_IMU;AX;42.0;AY;-23.0;AZ;252.0;GX;-3.0;GY;0.0;GZ;0.0;MAGX;0.0;MAGY;-19.0;MAGZ;-4.0
MOT;0;1000.0;1;1000.0;2;1000.0;3;1000.0;4;0.0;5;0.0;6;0.0;7;0.0;
RC;ROLL;1506.0;PITCH;1517.0;YAW;1514.0;THROTTLE;1059.0;AUX1;1543.0;AUX2;1500.0;AUX3;1500.0;AUX4;1500.0
ALTITUDE;78.0
DEBUG;DEBUG1-97.0;DEBUG2;0.0;DEBUG3;78.0;DEBUG4;0.0
ATTITUDE;ANGX;8.0;ANGY;-4.0;HEAD;-167.0
STATUS;CYCLETIME;2992;I2CERR;0;PRESENT;23;MODE;0
RAW_IMU;AX;43.0;AY;-22.0;AZ;251.0;GX;-2.0;GY;0.0;GZ;0.0;MAGX;0.0;MAGY;-18.0;MAGZ;-4.0
MOT;0;1000.0;1;1000.0;2;1000.0;3;1000.0;4;0.0;5;0.0;6;0.0;7;0.0;
RC;ROLL;1502.0;PITCH;1517.0;YAW;1514.0;THROTTLE;1057.0;AUX1;1543.0;AUX2;1500.0;AUX3;1500.0;AUX4;1500.0
ALTITUDE;78.0
DEBUG;DEBUG1-97.0;DEBUG2;0.0;DEBUG3;78.0;DEBUG4;0.0
ATTITUDE;ANGX;8.0;ANGY;-4.0;HEAD;-167.0
STATUS;CYCLETIME;2960;I2CERR;0;PRESENT;23;MODE;0
RAW_IMU;AX;40.0;AY;-22.0;AZ;251.0;GX;0.0;GY;0.0;GZ;0.0;MAGX;0.0;MAGY;-18.0;MAGZ;-4.0
MOT;0;1000.0;1;1000.0;2;1000.0;3;1000.0;4;0.0;5;0.0;6;0.0;7;0.0;
RC;ROLL;1502.0;PITCH;1517.0;YAW;1516.0;THROTTLE;1057.0;AUX1;1541.0;AUX2;1500.0;AUX3;1500.0;AUX4;1500.0
ALTITUDE;78.0
DEBUG;DEBUG1-97.0;DEBUG2;0.0;DEBUG3;78.0;DEBUG4;0.0
ATTITUDE;ANGX;8.0;ANGY;-4.0;HEAD;-167.0
STATUS;CYCLETIME;3032;I2CERR;0;PRESENT;23;MODE;0
RAW_IMU;AX;37.0;AY;-22.0;AZ;252.0;GX;1.0;GY;0.0;GZ;0.0;MAGX;1.0;MAGY;-18.0;MAGZ;-4.0
MOT;0;1000.0;1;1000.0;2;1000.0;3;1000.0;4;0.0;5;0.0;6;0.0;7;0.0;
RC;ROLL;1502.0;PITCH;1517.0;YAW;1516.0;THROTTLE;1057.0;AUX1;1541.0;AUX2;1500.0;AUX3;1500.0;AUX4;1500.0
ALTITUDE;78.0
DEBUG;DEBUG1-97.0;DEBUG2;0.0;DEBUG3;78.0;DEBUG4;0.0
ATTITUDE;ANGX;8.0;ANGY;-4.0;HEAD;-167.0
STATUS;CYCLETIME;2896;I2CERR;0;PRESENT;23;MODE;0
RAW_IMU;AX;41.0;AY;-22.0;AZ;252.0;GX;2.0;GY;0.0;GZ;0.0;MAGX;1.0;MAGY;-18.0;MAGZ;-4.0
MOT;0;1000.0;1;1000.0;2;1000.0;3;1000.0;4;0.0;5;0.0;6;0.0;7;0.0;
RC;ROLL;1502.0;PITCH;1517.0;YAW;1516.0;THROTTLE;1057.0;AUX1;1541.0;AUX2;1500.0;AUX3;1500.0;AUX4;1500.0
ALTITUDE;78.0
DEBUG;DEBUG1-97.0;DEBUG2;0.0;DEBUG3;78.0;DEBUG4;0.0
ATTITUDE;ANGX;8.0;ANGY;-4.0;HEAD;-167.0
STATUS;CYCLETIME;2832;I2CERR;0;PRESENT;23;MODE;0
RAW_IMU;AX;42.0;AY;-19.0;AZ;253.0;GX;3.0;GY;0.0;GZ;0.0;MAGX;0.0;MAGY;-19.0;MAGZ;-4.0
MOT;0;1000.0;1;1000.0;2;1000.0;3;1000.0;4;0.0;5;0.0;6;0.0;7;0.0;
RC;ROLL;1502.0;PITCH;1517.0;YAW;1516.0;THROTTLE;1057.0;AUX1;1541.0;AUX2;1500.0;AUX3;1500.0;AUX4;1500.0
ALTITUDE;78.0
DEBUG;DEBUG1-97.0;DEBUG2;0.0;DEBUG3;78.0;DEBUG4;0.0
ATTITUDE;ANGX;9.0;ANGY;-4.0;HEAD;-167.0
STATUS;CYCLETIME;2912;I2CERR;0;PRESENT;23;MODE;0
RAW_IMU;AX;42.0;AY;-20.0;AZ;255.0;GX;2.0;GY;0.0;GZ;0.0;MAGX;0.0;MAGY;-19.0;MAGZ;-4.0
MOT;0;1000.0;1;1000.0;2;1000.0;3;1000.0;4;0.0;5;0.0;6;0.0;7;0.0;
RC;ROLL;1504.0;PITCH;1515.0;YAW;1516.0;THROTTLE;1057.0;AUX1;1541.0;AUX2;1500.0;AUX3;1500.0;AUX4;1500.0
ALTITUDE;78.0
DEBUG;DEBUG1-97.0;DEBUG2;0.0;DEBUG3;78.0;DEBUG4;0.0
ATTITUDE;ANGX;9.0;ANGY;-4.0;HEAD;-167.0
STATUS;CYCLETIME;3016;I2CERR;0;PRESENT;23;MODE;0
RAW_IMU;AX;41.0;AY;-21.0;AZ;250.0;GX;1.0;GY;0.0;GZ;0.0;MAGX;0.0;MAGY;-20.0;MAGZ;-3.0
MOT;0;1000.0;1;1000.0;2;1000.0;3;1000.0;4;0.0;5;0.0;6;0.0;7;0.0;
RC;ROLL;1504.0;PITCH;1515.0;YAW;1516.0;THROTTLE;1054.0;AUX1;1543.0;AUX2;1500.0;AUX3;1500.0;AUX4;1500.0
ALTITUDE;78.0
DEBUG;DEBUG1-97.0;DEBUG2;0.0;DEBUG3;78.0;DEBUG4;0.0
ATTITUDE;ANGX;9.0;ANGY;-4.0;HEAD;-167.0
STATUS;CYCLETIME;2948;I2CERR;0;PRESENT;23;MODE;0
RAW_IMU;AX;42.0;AY;-22.0;AZ;251.0;GX;0.0;GY;0.0;GZ;0.0;MAGX;0.0;MAGY;-20.0;MAGZ;-3.0
MOT;0;1000.0;1;1000.0;2;1000.0;3;1000.0;4;0.0;5;0.0;6;0.0;7;0.0;
RC;ROLL;1500.0;PITCH;1520.0;YAW;1514.0;THROTTLE;1054.0;AUX1;1543.0;AUX2;1500.0;AUX3;1500.0;AUX4;1500.0
ALTITUDE;78.0
DEBUG;DEBUG1-97.0;DEBUG2;0.0;DEBUG3;78.0;DEBUG4;0.0
ATTITUDE;ANGX;9.0;ANGY;-4.0;HEAD;-167.0
STATUS;CYCLETIME;2892;I2CERR;0;PRESENT;23;MODE;0
RAW_IMU;AX;41.0;AY;-19.0;AZ;254.0;GX;0.0;GY;1.0;GZ;0.0;MAGX;1.0;MAGY;-20.0;MAGZ;-3.0
MOT;0;1000.0;1;1000.0;2;1000.0;3;1000.0;4;0.0;5;0.0;6;0.0;7;0.0;
RC;ROLL;1500.0;PITCH;1518.0;YAW;1514.0;THROTTLE;1056.0;AUX1;1543.0;AUX2;1500.0;AUX3;1500.0;AUX4;1500.0
ALTITUDE;78.0
DEBUG;DEBUG1-97.0;DEBUG2;0.0;DEBUG3;78.0;DEBUG4;0.0
ATTITUDE;ANGX;9.0;ANGY;-4.0;HEAD;-167.0
STATUS;CYCLETIME;2908;I2CERR;0;PRESENT;23;MODE;0
RAW_IMU;AX;41.0;AY;-18.0;AZ;252.0;GX;0.0;GY;1.0;GZ;0.0;MAGX;1.0;MAGY;-20.0;MAGZ;-3.0
MOT;0;1000.0;1;1000.0;2;1000.0;3;1000.0;4;0.0;5;0.0;6;0.0;7;0.0;
RC;ROLL;1506.0;PITCH;1514.0;YAW;1514.0;THROTTLE;1059.0;AUX1;1547.0;AUX2;1500.0;AUX3;1500.0;AUX4;1500.0
ALTITUDE;78.0
DEBUG;DEBUG1-97.0;DEBUG2;0.0;DEBUG3;78.0;DEBUG4;0.0
ATTITUDE;ANGX;9.0;ANGY;-4.0;HEAD;-167.0
STATUS;CYCLETIME;2948;I2CERR;0;PRESENT;23;MODE;0
RAW_IMU;AX;40.0;AY;-19.0;AZ;250.0;GX;1.0;GY;0.0;GZ;0.0;MAGX;0.0;MAGY;-20.0;MAGZ;-3.0
MOT;0;1000.0;1;1000.0;2;1000.0;3;1000.0;4;0.0;5;0.0;6;0.0;7;0.0;
RC;ROLL;1503.0;PITCH;1518.0;YAW;1514.0;THROTTLE;1059.0;AUX1;1547.0;AUX2;1500.0;AUX3;1500.0;AUX4;1500.0
ALTITUDE;78.0
DEBUG;DEBUG1-97.0;DEBUG2;0.0;DEBUG3;78.0;DEBUG4;0.0
ATTITUDE;ANGX;9.0;ANGY;-4.0;HEAD;-167.0
STATUS;CYCLETIME;3056;I2CERR;0;PRESENT;23;MODE;0
RAW_IMU;AX;42.0;AY;-18.0;AZ;249.0;GX;0.0;GY;0.0;GZ;0.0;MAGX;0.0;MAGY;-20.0;MAGZ;-3.0
MOT;0;1000.0;1;1000.0;2;1000.0;3;1000.0;4;0.0;5;0.0;6;0.0;7;0.0;
RC;ROLL;1503.0;PITCH;1518.0;YAW;1514.0;THROTTLE;1057.0;AUX1;1547.0;AUX2;1500.0;AUX3;1500.0;AUX4;1500.0
ALTITUDE;78.0
DEBUG;DEBUG1-97.0;DEBUG2;0.0;DEBUG3;78.0;DEBUG4;0.0
ATTITUDE;ANGX;9.0;ANGY;-4.0;HEAD;-167.0
STATUS;CYCLETIME;2900;I2CERR;0;PRESENT;23;MODE;0
RAW_IMU;AX;43.0;AY;-19.0;AZ;251.0;GX;0.0;GY;0.0;GZ;0.0;MAGX;1.0;MAGY;-19.0;MAGZ;-5.0
MOT;0;1000.0;1;1000.0;2;1000.0;3;1000.0;4;0.0;5;0.0;6;0.0;7;0.0;
RC;ROLL;1503.0;PITCH;1518.0;YAW;1512.0;THROTTLE;1057.0;AUX1;1547.0;AUX2;1500.0;AUX3;1500.0;AUX4;1500.0
ALTITUDE;78.0
DEBUG;DEBUG1-97.0;DEBUG2;0.0;DEBUG3;78.0;DEBUG4;0.0
ATTITUDE;ANGX;9.0;ANGY;-4.0;HEAD;-167.0
STATUS;CYCLETIME;2988;I2CERR;0;PRESENT;23;MODE;0
RAW_IMU;AX;43.0;AY;-23.0;AZ;254.0;GX;-2.0;GY;0.0;GZ;0.0;MAGX;1.0;MAGY;-19.0;MAGZ;-5.0
MOT;0;1000.0;1;1000.0;2;1000.0;3;1000.0;4;0.0;5;0.0;6;0.0;7;0.0;
RC;ROLL;1503.0;PITCH;1518.0;YAW;1512.0;THROTTLE;1057.0;AUX1;1547.0;AUX2;1500.0;AUX3;1500.0;AUX4;1500.0
ALTITUDE;78.0
DEBUG;DEBUG1-97.0;DEBUG2;0.0;DEBUG3;78.0;DEBUG4;0.0
ATTITUDE;ANGX;9.0;ANGY;-4.0;HEAD;-167.0
STATUS;CYCLETIME;2976;I2CERR;0;PRESENT;23;MODE;0
RAW_IMU;AX;43.0;AY;-19.0;AZ;254.0;GX;-3.0;GY;0.0;GZ;0.0;MAGX;0.0;MAGY;-19.0;MAGZ;-3.0
MOT;0;1000.0;1;1000.0;2;1000.0;3;1000.0;4;0.0;5;0.0;6;0.0;7;0.0;
RC;ROLL;1503.0;PITCH;1518.0;YAW;1514.0;THROTTLE;1057.0;AUX1;1543.0;AUX2;1500.0;AUX3;1500.0;AUX4;1500.0
ALTITUDE;78.0
DEBUG;DEBUG1-97.0;DEBUG2;0.0;DEBUG3;78.0;DEBUG4;0.0
ATTITUDE;ANGX;9.0;ANGY;-4.0;HEAD;-167.0
STATUS;CYCLETIME;2912;I2CERR;0;PRESENT;23;MODE;0
RAW_IMU;AX;42.0;AY;-19.0;AZ;254.0;GX;-3.0;GY;1.0;GZ;0.0;MAGX;0.0;MAGY;-19.0;MAGZ;-3.0
MOT;0;1000.0;1;1000.0;2;1000.0;3;1000.0;4;0.0;5;0.0;6;0.0;7;0.0;
RC;ROLL;1503.0;PITCH;1518.0;YAW;1514.0;THROTTLE;1057.0;AUX1;1543.0;AUX2;1500.0;AUX3;1500.0;AUX4;1500.0
ALTITUDE;78.0
DEBUG;DEBUG1-97.0;DEBUG2;0.0;DEBUG3;78.0;DEBUG4;0.0
ATTITUDE;ANGX;9.0;ANGY;-4.0;HEAD;-167.0
STATUS;CYCLETIME;3060;I2CERR;0;PRESENT;23;MODE;0
RAW_IMU;AX;42.0;AY;-19.0;AZ;253.0;GX;-1.0;GY;1.0;GZ;0.0;MAGX;1.0;MAGY;-19.0;MAGZ;-3.0
MOT;0;1000.0;1;1000.0;2;1000.0;3;1000.0;4;0.0;5;0.0;6;0.0;7;0.0;
RC;ROLL;1503.0;PITCH;1518.0;YAW;1514.0;THROTTLE;1057.0;AUX1;1546.0;AUX2;1500.0;AUX3;1500.0;AUX4;1500.0
ALTITUDE;78.0
DEBUG;DEBUG1-97.0;DEBUG2;0.0;DEBUG3;78.0;DEBUG4;0.0
ATTITUDE;ANGX;8.0;ANGY;-4.0;HEAD;-167.0
STATUS;CYCLETIME;2840;I2CERR;0;PRESENT;23;MODE;0
RAW_IMU;AX;41.0;AY;-18.0;AZ;252.0;GX;0.0;GY;0.0;GZ;0.0;MAGX;1.0;MAGY;-19.0;MAGZ;-3.0
MOT;0;1000.0;1;1000.0;2;1000.0;3;1000.0;4;0.0;5;0.0;6;0.0;7;0.0;
RC;ROLL;1503.0;PITCH;1518.0;YAW;1514.0;THROTTLE;1057.0;AUX1;1546.0;AUX2;1500.0;AUX3;1500.0;AUX4;1500.0
ALTITUDE;78.0
DEBUG;DEBUG1-97.0;DEBUG2;0.0;DEBUG3;78.0;DEBUG4;0.0
ATTITUDE;ANGX;8.0;ANGY;-4.0;HEAD;-167.0
STATUS;CYCLETIME;2864;I2CERR;0;PRESENT;23;MODE;0
RAW_IMU;AX;44.0;AY;-17.0;AZ;250.0;GX;1.0;GY;0.0;GZ;0.0;MAGX;1.0;MAGY;-19.0;MAGZ;-3.0
MOT;0;1000.0;1;1000.0;2;1000.0;3;1000.0;4;0.0;5;0.0;6;0.0;7;0.0;
RC;ROLL;1503.0;PITCH;1518.0;YAW;1514.0;THROTTLE;1057.0;AUX1;1546.0;AUX2;1500.0;AUX3;1500.0;AUX4;1500.0
ALTITUDE;78.0
DEBUG;DEBUG1-97.0;DEBUG2;0.0;DEBUG3;78.0;DEBUG4;0.0
ATTITUDE;ANGX;8.0;ANGY;-4.0;HEAD;-166.0
STATUS;CYCLETIME;2944;I2CERR;0;PRESENT;23;MODE;0
RAW_IMU;AX;43.0;AY;-18.0;AZ;251.0;GX;1.0;GY;0.0;GZ;0.0;MAGX;1.0;MAGY;-19.0;MAGZ;-4.0
MOT;0;1000.0;1;1000.0;2;1000.0;3;1000.0;4;0.0;5;0.0;6;0.0;7;0.0;
RC;ROLL;1503.0;PITCH;1518.0;YAW;1516.0;THROTTLE;1057.0;AUX1;1546.0;AUX2;1500.0;AUX3;1500.0;AUX4;1500.0
ALTITUDE;78.0
DEBUG;DEBUG1-97.0;DEBUG2;0.0;DEBUG3;78.0;DEBUG4;0.0
ATTITUDE;ANGX;9.0;ANGY;-4.0;HEAD;-166.0
STATUS;CYCLETIME;2932;I2CERR;0;PRESENT;23;MODE;0
RAW_IMU;AX;44.0;AY;-23.0;AZ;255.0;GX;0.0;GY;-1.0;GZ;0.0;MAGX;1.0;MAGY;-19.0;MAGZ;-4.0
MOT;0;1000.0;1;1000.0;2;1000.0;3;1000.0;4;0.0;5;0.0;6;0.0;7;0.0;
RC;ROLL;1503.0;PITCH;1518.0;YAW;1518.0;THROTTLE;1057.0;AUX1;1544.0;AUX2;1500.0;AUX3;1500.0;AUX4;1500.0
ALTITUDE;78.0
DEBUG;DEBUG1-97.0;DEBUG2;0.0;DEBUG3;78.0;DEBUG4;0.0
ATTITUDE;ANGX;9.0;ANGY;-4.0;HEAD;-166.0
STATUS;CYCLETIME;2888;I2CERR;0;PRESENT;23;MODE;0
RAW_IMU;AX;43.0;AY;-24.0;AZ;253.0;GX;0.0;GY;0.0;GZ;0.0;MAGX;0.0;MAGY;-18.0;MAGZ;-4.0
MOT;0;1000.0;1;1000.0;2;1000.0;3;1000.0;4;0.0;5;0.0;6;0.0;7;0.0;
RC;ROLL;1499.0;PITCH;1518.0;YAW;1516.0;THROTTLE;1057.0;AUX1;1544.0;AUX2;1500.0;AUX3;1500.0;AUX4;1500.0
ALTITUDE;78.0
DEBUG;DEBUG1-97.0;DEBUG2;0.0;DEBUG3;78.0;DEBUG4;0.0
ATTITUDE;ANGX;9.0;ANGY;-4.0;HEAD;-166.0
STATUS;CYCLETIME;2888;I2CERR;0;PRESENT;23;MODE;0
RAW_IMU;AX;40.0;AY;-23.0;AZ;254.0;GX;0.0;GY;0.0;GZ;0.0;MAGX;0.0;MAGY;-18.0;MAGZ;-4.0
MOT;0;1000.0;1;1000.0;2;1000.0;3;1000.0;4;0.0;5;0.0;6;0.0;7;0.0;
RC;ROLL;1499.0;PITCH;1518.0;YAW;1516.0;THROTTLE;1057.0;AUX1;1544.0;AUX2;1500.0;AUX3;1500.0;AUX4;1500.0
ALTITUDE;78.0
DEBUG;DEBUG1-97.0;DEBUG2;0.0;DEBUG3;78.0;DEBUG4;0.0
ATTITUDE;ANGX;9.0;ANGY;-4.0;HEAD;-166.0
STATUS;CYCLETIME;2884;I2CERR;0;PRESENT;23;MODE;0
RAW_IMU;AX;41.0;AY;-22.0;AZ;252.0;GX;1.0;GY;1.0;GZ;0.0;MAGX;0.0;MAGY;-18.0;MAGZ;-4.0
MOT;0;1000.0;1;1000.0;2;1000.0;3;1000.0;4;0.0;5;0.0;6;0.0;7;0.0;
RC;ROLL;1503.0;PITCH;1518.0;YAW;1514.0;THROTTLE;1057.0;AUX1;1544.0;AUX2;1500.0;AUX3;1500.0;AUX4;1500.0
ALTITUDE;78.0
DEBUG;DEBUG1-97.0;DEBUG2;0.0;DEBUG3;78.0;DEBUG4;0.0
ATTITUDE;ANGX;9.0;ANGY;-4.0;HEAD;-166.0
STATUS;CYCLETIME;3004;I2CERR;0;PRESENT;23;MODE;0
RAW_IMU;AX;42.0;AY;-20.0;AZ;251.0;GX;2.0;GY;0.0;GZ;0.0;MAGX;0.0;MAGY;-18.0;MAGZ;-4.0
MOT;0;1000.0;1;1000.0;2;1000.0;3;1000.0;4;0.0;5;0.0;6;0.0;7;0.0;
RC;ROLL;1505.0;PITCH;1516.0;YAW;1514.0;THROTTLE;1057.0;AUX1;1548.0;AUX2;1500.0;AUX3;1500.0;AUX4;1500.0
ALTITUDE;78.0
DEBUG;DEBUG1-97.0;DEBUG2;0.0;DEBUG3;78.0;DEBUG4;0.0
ATTITUDE;ANGX;9.0;ANGY;-4.0;HEAD;-166.0
STATUS;CYCLETIME;2936;I2CERR;0;PRESENT;23;MODE;0
RAW_IMU;AX;41.0;AY;-19.0;AZ;250.0;GX;3.0;GY;0.0;GZ;0.0;MAGX;0.0;MAGY;-18.0;MAGZ;-3.0
MOT;0;1000.0;1;1000.0;2;1000.0;3;1000.0;4;0.0;5;0.0;6;0.0;7;0.0;
RC;ROLL;1503.0;PITCH;1516.0;YAW;1514.0;THROTTLE;1057.0;AUX1;1548.0;AUX2;1500.0;AUX3;1500.0;AUX4;1500.0
ALTITUDE;78.0
DEBUG;DEBUG1-97.0;DEBUG2;0.0;DEBUG3;78.0;DEBUG4;0.0
ATTITUDE;ANGX;9.0;ANGY;-4.0;HEAD;-167.0
STATUS;CYCLETIME;2940;I2CERR;0;PRESENT;23;MODE;0
RAW_IMU;AX;42.0;AY;-16.0;AZ;250.0;GX;3.0;GY;0.0;GZ;0.0;MAGX;0.0;MAGY;-18.0;MAGZ;-3.0
MOT;0;1000.0;1;1000.0;2;1000.0;3;1000.0;4;0.0;5;0.0;6;0.0;7;0.0;
RC;ROLL;1503.0;PITCH;1514.0;YAW;1514.0;THROTTLE;1057.0;AUX1;1548.0;AUX2;1500.0;AUX3;1500.0;AUX4;1500.0
ALTITUDE;78.0
DEBUG;DEBUG1-97.0;DEBUG2;0.0;DEBUG3;78.0;DEBUG4;0.0
ATTITUDE;ANGX;10.0;ANGY;-4.0;HEAD;-167.0
STATUS;CYCLETIME;2920;I2CERR;0;PRESENT;23;MODE;0
RAW_IMU;AX;48.0;AY;-18.0;AZ;251.0;GX;1.0;GY;0.0;GZ;0.0;MAGX;1.0;MAGY;-19.0;MAGZ;-4.0
MOT;0;1000.0;1;1000.0;2;1000.0;3;1000.0;4;0.0;5;0.0;6;0.0;7;0.0;
RC;ROLL;1503.0;PITCH;1518.0;YAW;1514.0;THROTTLE;1051.0;AUX1;1548.0;AUX2;1500.0;AUX3;1500.0;AUX4;1500.0
ALTITUDE;78.0
DEBUG;DEBUG1-97.0;DEBUG2;0.0;DEBUG3;78.0;DEBUG4;0.0
ATTITUDE;ANGX;10.0;ANGY;-4.0;HEAD;-167.0
STATUS;CYCLETIME;2940;I2CERR;0;PRESENT;23;MODE;0
RAW_IMU;AX;46.0;AY;-20.0;AZ;251.0;GX;-1.0;GY;0.0;GZ;0.0;MAGX;1.0;MAGY;-19.0;MAGZ;-4.0
MOT;0;1000.0;1;1000.0;2;1000.0;3;1000.0;4;0.0;5;0.0;6;0.0;7;0.0;
RC;ROLL;1503.0;PITCH;1521.0;YAW;1514.0;THROTTLE;1051.0;AUX1;1546.0;AUX2;1500.0;AUX3;1500.0;AUX4;1500.0
ALTITUDE;78.0
DEBUG;DEBUG1-97.0;DEBUG2;0.0;DEBUG3;78.0;DEBUG4;0.0
ATTITUDE;ANGX;10.0;ANGY;-4.0;HEAD;-166.0
STATUS;CYCLETIME;2896;I2CERR;0;PRESENT;23;MODE;0
RAW_IMU;AX;47.0;AY;-19.0;AZ;251.0;GX;-4.0;GY;0.0;GZ;0.0;MAGX;0.0;MAGY;-20.0;MAGZ;-4.0
MOT;0;1000.0;1;1000.0;2;1000.0;3;1000.0;4;0.0;5;0.0;6;0.0;7;0.0;
RC;ROLL;1503.0;PITCH;1521.0;YAW;1514.0;THROTTLE;1053.0;AUX1;1546.0;AUX2;1500.0;AUX3;1500.0;AUX4;1500.0
ALTITUDE;78.0
DEBUG;DEBUG1-97.0;DEBUG2;0.0;DEBUG3;78.0;DEBUG4;0.0
ATTITUDE;ANGX;9.0;ANGY;-4.0;HEAD;-166.0
STATUS;CYCLETIME;2904;I2CERR;0;PRESENT;23;MODE;0
RAW_IMU;AX;44.0;AY;-17.0;AZ;251.0;GX;-5.0;GY;1.0;GZ;0.0;MAGX;0.0;MAGY;-20.0;MAGZ;-4.0
MOT;0;1000.0;1;1000.0;2;1000.0;3;1000.0;4;0.0;5;0.0;6;0.0;7;0.0;
RC;ROLL;1505.0;PITCH;1519.0;YAW;1511.0;THROTTLE;1053.0;AUX1;1551.0;AUX2;1500.0;AUX3;1500.0;AUX4;1500.0
ALTITUDE;78.0
DEBUG;DEBUG1-97.0;DEBUG2;0.0;DEBUG3;78.0;DEBUG4;0.0
ATTITUDE;ANGX;9.0;ANGY;-4.0;HEAD;-166.0
STATUS;CYCLETIME;2928;I2CERR;0;PRESENT;23;MODE;0
RAW_IMU;AX;41.0;AY;-17.0;AZ;251.0;GX;-4.0;GY;0.0;GZ;0.0;MAGX;0.0;MAGY;-19.0;MAGZ;-4.0
MOT;0;1000.0;1;1000.0;2;1000.0;3;1000.0;4;0.0;5;0.0;6;0.0;7;0.0;
RC;ROLL;1505.0;PITCH;1519.0;YAW;1516.0;THROTTLE;1047.0;AUX1;1548.0;AUX2;1500.0;AUX3;1500.0;AUX4;1500.0
ALTITUDE;78.0
DEBUG;DEBUG1-97.0;DEBUG2;0.0;DEBUG3;78.0;DEBUG4;0.0
ATTITUDE;ANGX;8.0;ANGY;-4.0;HEAD;-166.0
STATUS;CYCLETIME;2896;I2CERR;0;PRESENT;23;MODE;0
RAW_IMU;AX;38.0;AY;-17.0;AZ;252.0;GX;-2.0;GY;0.0;GZ;0.0;MAGX;0.0;MAGY;-19.0;MAGZ;-4.0
MOT;0;1000.0;1;1000.0;2;1000.0;3;1000.0;4;0.0;5;0.0;6;0.0;7;0.0;
RC;ROLL;1503.0;PITCH;1519.0;YAW;1522.0;THROTTLE;1047.0;AUX1;1538.0;AUX2;1500.0;AUX3;1500.0;AUX4;1500.0
ALTITUDE;78.0
DEBUG;DEBUG1-97.0;DEBUG2;0.0;DEBUG3;78.0;DEBUG4;0.0
ATTITUDE;ANGX;8.0;ANGY;-4.0;HEAD;-166.0
STATUS;CYCLETIME;2916;I2CERR;0;PRESENT;23;MODE;0
RAW_IMU;AX;41.0;AY;-19.0;AZ;254.0;GX;0.0;GY;0.0;GZ;0.0;MAGX;0.0;MAGY;-20.0;MAGZ;-4.0
MOT;0;1000.0;1;1000.0;2;1000.0;3;1000.0;4;0.0;5;0.0;6;0.0;7;0.0;
RC;ROLL;1503.0;PITCH;1519.0;YAW;1517.0;THROTTLE;1047.0;AUX1;1542.0;AUX2;1500.0;AUX3;1500.0;AUX4;1500.0
ALTITUDE;79.0
DEBUG;DEBUG1-97.0;DEBUG2;0.0;DEBUG3;79.0;DEBUG4;0.0
ATTITUDE;ANGX;8.0;ANGY;-4.0;HEAD;-166.0
STATUS;CYCLETIME;2896;I2CERR;0;PRESENT;23;MODE;0
RAW_IMU;AX;42.0;AY;-18.0;AZ;252.0;GX;2.0;GY;0.0;GZ;-1.0;MAGX;0.0;MAGY;-20.0;MAGZ;-4.0
MOT;0;1000.0;1;1000.0;2;1000.0;3;1000.0;4;0.0;5;0.0;6;0.0;7;0.0;
RC;ROLL;1503.0;PITCH;1519.0;YAW;1517.0;THROTTLE;1047.0;AUX1;1542.0;AUX2;1500.0;AUX3;1500.0;AUX4;1500.0
ALTITUDE;79.0
DEBUG;DEBUG1-97.0;DEBUG2;0.0;DEBUG3;79.0;DEBUG4;0.0
ATTITUDE;ANGX;8.0;ANGY;-4.0;HEAD;-166.0
STATUS;CYCLETIME;2912;I2CERR;0;PRESENT;23;MODE;0
RAW_IMU;AX;41.0;AY;-18.0;AZ;249.0;GX;2.0;GY;0.0;GZ;0.0;MAGX;0.0;MAGY;-18.0;MAGZ;-3.0
MOT;0;1000.0;1;1000.0;2;1000.0;3;1000.0;4;0.0;5;0.0;6;0.0;7;0.0;
RC;ROLL;1498.0;PITCH;1521.0;YAW;1521.0;THROTTLE;1047.0;AUX1;1542.0;AUX2;1500.0;AUX3;1500.0;AUX4;1500.0
ALTITUDE;79.0
DEBUG;DEBUG1-97.0;DEBUG2;0.0;DEBUG3;79.0;DEBUG4;0.0
ATTITUDE;ANGX;9.0;ANGY;-4.0;HEAD;-166.0
STATUS;CYCLETIME;2896;I2CERR;0;PRESENT;23;MODE;0
RAW_IMU;AX;44.0;AY;-20.0;AZ;251.0;GX;1.0;GY;0.0;GZ;0.0;MAGX;0.0;MAGY;-18.0;MAGZ;-3.0
MOT;0;1000.0;1;1000.0;2;1000.0;3;1000.0;4;0.0;5;0.0;6;0.0;7;0.0;
RC;ROLL;1498.0;PITCH;1521.0;YAW;1521.0;THROTTLE;1047.0;AUX1;1542.0;AUX2;1500.0;AUX3;1500.0;AUX4;1500.0
ALTITUDE;79.0
DEBUG;DEBUG1-97.0;DEBUG2;0.0;DEBUG3;79.0;DEBUG4;0.0
ATTITUDE;ANGX;9.0;ANGY;-4.0;HEAD;-166.0
STATUS;CYCLETIME;2968;I2CERR;0;PRESENT;23;MODE;0
RAW_IMU;AX;45.0;AY;-18.0;AZ;252.0;GX;0.0;GY;0.0;GZ;0.0;MAGX;0.0;MAGY;-19.0;MAGZ;-4.0
MOT;0;1000.0;1;1000.0;2;1000.0;3;1000.0;4;0.0;5;0.0;6;0.0;7;0.0;
RC;ROLL;1502.0;PITCH;1518.0;YAW;1517.0;THROTTLE;1047.0;AUX1;1542.0;AUX2;1500.0;AUX3;1500.0;AUX4;1500.0
ALTITUDE;79.0
DEBUG;DEBUG1-97.0;DEBUG2;0.0;DEBUG3;79.0;DEBUG4;0.0
ATTITUDE;ANGX;9.0;ANGY;-4.0;HEAD;-166.0
STATUS;CYCLETIME;2852;I2CERR;0;PRESENT;23;MODE;0
RAW_IMU;AX;44.0;AY;-22.0;AZ;253.0;GX;0.0;GY;0.0;GZ;0.0;MAGX;0.0;MAGY;-19.0;MAGZ;-4.0
MOT;0;1000.0;1;1000.0;2;1000.0;3;1000.0;4;0.0;5;0.0;6;0.0;7;0.0;
RC;ROLL;1502.0;PITCH;1518.0;YAW;1517.0;THROTTLE;1049.0;AUX1;1542.0;AUX2;1500.0;AUX3;1500.0;AUX4;1500.0
ALTITUDE;79.0
DEBUG;DEBUG1-97.0;DEBUG2;0.0;DEBUG3;79.0;DEBUG4;0.0
ATTITUDE;ANGX;9.0;ANGY;-4.0;HEAD;-166.0
STATUS;CYCLETIME;2908;I2CERR;0;PRESENT;23;MODE;0
RAW_IMU;AX;42.0;AY;-19.0;AZ;251.0;GX;0.0;GY;0.0;GZ;0.0;MAGX;0.0;MAGY;-19.0;MAGZ;-4.0
MOT;0;1000.0;1;1000.0;2;1000.0;3;1000.0;4;0.0;5;0.0;6;0.0;7;0.0;
RC;ROLL;1502.0;PITCH;1518.0;YAW;1514.0;THROTTLE;1056.0;AUX1;1546.0;AUX2;1500.0;AUX3;1500.0;AUX4;1500.0
ALTITUDE;79.0
DEBUG;DEBUG1-97.0;DEBUG2;0.0;DEBUG3;79.0;DEBUG4;0.0
ATTITUDE;ANGX;9.0;ANGY;-4.0;HEAD;-166.0
STATUS;CYCLETIME;2920;I2CERR;0;PRESENT;23;MODE;0
RAW_IMU;AX;41.0;AY;-20.0;AZ;250.0;GX;0.0;GY;0.0;GZ;0.0;MAGX;0.0;MAGY;-19.0;MAGZ;-4.0
MOT;0;1000.0;1;1000.0;2;1000.0;3;1000.0;4;0.0;5;0.0;6;0.0;7;0.0;
RC;ROLL;1502.0;PITCH;1518.0;YAW;1514.0;THROTTLE;1059.0;AUX1;1543.0;AUX2;1500.0;AUX3;1500.0;AUX4;1500.0
ALTITUDE;79.0
DEBUG;DEBUG1-97.0;DEBUG2;0.0;DEBUG3;79.0;DEBUG4;0.0
ATTITUDE;ANGX;9.0;ANGY;-4.0;HEAD;-166.0
STATUS;CYCLETIME;2968;I2CERR;0;PRESENT;23;MODE;0
RAW_IMU;AX;41.0;AY;-16.0;AZ;250.0;GX;1.0;GY;0.0;GZ;0.0;MAGX;0.0;MAGY;-19.0;MAGZ;-4.0
MOT;0;1000.0;1;1000.0;2;1000.0;3;1000.0;4;0.0;5;0.0;6;0.0;7;0.0;
RC;ROLL;1506.0;PITCH;1518.0;YAW;1520.0;THROTTLE;1055.0;AUX1;1540.0;AUX2;1500.0;AUX3;1500.0;AUX4;1500.0
ALTITUDE;79.0
DEBUG;DEBUG1-97.0;DEBUG2;0.0;DEBUG3;79.0;DEBUG4;0.0
ATTITUDE;ANGX;9.0;ANGY;-4.0;HEAD;-167.0
STATUS;CYCLETIME;2908;I2CERR;0;PRESENT;23;MODE;0
RAW_IMU;AX;45.0;AY;-16.0;AZ;250.0;GX;0.0;GY;-1.0;GZ;0.0;MAGX;0.0;MAGY;-20.0;MAGZ;-4.0
MOT;0;1000.0;1;1000.0;2;1000.0;3;1000.0;4;0.0;5;0.0;6;0.0;7;0.0;
RC;ROLL;1506.0;PITCH;1518.0;YAW;1525.0;THROTTLE;1051.0;AUX1;1540.0;AUX2;1500.0;AUX3;1500.0;AUX4;1500.0
ALTITUDE;79.0
DEBUG;DEBUG1-97.0;DEBUG2;0.0;DEBUG3;79.0;DEBUG4;0.0
ATTITUDE;ANGX;9.0;ANGY;-4.0;HEAD;-167.0
STATUS;CYCLETIME;2872;I2CERR;0;PRESENT;23;MODE;0
RAW_IMU;AX;45.0;AY;-19.0;AZ;251.0;GX;0.0;GY;-1.0;GZ;0.0;MAGX;0.0;MAGY;-20.0;MAGZ;-4.0
MOT;0;1000.0;1;1000.0;2;1000.0;3;1000.0;4;0.0;5;0.0;6;0.0;7;0.0;
RC;ROLL;1504.0;PITCH;1518.0;YAW;1525.0;THROTTLE;1051.0;AUX1;1540.0;AUX2;1500.0;AUX3;1500.0;AUX4;1500.0
ALTITUDE;79.0
DEBUG;DEBUG1-97.0;DEBUG2;0.0;DEBUG3;79.0;DEBUG4;0.0
ATTITUDE;ANGX;9.0;ANGY;-4.0;HEAD;-167.0
STATUS;CYCLETIME;2924;I2CERR;0;PRESENT;23;MODE;0
RAW_IMU;AX;46.0;AY;-20.0;AZ;251.0;GX;-1.0;GY;0.0;GZ;0.0;MAGX;0.0;MAGY;-20.0;MAGZ;-4.0
MOT;0;1000.0;1;1000.0;2;1000.0;3;1000.0;4;0.0;5;0.0;6;0.0;7;0.0;
RC;ROLL;1506.0;PITCH;1518.0;YAW;1520.0;THROTTLE;1051.0;AUX1;1540.0;AUX2;1500.0;AUX3;1500.0;AUX4;1500.0
ALTITUDE;79.0
DEBUG;DEBUG1-97.0;DEBUG2;0.0;DEBUG3;79.0;DEBUG4;0.0
ATTITUDE;ANGX;9.0;ANGY;-4.0;HEAD;-167.0
STATUS;CYCLETIME;2896;I2CERR;0;PRESENT;23;MODE;0
RAW_IMU;AX;45.0;AY;-21.0;AZ;251.0;GX;-2.0;GY;0.0;GZ;0.0;MAGX;0.0;MAGY;-20.0;MAGZ;-4.0
MOT;0;1000.0;1;1000.0;2;1000.0;3;1000.0;4;0.0;5;0.0;6;0.0;7;0.0;
RC;ROLL;1509.0;PITCH;1512.0;YAW;1520.0;THROTTLE;1051.0;AUX1;1540.0;AUX2;1500.0;AUX3;1500.0;AUX4;1500.0
ALTITUDE;79.0
DEBUG;DEBUG1-97.0;DEBUG2;0.0;DEBUG3;79.0;DEBUG4;0.0
ATTITUDE;ANGX;9.0;ANGY;-4.0;HEAD;-166.0
STATUS;CYCLETIME;2848;I2CERR;0;PRESENT;23;MODE;0
RAW_IMU;AX;39.0;AY;-20.0;AZ;254.0;GX;-2.0;GY;1.0;GZ;0.0;MAGX;0.0;MAGY;-19.0;MAGZ;-4.0
MOT;0;1000.0;1;1000.0;2;1000.0;3;1000.0;4;0.0;5;0.0;6;0.0;7;0.0;
RC;ROLL;1506.0;PITCH;1516.0;YAW;1520.0;THROTTLE;1051.0;AUX1;1540.0;AUX2;1500.0;AUX3;1500.0;AUX4;1500.0
ALTITUDE;79.0
DEBUG;DEBUG1-97.0;DEBUG2;0.0;DEBUG3;79.0;DEBUG4;0.0
ATTITUDE;ANGX;9.0;ANGY;-4.0;HEAD;-166.0
STATUS;CYCLETIME;2892;I2CERR;0;PRESENT;23;MODE;0
RAW_IMU;AX;41.0;AY;-19.0;AZ;252.0;GX;-1.0;GY;0.0;GZ;0.0;MAGX;0.0;MAGY;-19.0;MAGZ;-4.0
MOT;0;1000.0;1;1000.0;2;1000.0;3;1000.0;4;0.0;5;0.0;6;0.0;7;0.0;
RC;ROLL;1502.0;PITCH;1520.0;YAW;1520.0;THROTTLE;1049.0;AUX1;1540.0;AUX2;1500.0;AUX3;1500.0;AUX4;1500.0
ALTITUDE;79.0
DEBUG;DEBUG1-97.0;DEBUG2;0.0;DEBUG3;79.0;DEBUG4;0.0
ATTITUDE;ANGX;8.0;ANGY;-4.0;HEAD;-166.0
STATUS;CYCLETIME;2888;I2CERR;0;PRESENT;23;MODE;0
RAW_IMU;AX;41.0;AY;-21.0;AZ;250.0;GX;0.0;GY;0.0;GZ;0.0;MAGX;1.0;MAGY;-18.0;MAGZ;-3.0
MOT;0;1000.0;1;1000.0;2;1000.0;3;1000.0;4;0.0;5;0.0;6;0.0;7;0.0;
RC;ROLL;1502.0;PITCH;1520.0;YAW;1520.0;THROTTLE;1049.0;AUX1;1540.0;AUX2;1500.0;AUX3;1500.0;AUX4;1500.0
ALTITUDE;79.0
DEBUG;DEBUG1-97.0;DEBUG2;0.0;DEBUG3;79.0;DEBUG4;0.0
ATTITUDE;ANGX;8.0;ANGY;-4.0;HEAD;-166.0
STATUS;CYCLETIME;2916;I2CERR;0;PRESENT;23;MODE;0
RAW_IMU;AX;42.0;AY;-19.0;AZ;250.0;GX;1.0;GY;0.0;GZ;0.0;MAGX;1.0;MAGY;-18.0;MAGZ;-3.0
MOT;0;1000.0;1;1000.0;2;1000.0;3;1000.0;4;0.0;5;0.0;6;0.0;7;0.0;
RC;ROLL;1502.0;PITCH;1520.0;YAW;1520.0;THROTTLE;1049.0;AUX1;1540.0;AUX2;1500.0;AUX3;1500.0;AUX4;1500.0
ALTITUDE;79.0
DEBUG;DEBUG1-97.0;DEBUG2;0.0;DEBUG3;79.0;DEBUG4;0.0
ATTITUDE;ANGX;9.0;ANGY;-4.0;HEAD;-166.0
STATUS;CYCLETIME;2896;I2CERR;0;PRESENT;23;MODE;0
RAW_IMU;AX;42.0;AY;-22.0;AZ;252.0;GX;1.0;GY;0.0;GZ;0.0;MAGX;1.0;MAGY;-18.0;MAGZ;-3.0
MOT;0;1000.0;1;1000.0;2;1000.0;3;1000.0;4;0.0;5;0.0;6;0.0;7;0.0;
RC;ROLL;1502.0;PITCH;1520.0;YAW;1520.0;THROTTLE;1049.0;AUX1;1545.0;AUX2;1500.0;AUX3;1500.0;AUX4;1500.0
ALTITUDE;79.0
DEBUG;DEBUG1-97.0;DEBUG2;0.0;DEBUG3;79.0;DEBUG4;0.0
ATTITUDE;ANGX;9.0;ANGY;-4.0;HEAD;-166.0
STATUS;CYCLETIME;2908;I2CERR;0;PRESENT;23;MODE;0
RAW_IMU;AX;44.0;AY;-21.0;AZ;254.0;GX;1.0;GY;0.0;GZ;0.0;MAGX;1.0;MAGY;-18.0;MAGZ;-3.0
MOT;0;1000.0;1;1000.0;2;1000.0;3;1000.0;4;0.0;5;0.0;6;0.0;7;0.0;
RC;ROLL;1504.0;PITCH;1520.0;YAW;1520.0;THROTTLE;1052.0;AUX1;1545.0;AUX2;1500.0;AUX3;1500.0;AUX4;1500.0
ALTITUDE;79.0
DEBUG;DEBUG1-97.0;DEBUG2;0.0;DEBUG3;79.0;DEBUG4;0.0
ATTITUDE;ANGX;9.0;ANGY;-4.0;HEAD;-166.0
STATUS;CYCLETIME;2972;I2CERR;0;PRESENT;23;MODE;0
RAW_IMU;AX;43.0;AY;-20.0;AZ;252.0;GX;0.0;GY;0.0;GZ;0.0;MAGX;0.0;MAGY;-19.0;MAGZ;-4.0
MOT;0;1000.0;1;1000.0;2;1000.0;3;1000.0;4;0.0;5;0.0;6;0.0;7;0.0;
RC;ROLL;1502.0;PITCH;1520.0;YAW;1520.0;THROTTLE;1054.0;AUX1;1543.0;AUX2;1500.0;AUX3;1500.0;AUX4;1500.0
ALTITUDE;79.0
DEBUG;DEBUG1-97.0;DEBUG2;0.0;DEBUG3;79.0;DEBUG4;0.0
ATTITUDE;ANGX;9.0;ANGY;-4.0;HEAD;-166.0
STATUS;CYCLETIME;2944;I2CERR;0;PRESENT;23;MODE;0
RAW_IMU;AX;44.0;AY;-18.0;AZ;252.0;GX;0.0;GY;0.0;GZ;0.0;MAGX;0.0;MAGY;-19.0;MAGZ;-4.0
MOT;0;1000.0;1;1000.0;2;1000.0;3;1000.0;4;0.0;5;0.0;6;0.0;7;0.0;
RC;ROLL;1502.0;PITCH;1520.0;YAW;1520.0;THROTTLE;1056.0;AUX1;1543.0;AUX2;1500.0;AUX3;1500.0;AUX4;1500.0
ALTITUDE;79.0
DEBUG;DEBUG1-97.0;DEBUG2;0.0;DEBUG3;79.0;DEBUG4;0.0
ATTITUDE;ANGX;9.0;ANGY;-4.0;HEAD;-166.0
STATUS;CYCLETIME;2920;I2CERR;0;PRESENT;23;MODE;0
RAW_IMU;AX;43.0;AY;-18.0;AZ;252.0;GX;0.0;GY;0.0;GZ;0.0;MAGX;0.0;MAGY;-18.0;MAGZ;-4.0
MOT;0;1000.0;1;1000.0;2;1000.0;3;1000.0;4;0.0;5;0.0;6;0.0;7;0.0;
RC;ROLL;1506.0;PITCH;1518.0;YAW;1516.0;THROTTLE;1056.0;AUX1;1545.0;AUX2;1500.0;AUX3;1500.0;AUX4;1500.0
ALTITUDE;79.0
DEBUG;DEBUG1-97.0;DEBUG2;0.0;DEBUG3;79.0;DEBUG4;0.0
ATTITUDE;ANGX;9.0;ANGY;-4.0;HEAD;-166.0
STATUS;CYCLETIME;2880;I2CERR;0;PRESENT;23;MODE;0
RAW_IMU;AX;42.0;AY;-20.0;AZ;251.0;GX;0.0;GY;0.0;GZ;0.0;MAGX;0.0;MAGY;-18.0;MAGZ;-4.0
MOT;0;1000.0;1;1000.0;2;1000.0;3;1000.0;4;0.0;5;0.0;6;0.0;7;0.0;
RC;ROLL;1508.0;PITCH;1518.0;YAW;1520.0;THROTTLE;1056.0;AUX1;1545.0;AUX2;1500.0;AUX3;1500.0;AUX4;1500.0
ALTITUDE;79.0
DEBUG;DEBUG1-97.0;DEBUG2;0.0;DEBUG3;78.0;DEBUG4;0.0
ATTITUDE;ANGX;9.0;ANGY;-4.0;HEAD;-166.0
STATUS;CYCLETIME;2896;I2CERR;0;PRESENT;23;MODE;0
RAW_IMU;AX;41.0;AY;-20.0;AZ;251.0;GX;0.0;GY;0.0;GZ;0.0;MAGX;0.0;MAGY;-18.0;MAGZ;-4.0
MOT;0;1000.0;1;1000.0;2;1000.0;3;1000.0;4;0.0;5;0.0;6;0.0;7;0.0;
RC;ROLL;1508.0;PITCH;1515.0;YAW;1520.0;THROTTLE;1060.0;AUX1;1545.0;AUX2;1500.0;AUX3;1500.0;AUX4;1500.0
ALTITUDE;78.0
DEBUG;DEBUG1-97.0;DEBUG2;0.0;DEBUG3;78.0;DEBUG4;0.0
ATTITUDE;ANGX;9.0;ANGY;-4.0;HEAD;-166.0
STATUS;CYCLETIME;2904;I2CERR;0;PRESENT;23;MODE;0
RAW_IMU;AX;42.0;AY;-19.0;AZ;250.0;GX;0.0;GY;0.0;GZ;0.0;MAGX;0.0;MAGY;-18.0;MAGZ;-4.0
MOT;0;1000.0;1;1000.0;2;1000.0;3;1000.0;4;0.0;5;0.0;6;0.0;7;0.0;
RC;ROLL;1504.0;PITCH;1515.0;YAW;1518.0;THROTTLE;1060.0;AUX1;1548.0;AUX2;1500.0;AUX3;1500.0;AUX4;1500.0
ALTITUDE;78.0
DEBUG;DEBUG1-97.0;DEBUG2;0.0;DEBUG3;78.0;DEBUG4;0.0
ATTITUDE;ANGX;9.0;ANGY;-4.0;HEAD;-166.0
STATUS;CYCLETIME;3060;I2CERR;0;PRESENT;23;MODE;0
RAW_IMU;AX;46.0;AY;-17.0;AZ;254.0;GX;-1.0;GY;0.0;GZ;0.0;MAGX;0.0;MAGY;-18.0;MAGZ;-3.0
MOT;0;1000.0;1;1000.0;2;1000.0;3;1000.0;4;0.0;5;0.0;6;0.0;7;0.0;
RC;ROLL;1504.0;PITCH;1515.0;YAW;1520.0;THROTTLE;1060.0;AUX1;1548.0;AUX2;1500.0;AUX3;1500.0;AUX4;1500.0
ALTITUDE;78.0
DEBUG;DEBUG1-97.0;DEBUG2;0.0;DEBUG3;78.0;DEBUG4;0.0
ATTITUDE;ANGX;9.0;ANGY;-4.0;HEAD;-166.0
STATUS;CYCLETIME;2920;I2CERR;0;PRESENT;23;MODE;0
RAW_IMU;AX;43.0;AY;-19.0;AZ;252.0;GX;-2.0;GY;0.0;GZ;0.0;MAGX;0.0;MAGY;-18.0;MAGZ;-3.0
MOT;0;1000.0;1;1000.0;2;1000.0;3;1000.0;4;0.0;5;0.0;6;0.0;7;0.0;
RC;ROLL;1504.0;PITCH;1515.0;YAW;1520.0;THROTTLE;1060.0;AUX1;1546.0;AUX2;1500.0;AUX3;1500.0;AUX4;1500.0
ALTITUDE;78.0
DEBUG;DEBUG1-97.0;DEBUG2;0.0;DEBUG3;78.0;DEBUG4;0.0
ATTITUDE;ANGX;9.0;ANGY;-4.0;HEAD;-166.0
STATUS;CYCLETIME;2956;I2CERR;0;PRESENT;23;MODE;0
RAW_IMU;AX;42.0;AY;-21.0;AZ;253.0;GX;-2.0;GY;0.0;GZ;0.0;MAGX;0.0;MAGY;-19.0;MAGZ;-4.0
MOT;0;1000.0;1;1000.0;2;1000.0;3;1000.0;4;0.0;5;0.0;6;0.0;7;0.0;
RC;ROLL;1501.0;PITCH;1515.0;YAW;1520.0;THROTTLE;1058.0;AUX1;1540.0;AUX2;1500.0;AUX3;1500.0;AUX4;1500.0
ALTITUDE;78.0
DEBUG;DEBUG1-97.0;DEBUG2;0.0;DEBUG3;78.0;DEBUG4;0.0
ATTITUDE;ANGX;8.0;ANGY;-4.0;HEAD;-166.0
STATUS;CYCLETIME;2888;I2CERR;0;PRESENT;23;MODE;0
RAW_IMU;AX;41.0;AY;-24.0;AZ;254.0;GX;-1.0;GY;0.0;GZ;0.0;MAGX;0.0;MAGY;-19.0;MAGZ;-4.0
MOT;0;1000.0;1;1000.0;2;1000.0;3;1000.0;4;0.0;5;0.0;6;0.0;7;0.0;
RC;ROLL;1501.0;PITCH;1515.0;YAW;1517.0;THROTTLE;1058.0;AUX1;1540.0;AUX2;1500.0;AUX3;1500.0;AUX4;1500.0
ALTITUDE;78.0
DEBUG;DEBUG1-97.0;DEBUG2;0.0;DEBUG3;78.0;DEBUG4;0.0
ATTITUDE;ANGX;8.0;ANGY;-4.0;HEAD;-167.0
STATUS;CYCLETIME;2908;I2CERR;0;PRESENT;23;MODE;0
RAW_IMU;AX;42.0;AY;-23.0;AZ;255.0;GX;0.0;GY;1.0;GZ;0.0;MAGX;1.0;MAGY;-19.0;MAGZ;-4.0
MOT;0;1000.0;1;1000.0;2;1000.0;3;1000.0;4;0.0;5;0.0;6;0.0;7;0.0;
RC;ROLL;1503.0;PITCH;1515.0;YAW;1517.0;THROTTLE;1060.0;AUX1;1542.0;AUX2;1500.0;AUX3;1500.0;AUX4;1500.0
ALTITUDE;78.0
DEBUG;DEBUG1-97.0;DEBUG2;0.0;DEBUG3;78.0;DEBUG4;0.0
ATTITUDE;ANGX;8.0;ANGY;-4.0;HEAD;-167.0
STATUS;CYCLETIME;2880;I2CERR;0;PRESENT;23;MODE;0
RAW_IMU;AX;40.0;AY;-22.0;AZ;253.0;GX;3.0;GY;0.0;GZ;0.0;MAGX;1.0;MAGY;-19.0;MAGZ;-4.0
MOT;0;1000.0;1;1000.0;2;1000.0;3;1000.0;4;0.0;5;0.0;6;0.0;7;0.0;
RC;ROLL;1503.0;PITCH;1517.0;YAW;1517.0;THROTTLE;1057.0;AUX1;1542.0;AUX2;1500.0;AUX3;1500.0;AUX4;1500.0
ALTITUDE;78.0
DEBUG;DEBUG1-97.0;DEBUG2;0.0;DEBUG3;78.0;DEBUG4;0.0
ATTITUDE;ANGX;8.0;ANGY;-4.0;HEAD;-166.0
STATUS;CYCLETIME;2880;I2CERR;0;PRESENT;23;MODE;0
RAW_IMU;AX;39.0;AY;-20.0;AZ;251.0;GX;4.0;GY;0.0;GZ;0.0;MAGX;0.0;MAGY;-18.0;MAGZ;-4.0
MOT;0;1000.0;1;1000.0;2;1000.0;3;1000.0;4;0.0;5;0.0;6;0.0;7;0.0;
RC;ROLL;1501.0;PITCH;1519.0;YAW;1517.0;THROTTLE;1057.0;AUX1;1542.0;AUX2;1500.0;AUX3;1500.0;AUX4;1500.0
ALTITUDE;78.0
DEBUG;DEBUG1-97.0;DEBUG2;0.0;DEBUG3;78.0;DEBUG4;0.0
ATTITUDE;ANGX;9.0;ANGY;-4.0;HEAD;-166.0
STATUS;CYCLETIME;2896;I2CERR;0;PRESENT;23;MODE;0
RAW_IMU;AX;39.0;AY;-20.0;AZ;250.0;GX;4.0;GY;0.0;GZ;0.0;MAGX;0.0;MAGY;-18.0;MAGZ;-4.0
MOT;0;1000.0;1;1000.0;2;1000.0;3;1000.0;4;0.0;5;0.0;6;0.0;7;0.0;
RC;ROLL;1505.0;PITCH;1519.0;YAW;1517.0;THROTTLE;1055.0;AUX1;1542.0;AUX2;1500.0;AUX3;1500.0;AUX4;1500.0
ALTITUDE;78.0
DEBUG;DEBUG1-97.0;DEBUG2;0.0;DEBUG3;78.0;DEBUG4;0.0
ATTITUDE;ANGX;9.0;ANGY;-4.0;HEAD;-166.0
STATUS;CYCLETIME;2996;I2CERR;0;PRESENT;23;MODE;0
RAW_IMU;AX;40.0;AY;-21.0;AZ;251.0;GX;3.0;GY;0.0;GZ;0.0;MAGX;1.0;MAGY;-19.0;MAGZ;-4.0
MOT;0;1000.0;1;1000.0;2;1000.0;3;1000.0;4;0.0;5;0.0;6;0.0;7;0.0;
RC;ROLL;1505.0;PITCH;1516.0;YAW;1517.0;THROTTLE;1053.0;AUX1;1542.0;AUX2;1500.0;AUX3;1500.0;AUX4;1500.0
ALTITUDE;78.0
DEBUG;DEBUG1-97.0;DEBUG2;0.0;DEBUG3;78.0;DEBUG4;0.0
ATTITUDE;ANGX;9.0;ANGY;-4.0;HEAD;-166.0
STATUS;CYCLETIME;2928;I2CERR;0;PRESENT;23;MODE;0
RAW_IMU;AX;42.0;AY;-20.0;AZ;252.0;GX;0.0;GY;0.0;GZ;0.0;MAGX;1.0;MAGY;-19.0;MAGZ;-4.0
MOT;0;1000.0;1;1000.0;2;1000.0;3;1000.0;4;0.0;5;0.0;6;0.0;7;0.0;
RC;ROLL;1502.0;PITCH;1516.0;YAW;1517.0;THROTTLE;1053.0;AUX1;1542.0;AUX2;1500.0;AUX3;1500.0;AUX4;1500.0
ALTITUDE;78.0
DEBUG;DEBUG1-97.0;DEBUG2;0.0;DEBUG3;78.0;DEBUG4;0.0
ATTITUDE;ANGX;10.0;ANGY;-4.0;HEAD;-166.0
STATUS;CYCLETIME;2920;I2CERR;0;PRESENT;23;MODE;0
RAW_IMU;AX;44.0;AY;-20.0;AZ;251.0;GX;-1.0;GY;0.0;GZ;0.0;MAGX;1.0;MAGY;-19.0;MAGZ;-4.0
MOT;0;1000.0;1;1000.0;2;1000.0;3;1000.0;4;0.0;5;0.0;6;0.0;7;0.0;
RC;ROLL;1502.0;PITCH;1516.0;YAW;1517.0;THROTTLE;1051.0;AUX1;1540.0;AUX2;1500.0;AUX3;1500.0;AUX4;1500.0
ALTITUDE;78.0
DEBUG;DEBUG1-97.0;DEBUG2;0.0;DEBUG3;78.0;DEBUG4;0.0
ATTITUDE;ANGX;9.0;ANGY;-4.0;HEAD;-166.0
STATUS;CYCLETIME;3016;I2CERR;0;PRESENT;23;MODE;0
RAW_IMU;AX;41.0;AY;-21.0;AZ;250.0;GX;-3.0;GY;0.0;GZ;0.0;MAGX;0.0;MAGY;-18.0;MAGZ;-4.0
MOT;0;1000.0;1;1000.0;2;1000.0;3;1000.0;4;0.0;5;0.0;6;0.0;7;0.0;
RC;ROLL;1502.0;PITCH;1516.0;YAW;1519.0;THROTTLE;1051.0;AUX1;1543.0;AUX2;1500.0;AUX3;1500.0;AUX4;1500.0
ALTITUDE;78.0
DEBUG;DEBUG1-97.0;DEBUG2;0.0;DEBUG3;78.0;DEBUG4;0.0
ATTITUDE;ANGX;9.0;ANGY;-4.0;HEAD;-166.0
STATUS;CYCLETIME;2872;I2CERR;0;PRESENT;23;MODE;0
RAW_IMU;AX;41.0;AY;-19.0;AZ;252.0;GX;-3.0;GY;0.0;GZ;0.0;MAGX;0.0;MAGY;-18.0;MAGZ;-4.0
MOT;0;1000.0;1;1000.0;2;1000.0;3;1000.0;4;0.0;5;0.0;6;0.0;7;0.0;
RC;ROLL;1500.0;PITCH;1516.0;YAW;1519.0;THROTTLE;1051.0;AUX1;1543.0;AUX2;1500.0;AUX3;1500.0;AUX4;1500.0
ALTITUDE;78.0
DEBUG;DEBUG1-97.0;DEBUG2;0.0;DEBUG3;78.0;DEBUG4;0.0
ATTITUDE;ANGX;9.0;ANGY;-4.0;HEAD;-166.0
STATUS;CYCLETIME;2900;I2CERR;0;PRESENT;23;MODE;0
RAW_IMU;AX;41.0;AY;-18.0;AZ;251.0;GX;-2.0;GY;0.0;GZ;0.0;MAGX;0.0;MAGY;-19.0;MAGZ;-3.0
MOT;0;1000.0;1;1000.0;2;1000.0;3;1000.0;4;0.0;5;0.0;6;0.0;7;0.0;
RC;ROLL;1503.0;PITCH;1516.0;YAW;1519.0;THROTTLE;1046.0;AUX1;1540.0;AUX2;1500.0;AUX3;1500.0;AUX4;1500.0
ALTITUDE;78.0
DEBUG;DEBUG1-97.0;DEBUG2;0.0;DEBUG3;78.0;DEBUG4;0.0
ATTITUDE;ANGX;8.0;ANGY;-4.0;HEAD;-166.0
STATUS;CYCLETIME;2908;I2CERR;0;PRESENT;23;MODE;0
RAW_IMU;AX;39.0;AY;-17.0;AZ;249.0;GX;-1.0;GY;0.0;GZ;0.0;MAGX;0.0;MAGY;-19.0;MAGZ;-3.0
MOT;0;1000.0;1;1000.0;2;1000.0;3;1000.0;4;0.0;5;0.0;6;0.0;7;0.0;
RC;ROLL;1503.0;PITCH;1516.0;YAW;1519.0;THROTTLE;1050.0;AUX1;1537.0;AUX2;1500.0;AUX3;1500.0;AUX4;1500.0
ALTITUDE;78.0
DEBUG;DEBUG1-97.0;DEBUG2;0.0;DEBUG3;78.0;DEBUG4;0.0
ATTITUDE;ANGX;8.0;ANGY;-4.0;HEAD;-167.0
STATUS;CYCLETIME;2896;I2CERR;0;PRESENT;23;MODE;0
RAW_IMU;AX;42.0;AY;-18.0;AZ;250.0;GX;0.0;GY;0.0;GZ;0.0;MAGX;0.0;MAGY;-18.0;MAGZ;-4.0
MOT;0;1000.0;1;1000.0;2;1000.0;3;1000.0;4;0.0;5;0.0;6;0.0;7;0.0;
RC;ROLL;1503.0;PITCH;1516.0;YAW;1514.0;THROTTLE;1050.0;AUX1;1537.0;AUX2;1500.0;AUX3;1500.0;AUX4;1500.0
ALTITUDE;78.0
DEBUG;DEBUG1-97.0;DEBUG2;0.0;DEBUG3;78.0;DEBUG4;0.0
ATTITUDE;ANGX;8.0;ANGY;-4.0;HEAD;-167.0
STATUS;CYCLETIME;2892;I2CERR;0;PRESENT;23;MODE;0
RAW_IMU;AX;43.0;AY;-16.0;AZ;254.0;GX;0.0;GY;0.0;GZ;-1.0;MAGX;0.0;MAGY;-18.0;MAGZ;-4.0
MOT;0;1000.0;1;1000.0;2;1000.0;3;1000.0;4;0.0;5;0.0;6;0.0;7;0.0;
RC;ROLL;1503.0;PITCH;1516.0;YAW;1514.0;THROTTLE;1050.0;AUX1;1537.0;AUX2;1500.0;AUX3;1500.0;AUX4;1500.0
ALTITUDE;78.0
DEBUG;DEBUG1-97.0;DEBUG2;0.0;DEBUG3;78.0;DEBUG4;0.0
ATTITUDE;ANGX;8.0;ANGY;-4.0;HEAD;-167.0
STATUS;CYCLETIME;2892;I2CERR;0;PRESENT;23;MODE;0
RAW_IMU;AX;44.0;AY;-19.0;AZ;254.0;GX;-1.0;GY;0.0;GZ;0.0;MAGX;1.0;MAGY;-19.0;MAGZ;-3.0
MOT;0;1000.0;1;1000.0;2;1000.0;3;1000.0;4;0.0;5;0.0;6;0.0;7;0.0;
RC;ROLL;1505.0;PITCH;1514.0;YAW;1514.0;THROTTLE;1050.0;AUX1;1537.0;AUX2;1500.0;AUX3;1500.0;AUX4;1500.0
ALTITUDE;78.0
DEBUG;DEBUG1-97.0;DEBUG2;0.0;DEBUG3;78.0;DEBUG4;0.0
ATTITUDE;ANGX;8.0;ANGY;-4.0;HEAD;-167.0
STATUS;CYCLETIME;2916;I2CERR;0;PRESENT;23;MODE;0
RAW_IMU;AX;44.0;AY;-21.0;AZ;250.0;GX;-1.0;GY;0.0;GZ;0.0;MAGX;1.0;MAGY;-19.0;MAGZ;-3.0
MOT;0;1000.0;1;1000.0;2;1000.0;3;1000.0;4;0.0;5;0.0;6;0.0;7;0.0;
RC;ROLL;1505.0;PITCH;1516.0;YAW;1514.0;THROTTLE;1047.0;AUX1;1537.0;AUX2;1500.0;AUX3;1500.0;AUX4;1500.0
ALTITUDE;78.0
DEBUG;DEBUG1-97.0;DEBUG2;0.0;DEBUG3;78.0;DEBUG4;0.0
ATTITUDE;ANGX;8.0;ANGY;-4.0;HEAD;-166.0
STATUS;CYCLETIME;3024;I2CERR;0;PRESENT;23;MODE;0
RAW_IMU;AX;43.0;AY;-21.0;AZ;251.0;GX;-1.0;GY;0.0;GZ;0.0;MAGX;0.0;MAGY;-18.0;MAGZ;-3.0
MOT;0;1000.0;1;1000.0;2;1000.0;3;1000.0;4;0.0;5;0.0;6;0.0;7;0.0;
RC;ROLL;1505.0;PITCH;1520.0;YAW;1514.0;THROTTLE;1045.0;AUX1;1537.0;AUX2;1500.0;AUX3;1500.0;AUX4;1500.0
ALTITUDE;78.0
DEBUG;DEBUG1-97.0;DEBUG2;0.0;DEBUG3;78.0;DEBUG4;0.0
ATTITUDE;ANGX;8.0;ANGY;-4.0;HEAD;-166.0
STATUS;CYCLETIME;2892;I2CERR;0;PRESENT;23;MODE;0
RAW_IMU;AX;42.0;AY;-22.0;AZ;253.0;GX;1.0;GY;0.0;GZ;0.0;MAGX;0.0;MAGY;-18.0;MAGZ;-3.0
MOT;0;1000.0;1;1000.0;2;1000.0;3;1000.0;4;0.0;5;0.0;6;0.0;7;0.0;
RC;ROLL;1505.0;PITCH;1517.0;YAW;1510.0;THROTTLE;1047.0;AUX1;1537.0;AUX2;1500.0;AUX3;1500.0;AUX4;1500.0
ALTITUDE;78.0
DEBUG;DEBUG1-97.0;DEBUG2;0.0;DEBUG3;78.0;DEBUG4;0.0
ATTITUDE;ANGX;8.0;ANGY;-4.0;HEAD;-166.0
STATUS;CYCLETIME;2892;I2CERR;0;PRESENT;23;MODE;0
RAW_IMU;AX;39.0;AY;-18.0;AZ;254.0;GX;3.0;GY;0.0;GZ;0.0;MAGX;0.0;MAGY;-17.0;MAGZ;-3.0
MOT;0;1000.0;1;1000.0;2;1000.0;3;1000.0;4;0.0;5;0.0;6;0.0;7;0.0;
RC;ROLL;1505.0;PITCH;1517.0;YAW;1510.0;THROTTLE;1047.0;AUX1;1540.0;AUX2;1500.0;AUX3;1500.0;AUX4;1500.0
ALTITUDE;78.0
DEBUG;DEBUG1-97.0;DEBUG2;0.0;DEBUG3;78.0;DEBUG4;0.0
ATTITUDE;ANGX;8.0;ANGY;-4.0;HEAD;-166.0
STATUS;CYCLETIME;2892;I2CERR;0;PRESENT;23;MODE;0
RAW_IMU;AX;40.0;AY;-18.0;AZ;253.0;GX;5.0;GY;0.0;GZ;0.0;MAGX;0.0;MAGY;-17.0;MAGZ;-3.0
MOT;0;1000.0;1;1000.0;2;1000.0;3;1000.0;4;0.0;5;0.0;6;0.0;7;0.0;
RC;ROLL;1505.0;PITCH;1519.0;YAW;1508.0;THROTTLE;1047.0;AUX1;1542.0;AUX2;1500.0;AUX3;1500.0;AUX4;1500.0
ALTITUDE;78.0
DEBUG;DEBUG1-97.0;DEBUG2;0.0;DEBUG3;78.0;DEBUG4;0.0
ATTITUDE;ANGX;9.0;ANGY;-4.0;HEAD;-166.0
STATUS;CYCLETIME;2912;I2CERR;0;PRESENT;23;MODE;0
RAW_IMU;AX;42.0;AY;-20.0;AZ;249.0;GX;5.0;GY;-1.0;GZ;0.0;MAGX;0.0;MAGY;-18.0;MAGZ;-3.0
MOT;0;1000.0;1;1000.0;2;1000.0;3;1000.0;4;0.0;5;0.0;6;0.0;7;0.0;
RC;ROLL;1505.0;PITCH;1519.0;YAW;1505.0;THROTTLE;1049.0;AUX1;1542.0;AUX2;1500.0;AUX3;1500.0;AUX4;1500.0
ALTITUDE;78.0
DEBUG;DEBUG1-97.0;DEBUG2;0.0;DEBUG3;78.0;DEBUG4;0.0
ATTITUDE;ANGX;9.0;ANGY;-4.0;HEAD;-167.0
STATUS;CYCLETIME;2932;I2CERR;0;PRESENT;23;MODE;0
RAW_IMU;AX;44.0;AY;-20.0;AZ;254.0;GX;3.0;GY;0.0;GZ;0.0;MAGX;0.0;MAGY;-18.0;MAGZ;-3.0
MOT;0;1000.0;1;1000.0;2;1000.0;3;1000.0;4;0.0;5;0.0;6;0.0;7;0.0;
RC;ROLL;1507.0;PITCH;1519.0;YAW;1512.0;THROTTLE;1049.0;AUX1;1542.0;AUX2;1500.0;AUX3;1500.0;AUX4;1500.0
ALTITUDE;78.0
DEBUG;DEBUG1-97.0;DEBUG2;0.0;DEBUG3;78.0;DEBUG4;0.0
ATTITUDE;ANGX;10.0;ANGY;-4.0;HEAD;-167.0
STATUS;CYCLETIME;2988;I2CERR;0;PRESENT;23;MODE;0
RAW_IMU;AX;45.0;AY;-20.0;AZ;254.0;GX;0.0;GY;0.0;GZ;0.0;MAGX;0.0;MAGY;-18.0;MAGZ;-3.0
MOT;0;1000.0;1;1000.0;2;1000.0;3;1000.0;4;0.0;5;0.0;6;0.0;7;0.0;
RC;ROLL;1507.0;PITCH;1519.0;YAW;1516.0;THROTTLE;1049.0;AUX1;1540.0;AUX2;1500.0;AUX3;1500.0;AUX4;1500.0
ALTITUDE;78.0
DEBUG;DEBUG1-97.0;DEBUG2;0.0;DEBUG3;78.0;DEBUG4;0.0
ATTITUDE;ANGX;10.0;ANGY;-4.0;HEAD;-167.0
STATUS;CYCLETIME;2840;I2CERR;0;PRESENT;23;MODE;0
RAW_IMU;AX;43.0;AY;-21.0;AZ;253.0;GX;-3.0;GY;0.0;GZ;0.0;MAGX;0.0;MAGY;-19.0;MAGZ;-4.0
MOT;0;1000.0;1;1000.0;2;1000.0;3;1000.0;4;0.0;5;0.0;6;0.0;7;0.0;
RC;ROLL;1503.0;PITCH;1519.0;YAW;1516.0;THROTTLE;1049.0;AUX1;1538.0;AUX2;1500.0;AUX3;1500.0;AUX4;1500.0
ALTITUDE;78.0
DEBUG;DEBUG1-97.0;DEBUG2;0.0;DEBUG3;78.0;DEBUG4;0.0
ATTITUDE;ANGX;10.0;ANGY;-4.0;HEAD;-167.0
STATUS;CYCLETIME;2900;I2CERR;0;PRESENT;23;MODE;0
RAW_IMU;AX;44.0;AY;-20.0;AZ;254.0;GX;-6.0;GY;1.0;GZ;0.0;MAGX;0.0;MAGY;-19.0;MAGZ;-4.0
MOT;0;1000.0;1;1000.0;2;1000.0;3;1000.0;4;0.0;5;0.0;6;0.0;7;0.0;
RC;ROLL;1503.0;PITCH;1516.0;YAW;1512.0;THROTTLE;1052.0;AUX1;1538.0;AUX2;1500.0;AUX3;1500.0;AUX4;1500.0
ALTITUDE;78.0
DEBUG;DEBUG1-97.0;DEBUG2;0.0;DEBUG3;78.0;DEBUG4;0.0
ATTITUDE;ANGX;9.0;ANGY;-4.0;HEAD;-167.0
STATUS;CYCLETIME;2944;I2CERR;0;PRESENT;23;MODE;0
RAW_IMU;AX;42.0;AY;-22.0;AZ;251.0;GX;-5.0;GY;1.0;GZ;0.0;MAGX;0.0;MAGY;-18.0;MAGZ;-4.0
MOT;0;1000.0;1;1000.0;2;1000.0;3;1000.0;4;0.0;5;0.0;6;0.0;7;0.0;
RC;ROLL;1505.0;PITCH;1516.0;YAW;1503.0;THROTTLE;1052.0;AUX1;1542.0;AUX2;1500.0;AUX3;1500.0;AUX4;1500.0
ALTITUDE;78.0
DEBUG;DEBUG1-97.0;DEBUG2;0.0;DEBUG3;78.0;DEBUG4;0.0
ATTITUDE;ANGX;8.0;ANGY;-4.0;HEAD;-166.0
STATUS;CYCLETIME;2896;I2CERR;0;PRESENT;23;MODE;0
RAW_IMU;AX;41.0;AY;-20.0;AZ;251.0;GX;-3.0;GY;1.0;GZ;-1.0;MAGX;0.0;MAGY;-18.0;MAGZ;-4.0
MOT;0;1000.0;1;1000.0;2;1000.0;3;1000.0;4;0.0;5;0.0;6;0.0;7;0.0;
RC;ROLL;1505.0;PITCH;1516.0;YAW;1503.0;THROTTLE;1052.0;AUX1;1542.0;AUX2;1500.0;AUX3;1500.0;AUX4;1500.0
ALTITUDE;78.0
DEBUG;DEBUG1-97.0;DEBUG2;0.0;DEBUG3;78.0;DEBUG4;0.0
ATTITUDE;ANGX;8.0;ANGY;-4.0;HEAD;-166.0
STATUS;CYCLETIME;2992;I2CERR;0;PRESENT;23;MODE;0
RAW_IMU;AX;40.0;AY;-18.0;AZ;252.0;GX;-1.0;GY;0.0;GZ;0.0;MAGX;0.0;MAGY;-18.0;MAGZ;-4.0
MOT;0;1000.0;1;1000.0;2;1000.0;3;1000.0;4;0.0;5;0.0;6;0.0;7;0.0;
RC;ROLL;1505.0;PITCH;1518.0;YAW;1501.0;THROTTLE;1054.0;AUX1;1533.0;AUX2;1500.0;AUX3;1500.0;AUX4;1500.0
ALTITUDE;78.0
DEBUG;DEBUG1-97.0;DEBUG2;0.0;DEBUG3;78.0;DEBUG4;0.0
ATTITUDE;ANGX;8.0;ANGY;-4.0;HEAD;-166.0
STATUS;CYCLETIME;2884;I2CERR;0;PRESENT;23;MODE;0
RAW_IMU;AX;39.0;AY;-20.0;AZ;252.0;GX;0.0;GY;0.0;GZ;0.0;MAGX;0.0;MAGY;-18.0;MAGZ;-4.0
MOT;0;1000.0;1;1000.0;2;1000.0;3;1000.0;4;0.0;5;0.0;6;0.0;7;0.0;
RC;ROLL;1505.0;PITCH;1518.0;YAW;1510.0;THROTTLE;1054.0;AUX1;1535.0;AUX2;1500.0;AUX3;1500.0;AUX4;1500.0
ALTITUDE;78.0
DEBUG;DEBUG1-97.0;DEBUG2;0.0;DEBUG3;78.0;DEBUG4;0.0
ATTITUDE;ANGX;8.0;ANGY;-4.0;HEAD;-167.0
STATUS;CYCLETIME;2904;I2CERR;0;PRESENT;23;MODE;0
RAW_IMU;AX;38.0;AY;-20.0;AZ;251.0;GX;0.0;GY;0.0;GZ;0.0;MAGX;1.0;MAGY;-19.0;MAGZ;-3.0
MOT;0;1000.0;1;1000.0;2;1000.0;3;1000.0;4;0.0;5;0.0;6;0.0;7;0.0;
RC;ROLL;1505.0;PITCH;1513.0;YAW;1510.0;THROTTLE;1054.0;AUX1;1538.0;AUX2;1500.0;AUX3;1500.0;AUX4;1500.0
ALTITUDE;78.0
DEBUG;DEBUG1-97.0;DEBUG2;0.0;DEBUG3;78.0;DEBUG4;0.0
ATTITUDE;ANGX;8.0;ANGY;-4.0;HEAD;-167.0
STATUS;CYCLETIME;2904;I2CERR;0;PRESENT;23;MODE;0
RAW_IMU;AX;42.0;AY;-21.0;AZ;250.0;GX;0.0;GY;0.0;GZ;0.0;MAGX;1.0;MAGY;-19.0;MAGZ;-3.0
MOT;0;1000.0;1;1000.0;2;1000.0;3;1000.0;4;0.0;5;0.0;6;0.0;7;0.0;
RC;ROLL;1505.0;PITCH;1513.0;YAW;1510.0;THROTTLE;1054.0;AUX1;1538.0;AUX2;1500.0;AUX3;1500.0;AUX4;1500.0
ALTITUDE;78.0
DEBUG;DEBUG1-97.0;DEBUG2;0.0;DEBUG3;78.0;DEBUG4;0.0
ATTITUDE;ANGX;8.0;ANGY;-4.0;HEAD;-166.0
STATUS;CYCLETIME;2884;I2CERR;0;PRESENT;23;MODE;0
RAW_IMU;AX;41.0;AY;-19.0;AZ;250.0;GX;-1.0;GY;0.0;GZ;1.0;MAGX;0.0;MAGY;-18.0;MAGZ;-4.0
MOT;0;1000.0;1;1000.0;2;1000.0;3;1000.0;4;0.0;5;0.0;6;0.0;7;0.0;
RC;ROLL;1503.0;PITCH;1513.0;YAW;1510.0;THROTTLE;1054.0;AUX1;1538.0;AUX2;1500.0;AUX3;1500.0;AUX4;1500.0
ALTITUDE;78.0
DEBUG;DEBUG1-97.0;DEBUG2;0.0;DEBUG3;78.0;DEBUG4;0.0
ATTITUDE;ANGX;8.0;ANGY;-4.0;HEAD;-167.0
STATUS;CYCLETIME;2872;I2CERR;0;PRESENT;23;MODE;0
RAW_IMU;AX;41.0;AY;-19.0;AZ;252.0;GX;0.0;GY;0.0;GZ;0.0;MAGX;0.0;MAGY;-18.0;MAGZ;-4.0
MOT;0;1000.0;1;1000.0;2;1000.0;3;1000.0;4;0.0;5;0.0;6;0.0;7;0.0;
RC;ROLL;1503.0;PITCH;1515.0;YAW;1510.0;THROTTLE;1059.0;AUX1;1542.0;AUX2;1500.0;AUX3;1500.0;AUX4;1500.0
ALTITUDE;78.0
DEBUG;DEBUG1-97.0;DEBUG2;0.0;DEBUG3;78.0;DEBUG4;0.0
ATTITUDE;ANGX;8.0;ANGY;-4.0;HEAD;-167.0
STATUS;CYCLETIME;2944;I2CERR;0;PRESENT;23;MODE;0
RAW_IMU;AX;36.0;AY;-20.0;AZ;253.0;GX;0.0;GY;0.0;GZ;0.0;MAGX;0.0;MAGY;-19.0;MAGZ;-4.0
MOT;0;1000.0;1;1000.0;2;1000.0;3;1000.0;4;0.0;5;0.0;6;0.0;7;0.0;
RC;ROLL;1503.0;PITCH;1518.0;YAW;1510.0;THROTTLE;1059.0;AUX1;1542.0;AUX2;1500.0;AUX3;1500.0;AUX4;1500.0
ALTITUDE;78.0
DEBUG;DEBUG1-97.0;DEBUG2;0.0;DEBUG3;78.0;DEBUG4;0.0
ATTITUDE;ANGX;8.0;ANGY;-4.0;HEAD;-167.0
STATUS;CYCLETIME;3032;I2CERR;0;PRESENT;23;MODE;0
RAW_IMU;AX;37.0;AY;-20.0;AZ;250.0;GX;2.0;GY;0.0;GZ;0.0;MAGX;0.0;MAGY;-19.0;MAGZ;-4.0
MOT;0;1000.0;1;1000.0;2;1000.0;3;1000.0;4;0.0;5;0.0;6;0.0;7;0.0;
RC;ROLL;1503.0;PITCH;1518.0;YAW;1512.0;THROTTLE;1059.0;AUX1;1542.0;AUX2;1500.0;AUX3;1500.0;AUX4;1500.0
ALTITUDE;78.0
DEBUG;DEBUG1-97.0;DEBUG2;0.0;DEBUG3;78.0;DEBUG4;0.0
ATTITUDE;ANGX;8.0;ANGY;-4.0;HEAD;-166.0
STATUS;CYCLETIME;3032;I2CERR;0;PRESENT;23;MODE;0
RAW_IMU;AX;39.0;AY;-20.0;AZ;253.0;GX;3.0;GY;0.0;GZ;0.0;MAGX;0.0;MAGY;-17.0;MAGZ;-4.0
MOT;0;1000.0;1;1000.0;2;1000.0;3;1000.0;4;0.0;5;0.0;6;0.0;7;0.0;
RC;ROLL;1503.0;PITCH;1518.0;YAW;1512.0;THROTTLE;1059.0;AUX1;1537.0;AUX2;1500.0;AUX3;1500.0;AUX4;1500.0
ALTITUDE;78.0
DEBUG;DEBUG1-97.0;DEBUG2;0.0;DEBUG3;78.0;DEBUG4;0.0
ATTITUDE;ANGX;8.0;ANGY;-4.0;HEAD;-166.0
STATUS;CYCLETIME;2864;I2CERR;0;PRESENT;23;MODE;0
RAW_IMU;AX;42.0;AY;-22.0;AZ;251.0;GX;3.0;GY;0.0;GZ;0.0;MAGX;0.0;MAGY;-17.0;MAGZ;-4.0
MOT;0;1000.0;1;1000.0;2;1000.0;3;1000.0;4;0.0;5;0.0;6;0.0;7;0.0;
RC;ROLL;1503.0;PITCH;1518.0;YAW;1512.0;THROTTLE;1059.0;AUX1;1537.0;AUX2;1500.0;AUX3;1500.0;AUX4;1500.0
ALTITUDE;78.0
DEBUG;DEBUG1-97.0;DEBUG2;0.0;DEBUG3;78.0;DEBUG4;0.0
ATTITUDE;ANGX;9.0;ANGY;-4.0;HEAD;-167.0
STATUS;CYCLETIME;3016;I2CERR;0;PRESENT;23;MODE;0
RAW_IMU;AX;42.0;AY;-22.0;AZ;254.0;GX;1.0;GY;0.0;GZ;0.0;MAGX;0.0;MAGY;-19.0;MAGZ;-3.0
MOT;0;1000.0;1;1000.0;2;1000.0;3;1000.0;4;0.0;5;0.0;6;0.0;7;0.0;
RC;ROLL;1503.0;PITCH;1518.0;YAW;1512.0;THROTTLE;1062.0;AUX1;1537.0;AUX2;1500.0;AUX3;1500.0;AUX4;1500.0
ALTITUDE;78.0
DEBUG;DEBUG1-97.0;DEBUG2;0.0;DEBUG3;78.0;DEBUG4;0.0
ATTITUDE;ANGX;9.0;ANGY;-4.0;HEAD;-167.0
STATUS;CYCLETIME;3008;I2CERR;0;PRESENT;23;MODE;0
RAW_IMU;AX;41.0;AY;-22.0;AZ;253.0;GX;0.0;GY;0.0;GZ;0.0;MAGX;0.0;MAGY;-19.0;MAGZ;-3.0
MOT;0;1000.0;1;1000.0;2;1000.0;3;1000.0;4;0.0;5;0.0;6;0.0;7;0.0;
RC;ROLL;1503.0;PITCH;1518.0;YAW;1512.0;THROTTLE;1062.0;AUX1;1540.0;AUX2;1500.0;AUX3;1500.0;AUX4;1500.0
ALTITUDE;78.0
DEBUG;DEBUG1-97.0;DEBUG2;0.0;DEBUG3;78.0;DEBUG4;0.0
ATTITUDE;ANGX;9.0;ANGY;-4.0;HEAD;-167.0
STATUS;CYCLETIME;3248;I2CERR;0;PRESENT;23;MODE;0
RAW_IMU;AX;41.0;AY;-21.0;AZ;253.0;GX;-1.0;GY;-1.0;GZ;0.0;MAGX;1.0;MAGY;-19.0;MAGZ;-4.0
MOT;0;1000.0;1;1000.0;2;1000.0;3;1000.0;4;0.0;5;0.0;6;0.0;7;0.0;
RC;ROLL;1501.0;PITCH;1518.0;YAW;1512.0;THROTTLE;1057.0;AUX1;1540.0;AUX2;1500.0;AUX3;1500.0;AUX4;1500.0
ALTITUDE;78.0
DEBUG;DEBUG1-97.0;DEBUG2;0.0;DEBUG3;78.0;DEBUG4;0.0
ATTITUDE;ANGX;9.0;ANGY;-4.0;HEAD;-167.0
STATUS;CYCLETIME;2896;I2CERR;0;PRESENT;23;MODE;0
RAW_IMU;AX;40.0;AY;-22.0;AZ;250.0;GX;0.0;GY;0.0;GZ;0.0;MAGX;1.0;MAGY;-19.0;MAGZ;-4.0
MOT;0;1000.0;1;1000.0;2;1000.0;3;1000.0;4;0.0;5;0.0;6;0.0;7;0.0;
RC;ROLL;1501.0;PITCH;1518.0;YAW;1512.0;THROTTLE;1057.0;AUX1;1540.0;AUX2;1500.0;AUX3;1500.0;AUX4;1500.0
ALTITUDE;78.0
DEBUG;DEBUG1-97.0;DEBUG2;0.0;DEBUG3;78.0;DEBUG4;0.0
ATTITUDE;ANGX;9.0;ANGY;-4.0;HEAD;-167.0
STATUS;CYCLETIME;2976;I2CERR;0;PRESENT;23;MODE;0
RAW_IMU;AX;40.0;AY;-23.0;AZ;252.0;GX;0.0;GY;0.0;GZ;0.0;MAGX;1.0;MAGY;-19.0;MAGZ;-4.0
MOT;0;1000.0;1;1000.0;2;1000.0;3;1000.0;4;0.0;5;0.0;6;0.0;7;0.0;
RC;ROLL;1501.0;PITCH;1518.0;YAW;1512.0;THROTTLE;1059.0;AUX1;1540.0;AUX2;1500.0;AUX3;1500.0;AUX4;1500.0
ALTITUDE;78.0
DEBUG;DEBUG1-97.0;DEBUG2;0.0;DEBUG3;78.0;DEBUG4;0.0
ATTITUDE;ANGX;9.0;ANGY;-4.0;HEAD;-167.0
STATUS;CYCLETIME;2896;I2CERR;0;PRESENT;23;MODE;0
RAW_IMU;AX;43.0;AY;-22.0;AZ;251.0;GX;0.0;GY;1.0;GZ;-1.0;MAGX;0.0;MAGY;-19.0;MAGZ;-4.0
MOT;0;1000.0;1;1000.0;2;1000.0;3;1000.0;4;0.0;5;0.0;6;0.0;7;0.0;
RC;ROLL;1501.0;PITCH;1518.0;YAW;1514.0;THROTTLE;1059.0;AUX1;1540.0;AUX2;1500.0;AUX3;1500.0;AUX4;1500.0
ALTITUDE;78.0
DEBUG;DEBUG1-97.0;DEBUG2;0.0;DEBUG3;78.0;DEBUG4;0.0
ATTITUDE;ANGX;9.0;ANGY;-4.0;HEAD;-167.0
STATUS;CYCLETIME;2912;I2CERR;0;PRESENT;23;MODE;0
RAW_IMU;AX;44.0;AY;-20.0;AZ;251.0;GX;-1.0;GY;0.0;GZ;-1.0;MAGX;0.0;MAGY;-19.0;MAGZ;-4.0
MOT;0;1000.0;1;1000.0;2;1000.0;3;1000.0;4;0.0;5;0.0;6;0.0;7;0.0;
RC;ROLL;1503.0;PITCH;1518.0;YAW;1518.0;THROTTLE;1059.0;AUX1;1540.0;AUX2;1500.0;AUX3;1500.0;AUX4;1500.0
ALTITUDE;78.0
DEBUG;DEBUG1-97.0;DEBUG2;0.0;DEBUG3;78.0;DEBUG4;0.0
ATTITUDE;ANGX;9.0;ANGY;-4.0;HEAD;-167.0
STATUS;CYCLETIME;2996;I2CERR;0;PRESENT;23;MODE;0
RAW_IMU;AX;46.0;AY;-23.0;AZ;250.0;GX;-3.0;GY;1.0;GZ;0.0;MAGX;0.0;MAGY;-18.0;MAGZ;-3.0
MOT;0;1000.0;1;1000.0;2;1000.0;3;1000.0;4;0.0;5;0.0;6;0.0;7;0.0;
RC;ROLL;1503.0;PITCH;1518.0;YAW;1548.0;THROTTLE;1059.0;AUX1;1540.0;AUX2;1500.0;AUX3;1500.0;AUX4;1500.0
ALTITUDE;78.0
DEBUG;DEBUG1-97.0;DEBUG2;0.0;DEBUG3;78.0;DEBUG4;0.0
ATTITUDE;ANGX;8.0;ANGY;-4.0;HEAD;-167.0
STATUS;CYCLETIME;2892;I2CERR;0;PRESENT;23;MODE;0
RAW_IMU;AX;44.0;AY;-23.0;AZ;253.0;GX;-4.0;GY;1.0;GZ;0.0;MAGX;0.0;MAGY;-18.0;MAGZ;-3.0
MOT;0;1000.0;1;1000.0;2;1000.0;3;1000.0;4;0.0;5;0.0;6;0.0;7;0.0;
RC;ROLL;1500.0;PITCH;1518.0;YAW;1599.0;THROTTLE;1057.0;AUX1;1540.0;AUX2;1500.0;AUX3;1500.0;AUX4;1500.0
ALTITUDE;78.0
DEBUG;DEBUG1-97.0;DEBUG2;0.0;DEBUG3;78.0;DEBUG4;0.0
ATTITUDE;ANGX;8.0;ANGY;-4.0;HEAD;-167.0
STATUS;CYCLETIME;2896;I2CERR;0;PRESENT;23;MODE;0
RAW_IMU;AX;43.0;AY;-21.0;AZ;253.0;GX;-4.0;GY;2.0;GZ;-1.0;MAGX;-1.0;MAGY;-18.0;MAGZ;-4.0
MOT;0;1000.0;1;1000.0;2;1000.0;3;1000.0;4;0.0;5;0.0;6;0.0;7;0.0;
RC;ROLL;1498.0;PITCH;1520.0;YAW;1774.0;THROTTLE;1053.0;AUX1;1540.0;AUX2;1500.0;AUX3;1500.0;AUX4;1500.0
ALTITUDE;78.0
DEBUG;DEBUG1-97.0;DEBUG2;0.0;DEBUG3;78.0;DEBUG4;0.0
ATTITUDE;ANGX;7.0;ANGY;-4.0;HEAD;-168.0
STATUS;CYCLETIME;2912;I2CERR;0;PRESENT;23;MODE;0
RAW_IMU;AX;42.0;AY;-18.0;AZ;251.0;GX;-2.0;GY;1.0;GZ;0.0;MAGX;-1.0;MAGY;-18.0;MAGZ;-4.0
MOT;0;1000.0;1;1000.0;2;1000.0;3;1000.0;4;0.0;5;0.0;6;0.0;7;0.0;
RC;ROLL;1501.0;PITCH;1517.0;YAW;1877.0;THROTTLE;1053.0;AUX1;1540.0;AUX2;1500.0;AUX3;1500.0;AUX4;1500.0
ALTITUDE;78.0
DEBUG;DEBUG1-97.0;DEBUG2;0.0;DEBUG3;78.0;DEBUG4;0.0
ATTITUDE;ANGX;7.0;ANGY;-4.0;HEAD;-168.0
STATUS;CYCLETIME;2888;I2CERR;0;PRESENT;23;MODE;0
RAW_IMU;AX;42.0;AY;-17.0;AZ;253.0;GX;0.0;GY;0.0;GZ;0.0;MAGX;1.0;MAGY;-18.0;MAGZ;-2.0
MOT;0;1000.0;1;1000.0;2;1000.0;3;1000.0;4;0.0;5;0.0;6;0.0;7;0.0;
RC;ROLL;1504.0;PITCH;1515.0;YAW;1902.0;THROTTLE;1053.0;AUX1;1540.0;AUX2;1500.0;AUX3;1500.0;AUX4;1500.0
ALTITUDE;78.0
DEBUG;DEBUG1-97.0;DEBUG2;0.0;DEBUG3;78.0;DEBUG4;0.0
ATTITUDE;ANGX;7.0;ANGY;-4.0;HEAD;-168.0
STATUS;CYCLETIME;3064;I2CERR;0;PRESENT;23;MODE;0
RAW_IMU;AX;37.0;AY;-18.0;AZ;254.0;GX;4.0;GY;-1.0;GZ;0.0;MAGX;1.0;MAGY;-18.0;MAGZ;-2.0
MOT;0;1000.0;1;1000.0;2;1000.0;3;1000.0;4;0.0;5;0.0;6;0.0;7;0.0;
RC;ROLL;1504.0;PITCH;1515.0;YAW;1907.0;THROTTLE;1049.0;AUX1;1540.0;AUX2;1500.0;AUX3;1500.0;AUX4;1500.0
ALTITUDE;78.0
DEBUG;DEBUG1-97.0;DEBUG2;0.0;DEBUG3;78.0;DEBUG4;0.0
ATTITUDE;ANGX;7.0;ANGY;-4.0;HEAD;-168.0
STATUS;CYCLETIME;2896;I2CERR;0;PRESENT;23;MODE;0
RAW_IMU;AX;38.0;AY;-20.0;AZ;254.0;GX;8.0;GY;-1.0;GZ;0.0;MAGX;0.0;MAGY;-18.0;MAGZ;-4.0
MOT;0;1000.0;1;1000.0;2;1000.0;3;1000.0;4;0.0;5;0.0;6;0.0;7;0.0;
RC;ROLL;1504.0;PITCH;1515.0;YAW;1909.0;THROTTLE;1049.0;AUX1;1538.0;AUX2;1500.0;AUX3;1500.0;AUX4;1500.0
ALTITUDE;78.0
DEBUG;DEBUG1-97.0;DEBUG2;0.0;DEBUG3;78.0;DEBUG4;0.0
ATTITUDE;ANGX;8.0;ANGY;-4.0;HEAD;-167.0
STATUS;CYCLETIME;2988;I2CERR;0;PRESENT;23;MODE;0
RAW_IMU;AX;41.0;AY;-21.0;AZ;252.0;GX;9.0;GY;0.0;GZ;0.0;MAGX;0.0;MAGY;-18.0;MAGZ;-4.0
MOT;0;1000.0;1;1000.0;2;1000.0;3;1000.0;4;0.0;5;0.0;6;0.0;7;0.0;
RC;ROLL;1502.0;PITCH;1517.0;YAW;1909.0;THROTTLE;1047.0;AUX1;1538.0;AUX2;1500.0;AUX3;1500.0;AUX4;1500.0
ALTITUDE;78.0
DEBUG;DEBUG1-97.0;DEBUG2;0.0;DEBUG3;78.0;DEBUG4;0.0
ATTITUDE;ANGX;9.0;ANGY;-4.0;HEAD;-167.0
STATUS;CYCLETIME;3008;I2CERR;0;PRESENT;23;MODE;0
RAW_IMU;AX;42.0;AY;-20.0;AZ;250.0;GX;7.0;GY;1.0;GZ;0.0;MAGX;1.0;MAGY;-18.0;MAGZ;-4.0
MOT;0;1000.0;1;1000.0;2;1000.0;3;1000.0;4;0.0;5;0.0;6;0.0;7;0.0;
RC;ROLL;1502.0;PITCH;1517.0;YAW;1912.0;THROTTLE;1045.0;AUX1;1538.0;AUX2;1500.0;AUX3;1500.0;AUX4;1500.0
ALTITUDE;78.0
DEBUG;DEBUG1-97.0;DEBUG2;0.0;DEBUG3;78.0;DEBUG4;0.0
ATTITUDE;ANGX;10.0;ANGY;-4.0;HEAD;-167.0
STATUS;CYCLETIME;2932;I2CERR;0;PRESENT;23;MODE;0
RAW_IMU;AX;44.0;AY;-20.0;AZ;255.0;GX;3.0;GY;0.0;GZ;0.0;MAGX;1.0;MAGY;-18.0;MAGZ;-4.0
MOT;0;1000.0;1;1000.0;2;1000.0;3;1000.0;4;0.0;5;0.0;6;0.0;7;0.0;
RC;ROLL;1502.0;PITCH;1517.0;YAW;1909.0;THROTTLE;1047.0;AUX1;1538.0;AUX2;1500.0;AUX3;1500.0;AUX4;1500.0
ALTITUDE;78.0
DEBUG;DEBUG1-97.0;DEBUG2;0.0;DEBUG3;78.0;DEBUG4;0.0
ATTITUDE;ANGX;11.0;ANGY;-4.0;HEAD;-167.0
STATUS;CYCLETIME;3040;I2CERR;0;PRESENT;23;MODE;0
RAW_IMU;AX;45.0;AY;-16.0;AZ;254.0;GX;0.0;GY;-1.0;GZ;0.0;MAGX;0.0;MAGY;-19.0;MAGZ;-4.0
MOT;0;1000.0;1;1000.0;2;1000.0;3;1000.0;4;0.0;5;0.0;6;0.0;7;0.0;
RC;ROLL;1502.0;PITCH;1515.0;YAW;1907.0;THROTTLE;1047.0;AUX1;1538.0;AUX2;1500.0;AUX3;1500.0;AUX4;1500.0
ALTITUDE;78.0
DEBUG;DEBUG1-97.0;DEBUG2;0.0;DEBUG3;78.0;DEBUG4;0.0
ATTITUDE;ANGX;11.0;ANGY;-4.0;HEAD;-167.0
STATUS;CYCLETIME;2868;I2CERR;0;PRESENT;23;MODE;0
RAW_IMU;AX;45.0;AY;-19.0;AZ;253.0;GX;-3.0;GY;-1.0;GZ;0.0;MAGX;0.0;MAGY;-19.0;MAGZ;-4.0
MOT;0;1000.0;1;1000.0;2;1000.0;3;1000.0;4;0.0;5;0.0;6;0.0;7;0.0;
RC;ROLL;1502.0;PITCH;1515.0;YAW;1907.0;THROTTLE;1047.0;AUX1;1538.0;AUX2;1500.0;AUX3;1500.0;AUX4;1500.0
ALTITUDE;78.0
DEBUG;DEBUG1-97.0;DEBUG2;0.0;DEBUG3;78.0;DEBUG4;0.0
ATTITUDE;ANGX;11.0;ANGY;-4.0;HEAD;-167.0
STATUS;CYCLETIME;2892;I2CERR;0;PRESENT;23;MODE;1
RAW_IMU;AX;40.0;AY;-22.0;AZ;251.0;GX;-3.0;GY;0.0;GZ;0.0;MAGX;0.0;MAGY;-19.0;MAGZ;-3.0
MOT;0;1150.0;1;1150.0;2;1150.0;3;1150.0;4;0.0;5;0.0;6;0.0;7;0.0;
RC;ROLL;1502.0;PITCH;1515.0;YAW;1910.0;THROTTLE;1047.0;AUX1;1536.0;AUX2;1500.0;AUX3;1500.0;AUX4;1500.0
ALTITUDE;78.0
DEBUG;DEBUG1-97.0;DEBUG2;0.0;DEBUG3;78.0;DEBUG4;0.0
ATTITUDE;ANGX;10.0;ANGY;-4.0;HEAD;-167.0
STATUS;CYCLETIME;3008;I2CERR;0;PRESENT;23;MODE;1
RAW_IMU;AX;39.0;AY;-20.0;AZ;251.0;GX;-1.0;GY;1.0;GZ;0.0;MAGX;0.0;MAGY;-19.0;MAGZ;-3.0
MOT;0;1150.0;1;1150.0;2;1150.0;3;1150.0;4;0.0;5;0.0;6;0.0;7;0.0;
RC;ROLL;1502.0;PITCH;1515.0;YAW;1908.0;THROTTLE;1047.0;AUX1;1536.0;AUX2;1500.0;AUX3;1500.0;AUX4;1500.0
ALTITUDE;78.0
DEBUG;DEBUG1-97.0;DEBUG2;0.0;DEBUG3;78.0;DEBUG4;0.0
ATTITUDE;ANGX;10.0;ANGY;-4.0;HEAD;-167.0
STATUS;CYCLETIME;2948;I2CERR;0;PRESENT;23;MODE;1
RAW_IMU;AX;40.0;AY;-17.0;AZ;251.0;GX;-1.0;GY;1.0;GZ;0.0;MAGX;0.0;MAGY;-18.0;MAGZ;-4.0
MOT;0;1150.0;1;1150.0;2;1150.0;3;1150.0;4;0.0;5;0.0;6;0.0;7;0.0;
RC;ROLL;1502.0;PITCH;1515.0;YAW;1908.0;THROTTLE;1047.0;AUX1;1536.0;AUX2;1500.0;AUX3;1500.0;AUX4;1500.0
ALTITUDE;78.0
DEBUG;DEBUG1-97.0;DEBUG2;0.0;DEBUG3;78.0;DEBUG4;0.0
ATTITUDE;ANGX;10.0;ANGY;-4.0;HEAD;-167.0
STATUS;CYCLETIME;2884;I2CERR;0;PRESENT;23;MODE;1
RAW_IMU;AX;43.0;AY;-17.0;AZ;252.0;GX;-2.0;GY;0.0;GZ;-1.0;MAGX;0.0;MAGY;-18.0;MAGZ;-4.0
MOT;0;1150.0;1;1150.0;2;1150.0;3;1150.0;4;0.0;5;0.0;6;0.0;7;0.0;
RC;ROLL;1502.0;PITCH;1515.0;YAW;1908.0;THROTTLE;1049.0;AUX1;1536.0;AUX2;1500.0;AUX3;1500.0;AUX4;1500.0
ALTITUDE;78.0
DEBUG;DEBUG1-97.0;DEBUG2;0.0;DEBUG3;78.0;DEBUG4;0.0
ATTITUDE;ANGX;9.0;ANGY;-4.0;HEAD;-167.0
STATUS;CYCLETIME;2996;I2CERR;0;PRESENT;23;MODE;1
RAW_IMU;AX;44.0;AY;-20.0;AZ;256.0;GX;-4.0;GY;-1.0;GZ;-1.0;MAGX;0.0;MAGY;-18.0;MAGZ;-4.0
MOT;0;1150.0;1;1150.0;2;1150.0;3;1150.0;4;0.0;5;0.0;6;0.0;7;0.0;
RC;ROLL;1504.0;PITCH;1515.0;YAW;1908.0;THROTTLE;1049.0;AUX1;1536.0;AUX2;1500.0;AUX3;1500.0;AUX4;1500.0
ALTITUDE;78.0
DEBUG;DEBUG1-97.0;DEBUG2;0.0;DEBUG3;78.0;DEBUG4;0.0
ATTITUDE;ANGX;9.0;ANGY;-4.0;HEAD;-167.0
STATUS;CYCLETIME;2892;I2CERR;0;PRESENT;23;MODE;1
RAW_IMU;AX;45.0;AY;-23.0;AZ;252.0;GX;-6.0;GY;0.0;GZ;0.0;MAGX;-1.0;MAGY;-18.0;MAGZ;-4.0
MOT;0;1150.0;1;1150.0;2;1150.0;3;1150.0;4;0.0;5;0.0;6;0.0;7;0.0;
RC;ROLL;1504.0;PITCH;1515.0;YAW;1908.0;THROTTLE;1049.0;AUX1;1536.0;AUX2;1500.0;AUX3;1500.0;AUX4;1500.0
ALTITUDE;78.0
DEBUG;DEBUG1-97.0;DEBUG2;0.0;DEBUG3;78.0;DEBUG4;0.0
ATTITUDE;ANGX;9.0;ANGY;-4.0;HEAD;-167.0
STATUS;CYCLETIME;2972;I2CERR;0;PRESENT;23;MODE;1
RAW_IMU;AX;42.0;AY;-22.0;AZ;251.0;GX;-7.0;GY;0.0;GZ;0.0;MAGX;-1.0;MAGY;-18.0;MAGZ;-4.0
MOT;0;1150.0;1;1150.0;2;1150.0;3;1150.0;4;0.0;5;0.0;6;0.0;7;0.0;
RC;ROLL;1504.0;PITCH;1515.0;YAW;1908.0;THROTTLE;1049.0;AUX1;1536.0;AUX2;1500.0;AUX3;1500.0;AUX4;1500.0
ALTITUDE;77.0
DEBUG;DEBUG1-97.0;DEBUG2;0.0;DEBUG3;77.0;DEBUG4;0.0
ATTITUDE;ANGX;8.0;ANGY;-4.0;HEAD;-167.0
STATUS;CYCLETIME;2988;I2CERR;0;PRESENT;23;MODE;1
RAW_IMU;AX;40.0;AY;-22.0;AZ;251.0;GX;-5.0;GY;1.0;GZ;0.0;MAGX;0.0;MAGY;-17.0;MAGZ;-2.0
MOT;0;1150.0;1;1150.0;2;1150.0;3;1150.0;4;0.0;5;0.0;6;0.0;7;0.0;
RC;ROLL;1504.0;PITCH;1515.0;YAW;1908.0;THROTTLE;1049.0;AUX1;1538.0;AUX2;1500.0;AUX3;1500.0;AUX4;1500.0
ALTITUDE;77.0
DEBUG;DEBUG1-96.0;DEBUG2;0.0;DEBUG3;77.0;DEBUG4;0.0
ATTITUDE;ANGX;7.0;ANGY;-4.0;HEAD;-168.0
STATUS;CYCLETIME;2896;I2CERR;0;PRESENT;23;MODE;1
RAW_IMU;AX;39.0;AY;-21.0;AZ;253.0;GX;-3.0;GY;0.0;GZ;0.0;MAGX;0.0;MAGY;-17.0;MAGZ;-2.0
MOT;0;1150.0;1;1150.0;2;1150.0;3;1150.0;4;0.0;5;0.0;6;0.0;7;0.0;
RC;ROLL;1504.0;PITCH;1515.0;YAW;1908.0;THROTTLE;1049.0;AUX1;1538.0;AUX2;1500.0;AUX3;1500.0;AUX4;1500.0
ALTITUDE;77.0
DEBUG;DEBUG1-96.0;DEBUG2;0.0;DEBUG3;77.0;DEBUG4;0.0
ATTITUDE;ANGX;6.0;ANGY;-4.0;HEAD;-168.0
STATUS;CYCLETIME;2892;I2CERR;0;PRESENT;23;MODE;1
RAW_IMU;AX;37.0;AY;-20.0;AZ;252.0;GX;0.0;GY;0.0;GZ;-1.0;MAGX;0.0;MAGY;-17.0;MAGZ;-3.0
MOT;0;1150.0;1;1150.0;2;1150.0;3;1150.0;4;0.0;5;0.0;6;0.0;7;0.0;
RC;ROLL;1501.0;PITCH;1518.0;YAW;1908.0;THROTTLE;1047.0;AUX1;1538.0;AUX2;1500.0;AUX3;1500.0;AUX4;1500.0
ALTITUDE;77.0
DEBUG;DEBUG1-96.0;DEBUG2;0.0;DEBUG3;77.0;DEBUG4;0.0
ATTITUDE;ANGX;6.0;ANGY;-4.0;HEAD;-168.0
STATUS;CYCLETIME;2980;I2CERR;0;PRESENT;23;MODE;1
RAW_IMU;AX;41.0;AY;-23.0;AZ;250.0;GX;1.0;GY;0.0;GZ;0.0;MAGX;0.0;MAGY;-17.0;MAGZ;-3.0
MOT;0;1150.0;1;1150.0;2;1150.0;3;1150.0;4;0.0;5;0.0;6;0.0;7;0.0;
RC;ROLL;1501.0;PITCH;1518.0;YAW;1908.0;THROTTLE;1050.0;AUX1;1536.0;AUX2;1500.0;AUX3;1500.0;AUX4;1500.0
ALTITUDE;77.0
DEBUG;DEBUG1-96.0;DEBUG2;0.0;DEBUG3;77.0;DEBUG4;0.0
ATTITUDE;ANGX;7.0;ANGY;-4.0;HEAD;-168.0
STATUS;CYCLETIME;2944;I2CERR;0;PRESENT;23;MODE;1
RAW_IMU;AX;40.0;AY;-22.0;AZ;248.0;GX;3.0;GY;3.0;GZ;0.0;MAGX;0.0;MAGY;-17.0;MAGZ;-4.0
MOT;0;1150.0;1;1150.0;2;1150.0;3;1150.0;4;0.0;5;0.0;6;0.0;7;0.0;
RC;ROLL;1501.0;PITCH;1518.0;YAW;1908.0;THROTTLE;1050.0;AUX1;1536.0;AUX2;1500.0;AUX3;1500.0;AUX4;1500.0
ALTITUDE;78.0
DEBUG;DEBUG1-97.0;DEBUG2;0.0;DEBUG3;78.0;DEBUG4;0.0
ATTITUDE;ANGX;7.0;ANGY;-4.0;HEAD;-168.0
STATUS;CYCLETIME;2864;I2CERR;0;PRESENT;23;MODE;1
RAW_IMU;AX;42.0;AY;-19.0;AZ;248.0;GX;2.0;GY;5.0;GZ;0.0;MAGX;0.0;MAGY;-17.0;MAGZ;-4.0
MOT;0;1150.0;1;1150.0;2;1150.0;3;1150.0;4;0.0;5;0.0;6;0.0;7;0.0;
RC;ROLL;1503.0;PITCH;1516.0;YAW;1908.0;THROTTLE;1050.0;AUX1;1539.0;AUX2;1500.0;AUX3;1500.0;AUX4;1500.0
ALTITUDE;78.0
DEBUG;DEBUG1-97.0;DEBUG2;0.0;DEBUG3;78.0;DEBUG4;0.0
ATTITUDE;ANGX;7.0;ANGY;-3.0;HEAD;-168.0
STATUS;CYCLETIME;2900;I2CERR;0;PRESENT;23;MODE;1
RAW_IMU;AX;41.0;AY;-15.0;AZ;249.0;GX;2.0;GY;2.0;GZ;0.0;MAGX;0.0;MAGY;-17.0;MAGZ;-3.0
MOT;0;1150.0;1;1150.0;2;1150.0;3;1150.0;4;0.0;5;0.0;6;0.0;7;0.0;
RC;ROLL;1503.0;PITCH;1516.0;YAW;1908.0;THROTTLE;1050.0;AUX1;1539.0;AUX2;1500.0;AUX3;1500.0;AUX4;1500.0
ALTITUDE;78.0
DEBUG;DEBUG1-97.0;DEBUG2;0.0;DEBUG3;78.0;DEBUG4;0.0
ATTITUDE;ANGX;8.0;ANGY;-3.0;HEAD;-168.0
STATUS;CYCLETIME;2904;I2CERR;0;PRESENT;23;MODE;1
RAW_IMU;AX;40.0;AY;-11.0;AZ;251.0;GX;2.0;GY;-4.0;GZ;1.0;MAGX;0.0;MAGY;-17.0;MAGZ;-3.0
MOT;0;1150.0;1;1150.0;2;1150.0;3;1150.0;4;0.0;5;0.0;6;0.0;7;0.0;
RC;ROLL;1500.0;PITCH;1518.0;YAW;1906.0;THROTTLE;1050.0;AUX1;1539.0;AUX2;1500.0;AUX3;1500.0;AUX4;1500.0
ALTITUDE;78.0
DEBUG;DEBUG1-97.0;DEBUG2;0.0;DEBUG3;78.0;DEBUG4;0.0
ATTITUDE;ANGX;8.0;ANGY;-3.0;HEAD;-168.0
STATUS;CYCLETIME;3048;I2CERR;0;PRESENT;23;MODE;1
RAW_IMU;AX;41.0;AY;-11.0;AZ;253.0;GX;4.0;GY;-9.0;GZ;1.0;MAGX;1.0;MAGY;-18.0;MAGZ;-4.0
MOT;0;1150.0;1;1150.0;2;1150.0;3;1150.0;4;0.0;5;0.0;6;0.0;7;0.0;
RC;ROLL;1500.0;PITCH;1518.0;YAW;1906.0;THROTTLE;1050.0;AUX1;1542.0;AUX2;1500.0;AUX3;1500.0;AUX4;1500.0
ALTITUDE;78.0
DEBUG;DEBUG1-97.0;DEBUG2;0.0;DEBUG3;78.0;DEBUG4;0.0
ATTITUDE;ANGX;9.0;ANGY;-4.0;HEAD;-167.0
STATUS;CYCLETIME;2936;I2CERR;0;PRESENT;23;MODE;1
RAW_IMU;AX;39.0;AY;-21.0;AZ;254.0;GX;8.0;GY;-9.0;GZ;0.0;MAGX;1.0;MAGY;-18.0;MAGZ;-4.0
MOT;0;1150.0;1;1150.0;2;1150.0;3;1150.0;4;0.0;5;0.0;6;0.0;7;0.0;
RC;ROLL;1500.0;PITCH;1518.0;YAW;1906.0;THROTTLE;1050.0;AUX1;1540.0;AUX2;1500.0;AUX3;1500.0;AUX4;1500.0
ALTITUDE;78.0
DEBUG;DEBUG1-97.0;DEBUG2;0.0;DEBUG3;78.0;DEBUG4;0.0
ATTITUDE;ANGX;9.0;ANGY;-5.0;HEAD;-167.0
STATUS;CYCLETIME;3072;I2CERR;0;PRESENT;23;MODE;1
RAW_IMU;AX;36.0;AY;-29.0;AZ;252.0;GX;9.0;GY;-2.0;GZ;0.0;MAGX;0.0;MAGY;-19.0;MAGZ;-4.0
MOT;0;1150.0;1;1150.0;2;1150.0;3;1150.0;4;0.0;5;0.0;6;0.0;7;0.0;
RC;ROLL;1500.0;PITCH;1518.0;YAW;1906.0;THROTTLE;1050.0;AUX1;1537.0;AUX2;1500.0;AUX3;1500.0;AUX4;1500.0
ALTITUDE;78.0
DEBUG;DEBUG1-97.0;DEBUG2;0.0;DEBUG3;78.0;DEBUG4;0.0
ATTITUDE;ANGX;10.0;ANGY;-6.0;HEAD;-167.0
STATUS;CYCLETIME;2992;I2CERR;0;PRESENT;23;MODE;1
RAW_IMU;AX;39.0;AY;-32.0;AZ;252.0;GX;7.0;GY;4.0;GZ;0.0;MAGX;0.0;MAGY;-19.0;MAGZ;-4.0
MOT;0;1150.0;1;1150.0;2;1150.0;3;1150.0;4;0.0;5;0.0;6;0.0;7;0.0;
RC;ROLL;1500.0;PITCH;1516.0;YAW;1906.0;THROTTLE;1050.0;AUX1;1539.0;AUX2;1500.0;AUX3;1500.0;AUX4;1500.0
ALTITUDE;78.0
DEBUG;DEBUG1-97.0;DEBUG2;0.0;DEBUG3;78.0;DEBUG4;0.0
ATTITUDE;ANGX;11.0;ANGY;-5.0;HEAD;-166.0
STATUS;CYCLETIME;2888;I2CERR;0;PRESENT;23;MODE;1
RAW_IMU;AX;45.0;AY;-27.0;AZ;254.0;GX;1.0;GY;7.0;GZ;0.0;MAGX;1.0;MAGY;-18.0;MAGZ;-4.0
MOT;0;1150.0;1;1150.0;2;1150.0;3;1150.0;4;0.0;5;0.0;6;0.0;7;0.0;
RC;ROLL;1502.0;PITCH;1516.0;YAW;1906.0;THROTTLE;1050.0;AUX1;1539.0;AUX2;1500.0;AUX3;1500.0;AUX4;1500.0
ALTITUDE;78.0
DEBUG;DEBUG1-97.0;DEBUG2;0.0;DEBUG3;78.0;DEBUG4;0.0
ATTITUDE;ANGX;12.0;ANGY;-4.0;HEAD;-166.0
STATUS;CYCLETIME;2928;I2CERR;0;PRESENT;23;MODE;1
RAW_IMU;AX;48.0;AY;-20.0;AZ;255.0;GX;-6.0;GY;4.0;GZ;0.0;MAGX;1.0;MAGY;-18.0;MAGZ;-4.0
MOT;0;1150.0;1;1150.0;2;1150.0;3;1150.0;4;0.0;5;0.0;6;0.0;7;0.0;
RC;ROLL;1504.0;PITCH;1516.0;YAW;1906.0;THROTTLE;1050.0;AUX1;1539.0;AUX2;1500.0;AUX3;1500.0;AUX4;1500.0
ALTITUDE;78.0
DEBUG;DEBUG1-97.0;DEBUG2;0.0;DEBUG3;78.0;DEBUG4;0.0
ATTITUDE;ANGX;11.0;ANGY;-4.0;HEAD;-167.0
STATUS;CYCLETIME;2948;I2CERR;0;PRESENT;23;MODE;1
RAW_IMU;AX;48.0;AY;-17.0;AZ;253.0;GX;-13.0;GY;0.0;GZ;0.0;MAGX;0.0;MAGY;-18.0;MAGZ;-5.0
MOT;0;1150.0;1;1150.0;2;1150.0;3;1150.0;4;0.0;5;0.0;6;0.0;7;0.0;
RC;ROLL;1506.0;PITCH;1516.0;YAW;1904.0;THROTTLE;1048.0;AUX1;1539.0;AUX2;1500.0;AUX3;1500.0;AUX4;1500.0
ALTITUDE;78.0
DEBUG;DEBUG1-97.0;DEBUG2;0.0;DEBUG3;78.0;DEBUG4;0.0
ATTITUDE;ANGX;10.0;ANGY;-4.0;HEAD;-167.0
STATUS;CYCLETIME;2900;I2CERR;0;PRESENT;23;MODE;1
RAW_IMU;AX;46.0;AY;-19.0;AZ;251.0;GX;-15.0;GY;-1.0;GZ;0.0;MAGX;0.0;MAGY;-18.0;MAGZ;-5.0
MOT;0;1150.0;1;1150.0;2;1150.0;3;1150.0;4;0.0;5;0.0;6;0.0;7;0.0;
RC;ROLL;1504.0;PITCH;1516.0;YAW;1904.0;THROTTLE;1046.0;AUX1;1539.0;AUX2;1500.0;AUX3;1500.0;AUX4;1500.0
ALTITUDE;78.0
DEBUG;DEBUG1-97.0;DEBUG2;0.0;DEBUG3;78.0;DEBUG4;0.0
ATTITUDE;ANGX;8.0;ANGY;-4.0;HEAD;-167.0
STATUS;CYCLETIME;2884;I2CERR;0;PRESENT;23;MODE;1
RAW_IMU;AX;39.0;AY;-18.0;AZ;249.0;GX;-13.0;GY;0.0;GZ;-1.0;MAGX;-1.0;MAGY;-18.0;MAGZ;-4.0
MOT;0;1150.0;1;1150.0;2;1150.0;3;1150.0;4;0.0;5;0.0;6;0.0;7;0.0;
RC;ROLL;1504.0;PITCH;1516.0;YAW;1904.0;THROTTLE;1046.0;AUX1;1539.0;AUX2;1500.0;AUX3;1500.0;AUX4;1500.0
ALTITUDE;78.0
DEBUG;DEBUG1-97.0;DEBUG2;0.0;DEBUG3;78.0;DEBUG4;0.0
ATTITUDE;ANGX;6.0;ANGY;-4.0;HEAD;-168.0
STATUS;CYCLETIME;3008;I2CERR;0;PRESENT;23;MODE;1
RAW_IMU;AX;35.0;AY;-19.0;AZ;250.0;GX;-8.0;GY;1.0;GZ;0.0;MAGX;-1.0;MAGY;-18.0;MAGZ;-4.0
MOT;0;1150.0;1;1150.0;2;1150.0;3;1150.0;4;0.0;5;0.0;6;0.0;7;0.0;
RC;ROLL;1504.0;PITCH;1516.0;YAW;1909.0;THROTTLE;1048.0;AUX1;1539.0;AUX2;1500.0;AUX3;1500.0;AUX4;1500.0
ALTITUDE;78.0
DEBUG;DEBUG1-97.0;DEBUG2;0.0;DEBUG3;78.0;DEBUG4;0.0
ATTITUDE;ANGX;6.0;ANGY;-4.0;HEAD;-168.0
STATUS;CYCLETIME;2920;I2CERR;0;PRESENT;23;MODE;1
RAW_IMU;AX;35.0;AY;-19.0;AZ;252.0;GX;-2.0;GY;1.0;GZ;-1.0;MAGX;0.0;MAGY;-17.0;MAGZ;-3.0
MOT;0;1150.0;1;1150.0;2;1150.0;3;1150.0;4;0.0;5;0.0;6;0.0;7;0.0;
RC;ROLL;1500.0;PITCH;1520.0;YAW;1909.0;THROTTLE;1048.0;AUX1;1532.0;AUX2;1500.0;AUX3;1500.0;AUX4;1500.0
ALTITUDE;78.0
DEBUG;DEBUG1-97.0;DEBUG2;0.0;DEBUG3;78.0;DEBUG4;0.0
ATTITUDE;ANGX;5.0;ANGY;-4.0;HEAD;-168.0
STATUS;CYCLETIME;3032;I2CERR;0;PRESENT;23;MODE;1
RAW_IMU;AX;37.0;AY;-19.0;AZ;254.0;GX;1.0;GY;0.0;GZ;0.0;MAGX;0.0;MAGY;-17.0;MAGZ;-3.0
MOT;0;1150.0;1;1150.0;2;1150.0;3;1150.0;4;0.0;5;0.0;6;0.0;7;0.0;
RC;ROLL;1493.0;PITCH;1523.0;YAW;1874.0;THROTTLE;1051.0;AUX1;1541.0;AUX2;1500.0;AUX3;1500.0;AUX4;1500.0
ALTITUDE;78.0
DEBUG;DEBUG1-97.0;DEBUG2;0.0;DEBUG3;78.0;DEBUG4;0.0
ATTITUDE;ANGX;5.0;ANGY;-4.0;HEAD;-168.0
STATUS;CYCLETIME;2892;I2CERR;0;PRESENT;23;MODE;1
RAW_IMU;AX;36.0;AY;-21.0;AZ;255.0;GX;3.0;GY;-2.0;GZ;0.0;MAGX;0.0;MAGY;-17.0;MAGZ;-4.0
MOT;0;1150.0;1;1150.0;2;1150.0;3;1150.0;4;0.0;5;0.0;6;0.0;7;0.0;
RC;ROLL;1495.0;PITCH;1521.0;YAW;1857.0;THROTTLE;1046.0;AUX1;1543.0;AUX2;1500.0;AUX3;1500.0;AUX4;1500.0
ALTITUDE;78.0
DEBUG;DEBUG1-97.0;DEBUG2;0.0;DEBUG3;78.0;DEBUG4;0.0
ATTITUDE;ANGX;6.0;ANGY;-4.0;HEAD;-168.0
STATUS;CYCLETIME;2896;I2CERR;0;PRESENT;23;MODE;1
RAW_IMU;AX;37.0;AY;-24.0;AZ;254.0;GX;3.0;GY;-3.0;GZ;1.0;MAGX;0.0;MAGY;-17.0;MAGZ;-4.0
MOT;0;1150.0;1;1150.0;2;1150.0;3;1150.0;4;0.0;5;0.0;6;0.0;7;0.0;
