IDENT;V;220;TYPE;3
MSP_MOTOR_PINS
STATUS;CYCLETIME;2896;I2CERR;0;PRESENT;23;MODE;0
RAW_IMU;AX;37.0;AY;0.0;AZ;253.0;GX;-1.0;GY;0.0;GZ;-1.0;MAGX;19.0;MAGY;-117.0;MAGZ;85.0
MOT;0;1000.0;1;1000.0;2;1000.0;3;1000.0;4;0.0;5;0.0;6;0.0;7;0.0;
RC;ROLL;1500.0;PITCH;1500.0;YAW;1500.0;THROTTLE;1500.0;AUX1;1500.0;AUX2;1500.0;AUX3;1500.0;AUX4;1500.0
ALTITUDE;0.0
DEBUG;DEBUG10.0;DEBUG2;0.0;DEBUG3;0.0;DEBUG4;0.0
ATTITUDE;ANGX;4.0;ANGY;-2.0;HEAD;-167.0
STATUS;CYCLETIME;2900;I2CERR;0;PRESENT;23;MODE;0
RAW_IMU;AX;39.0;AY;0.0;AZ;255.0;GX;-1.0;GY;0.0;GZ;-1.0;MAGX;19.0;MAGY;-117.0;MAGZ;85.0
MOT;0;1000.0;1;1000.0;2;1000.0;3;1000.0;4;0.0;5;0.0;6;0.0;7;0.0;
RC;ROLL;1500.0;PITCH;1500.0;YAW;1500.0;THROTTLE;1500.0;AUX1;1500.0;AUX2;1500.0;AUX3;1500.0;AUX4;1500.0
ALTITUDE;0.0
DEBUG;DEBUG10.0;DEBUG2;0.0;DEBUG3;0.0;DEBUG4;0.0
ATTITUDE;ANGX;4.0;ANGY;-2.0;HEAD;-167.0
STATUS;CYCLETIME;2888;I2CERR;0;PRESENT;23;MODE;0
RAW_IMU;AX;40.0;AY;1.0;AZ;256.0;GX;0.0;GY;0.0;GZ;-1.0;MAGX;19.0;MAGY;-118.0;MAGZ;86.0
MOT;0;1000.0;1;1000.0;2;1000.0;3;1000.0;4;0.0;5;0.0;6;0.0;7;0.0;
RC;ROLL;1500.0;PITCH;1500.0;YAW;1500.0;THROTTLE;1500.0;AUX1;1500.0;AUX2;1500.0;AUX3;1500.0;AUX4;1500.0
ALTITUDE;0.0
DEBUG;DEBUG10.0;DEBUG2;0.0;DEBUG3;0.0;DEBUG4;0.0
ATTITUDE;ANGX;4.0;ANGY;-2.0;HEAD;-167.0
ATTITUDE;ANGX;4.0;ANGY;-2.0;HEAD;-167.0
STATUS;CYCLETIME;2892;I2CERR;0;PRESENT;23;MODE;0
RAW_IMU;AX;37.0;AY;2.0;AZ;252.0;GX;0.0;GY;0.0;GZ;-1.0;MAGX;19.0;MAGY;-117.0;MAGZ;86.0
MOT;0;1000.0;1;1000.0;2;1000.0;3;1000.0;4;0.0;5;0.0;6;0.0;7;0.0;
RC;ROLL;1500.0;PITCH;1500.0;YAW;1500.0;THROTTLE;1500.0;AUX1;1500.0;AUX2;1500.0;AUX3;1500.0;AUX4;1500.0
ALTITUDE;0.0
DEBUG;DEBUG10.0;DEBUG2;0.0;DEBUG3;0.0;DEBUG4;0.0
ATTITUDE;ANGX;4.0;ANGY;-2.0;HEAD;-167.0
STATUS;CYCLETIME;2896;I2CERR;0;PRESENT;23;MODE;0
RAW_IMU;AX;37.0;AY;-1.0;AZ;252.0;GX;0.0;GY;0.0;GZ;-1.0;MAGX;19.0;MAGY;-117.0;MAGZ;86.0
MOT;0;1000.0;1;1000.0;2;1000.0;3;1000.0;4;0.0;5;0.0;6;0.0;7;0.0;
RC;ROLL;1500.0;PITCH;1500.0;YAW;1500.0;THROTTLE;1500.0;AUX1;1500.0;AUX2;1500.0;AUX3;1500.0;AUX4;1500.0
ALTITUDE;0.0
DEBUG;DEBUG10.0;DEBUG2;0.0;DEBUG3;0.0;DEBUG4;0.0
ATTITUDE;ANGX;4.0;ANGY;-2.0;HEAD;-167.0
STATUS;CYCLETIME;2908;I2CERR;0;PRESENT;23;MODE;0
RAW_IMU;AX;36.0;AY;-1.0;AZ;252.0;GX;0.0;GY;0.0;GZ;-1.0;MAGX;19.0;MAGY;-117.0;MAGZ;86.0
MOT;0;1000.0;1;1000.0;2;1000.0;3;1000.0;4;0.0;5;0.0;6;0.0;7;0.0;
RC;ROLL;1500.0;PITCH;1500.0;YAW;1500.0;THROTTLE;1500.0;AUX1;1500.0;AUX2;1500.0;AUX3;1500.0;AUX4;1500.0
ALTITUDE;0.0
DEBUG;DEBUG10.0;DEBUG2;0.0;DEBUG3;0.0;DEBUG4;0.0
ATTITUDE;ANGX;4.0;ANGY;-2.0;HEAD;-167.0
STATUS;CYCLETIME;2880;I2CERR;0;PRESENT;23;MODE;0
RAW_IMU;AX;36.0;AY;0.0;AZ;252.0;GX;-1.0;GY;0.0;GZ;-1.0;MAGX;19.0;MAGY;-117.0;MAGZ;85.0
MOT;0;1000.0;1;1000.0;2;1000.0;3;1000.0;4;0.0;5;0.0;6;0.0;7;0.0;
RC;ROLL;1500.0;PITCH;1500.0;YAW;1500.0;THROTTLE;1500.0;AUX1;1500.0;AUX2;1500.0;AUX3;1500.0;AUX4;1500.0
ALTITUDE;0.0
DEBUG;DEBUG10.0;DEBUG2;0.0;DEBUG3;0.0;DEBUG4;0.0
ATTITUDE;ANGX;4.0;ANGY;-2.0;HEAD;-167.0
STATUS;CYCLETIME;3012;I2CERR;0;PRESENT;23;MODE;0
RAW_IMU;AX;37.0;AY;2.0;AZ;252.0;GX;0.0;GY;0.0;GZ;-1.0;MAGX;19.0;MAGY;-117.0;MAGZ;85.0
MOT;0;1000.0;1;1000.0;2;1000.0;3;1000.0;4;0.0;5;0.0;6;0.0;7;0.0;
RC;ROLL;1500.0;PITCH;1500.0;YAW;1500.0;THROTTLE;1500.0;AUX1;1500.0;AUX2;1500.0;AUX3;1500.0;AUX4;1500.0
ALTITUDE;0.0
DEBUG;DEBUG10.0;DEBUG2;0.0;DEBUG3;0.0;DEBUG4;0.0
ATTITUDE;ANGX;4.0;ANGY;-2.0;HEAD;-167.0
STATUS;CYCLETIME;2892;I2CERR;0;PRESENT;23;MODE;0
RAW_IMU;AX;38.0;AY;0.0;AZ;252.0;GX;-1.0;GY;0.0;GZ;-1.0;MAGX;18.0;MAGY;-117.0;MAGZ;86.0
MOT;0;1000.0;1;1000.0;2;1000.0;3;1000.0;4;0.0;5;0.0;6;0.0;7;0.0;
RC;ROLL;1500.0;PITCH;1500.0;YAW;1500.0;THROTTLE;1500.0;AUX1;1500.0;AUX2;1500.0;AUX3;1500.0;AUX4;1500.0
ALTITUDE;0.0
DEBUG;DEBUG10.0;DEBUG2;0.0;DEBUG3;0.0;DEBUG4;0.0
ATTITUDE;ANGX;4.0;ANGY;-2.0;HEAD;-167.0
STATUS;CYCLETIME;2900;I2CERR;0;PRESENT;23;MODE;0
RAW_IMU;AX;39.0;AY;1.0;AZ;250.0;GX;-1.0;GY;0.0;GZ;-1.0;MAGX;18.0;MAGY;-117.0;MAGZ;86.0
MOT;0;1000.0;1;1000.0;2;1000.0;3;1000.0;4;0.0;5;0.0;6;0.0;7;0.0;
RC;ROLL;1500.0;PITCH;1500.0;YAW;1500.0;THROTTLE;1500.0;AUX1;1500.0;AUX2;1500.0;AUX3;1500.0;AUX4;1500.0
ALTITUDE;0.0
DEBUG;DEBUG10.0;DEBUG2;0.0;DEBUG3;0.0;DEBUG4;0.0
ATTITUDE;ANGX;4.0;ANGY;-2.0;HEAD;-167.0
STATUS;CYCLETIME;3008;I2CERR;0;PRESENT;23;MODE;0
RAW_IMU;AX;38.0;AY;2.0;AZ;250.0;GX;0.0;GY;0.0;GZ;-1.0;MAGX;19.0;MAGY;-117.0;MAGZ;86.0
MOT;0;1000.0;1;1000.0;2;1000.0;3;1000.0;4;0.0;5;0.0;6;0.0;7;0.0;
RC;ROLL;1500.0;PITCH;1500.0;YAW;1500.0;THROTTLE;1500.0;AUX1;1500.0;AUX2;1500.0;AUX3;1500.0;AUX4;1500.0
ALTITUDE;0.0
DEBUG;DEBUG10.0;DEBUG2;0.0;DEBUG3;0.0;DEBUG4;0.0
ATTITUDE;ANGX;4.0;ANGY;-2.0;HEAD;-167.0
STATUS;CYCLETIME;2892;I2CERR;0;PRESENT;23;MODE;0
RAW_IMU;AX;38.0;AY;0.0;AZ;251.0;GX;0.0;GY;0.0;GZ;-1.0;MAGX;19.0;MAGY;-117.0;MAGZ;86.0
MOT;0;1000.0;1;1000.0;2;1000.0;3;1000.0;4;0.0;5;0.0;6;0.0;7;0.0;
RC;ROLL;1500.0;PITCH;1500.0;YAW;1500.0;THROTTLE;1500.0;AUX1;1500.0;AUX2;1500.0;AUX3;1500.0;AUX4;1500.0
ALTITUDE;0.0
DEBUG;DEBUG10.0;DEBUG2;0.0;DEBUG3;0.0;DEBUG4;0.0
ATTITUDE;ANGX;4.0;ANGY;-2.0;HEAD;-167.0
STATUS;CYCLETIME;2900;I2CERR;0;PRESENT;23;MODE;0
RAW_IMU;AX;36.0;AY;-1.0;AZ;253.0;GX;0.0;GY;0.0;GZ;-1.0;MAGX;19.0;MAGY;-117.0;MAGZ;86.0
MOT;0;1000.0;1;1000.0;2;1000.0;3;1000.0;4;0.0;5;0.0;6;0.0;7;0.0;
RC;ROLL;1500.0;PITCH;1500.0;YAW;1500.0;THROTTLE;1500.0;AUX1;1500.0;AUX2;1500.0;AUX3;1500.0;AUX4;1500.0
ALTITUDE;0.0
DEBUG;DEBUG10.0;DEBUG2;0.0;DEBUG3;0.0;DEBUG4;0.0
ATTITUDE;ANGX;4.0;ANGY;-2.0;HEAD;-167.0
STATUS;CYCLETIME;3012;I2CERR;0;PRESENT;23;MODE;0
RAW_IMU;AX;37.0;AY;1.0;AZ;254.0;GX;-1.0;GY;0.0;GZ;-1.0;MAGX;19.0;MAGY;-117.0;MAGZ;86.0
MOT;0;1000.0;1;1000.0;2;1000.0;3;1000.0;4;0.0;5;0.0;6;0.0;7;0.0;
RC;ROLL;1500.0;PITCH;1500.0;YAW;1500.0;THROTTLE;1500.0;AUX1;1500.0;AUX2;1500.0;AUX3;1500.0;AUX4;1500.0
ALTITUDE;0.0
DEBUG;DEBUG10.0;DEBUG2;0.0;DEBUG3;0.0;DEBUG4;0.0
ATTITUDE;ANGX;4.0;ANGY;-2.0;HEAD;-167.0
STATUS;CYCLETIME;3000;I2CERR;0;PRESENT;23;MODE;0
RAW_IMU;AX;36.0;AY;2.0;AZ;253.0;GX;0.0;GY;0.0;GZ;-1.0;MAGX;19.0;MAGY;-117.0;MAGZ;86.0
MOT;0;1000.0;1;1000.0;2;1000.0;3;1000.0;4;0.0;5;0.0;6;0.0;7;0.0;
RC;ROLL;1500.0;PITCH;1500.0;YAW;1500.0;THROTTLE;1500.0;AUX1;1500.0;AUX2;1500.0;AUX3;1500.0;AUX4;1500.0
ALTITUDE;0.0
DEBUG;DEBUG10.0;DEBUG2;0.0;DEBUG3;0.0;DEBUG4;0.0
ATTITUDE;ANGX;4.0;ANGY;-2.0;HEAD;-167.0
STATUS;CYCLETIME;2888;I2CERR;0;PRESENT;23;MODE;0
RAW_IMU;AX;35.0;AY;0.0;AZ;252.0;GX;0.0;GY;0.0;GZ;-1.0;MAGX;19.0;MAGY;-117.0;MAGZ;86.0
MOT;0;1000.0;1;1000.0;2;1000.0;3;1000.0;4;0.0;5;0.0;6;0.0;7;0.0;
RC;ROLL;1500.0;PITCH;1500.0;YAW;1500.0;THROTTLE;1500.0;AUX1;1500.0;AUX2;1500.0;AUX3;1500.0;AUX4;1500.0
ALTITUDE;0.0
DEBUG;DEBUG10.0;DEBUG2;0.0;DEBUG3;0.0;DEBUG4;0.0
ATTITUDE;ANGX;4.0;ANGY;-2.0;HEAD;-167.0
STATUS;CYCLETIME;3176;I2CERR;0;PRESENT;23;MODE;0
RAW_IMU;AX;37.0;AY;0.0;AZ;254.0;GX;0.0;GY;0.0;GZ;-1.0;MAGX;18.0;MAGY;-117.0;MAGZ;85.0
MOT;0;1000.0;1;1000.0;2;1000.0;3;1000.0;4;0.0;5;0.0;6;0.0;7;0.0;
RC;ROLL;1500.0;PITCH;1500.0;YAW;1500.0;THROTTLE;1500.0;AUX1;1500.0;AUX2;1500.0;AUX3;1500.0;AUX4;1500.0
ALTITUDE;0.0
DEBUG;DEBUG10.0;DEBUG2;0.0;DEBUG3;0.0;DEBUG4;0.0
ATTITUDE;ANGX;4.0;ANGY;-2.0;HEAD;-167.0
STATUS;CYCLETIME;3004;I2CERR;0;PRESENT;23;MODE;0
RAW_IMU;AX;37.0;AY;2.0;AZ;252.0;GX;-1.0;GY;0.0;GZ;-1.0;MAGX;18.0;MAGY;-117.0;MAGZ;85.0
MOT;0;1000.0;1;1000.0;2;1000.0;3;1000.0;4;0.0;5;0.0;6;0.0;7;0.0;
RC;ROLL;1500.0;PITCH;1500.0;YAW;1500.0;THROTTLE;1500.0;AUX1;1500.0;AUX2;1500.0;AUX3;1500.0;AUX4;1500.0
ALTITUDE;0.0
DEBUG;DEBUG10.0;DEBUG2;0.0;DEBUG3;0.0;DEBUG4;0.0
ATTITUDE;ANGX;4.0;ANGY;-2.0;HEAD;-167.0
STATUS;CYCLETIME;2892;I2CERR;0;PRESENT;23;MODE;0
RAW_IMU;AX;37.0;AY;0.0;AZ;253.0;GX;-1.0;GY;0.0;GZ;-1.0;MAGX;18.0;MAGY;-117.0;MAGZ;85.0
MOT;0;1000.0;1;1000.0;2;1000.0;3;1000.0;4;0.0;5;0.0;6;0.0;7;0.0;
RC;ROLL;1500.0;PITCH;1500.0;YAW;1500.0;THROTTLE;1500.0;AUX1;1500.0;AUX2;1500.0;AUX3;1500.0;AUX4;1500.0
ALTITUDE;0.0
DEBUG;DEBUG10.0;DEBUG2;0.0;DEBUG3;0.0;DEBUG4;0.0
ATTITUDE;ANGX;4.0;ANGY;-2.0;HEAD;-167.0
STATUS;CYCLETIME;2896;I2CERR;0;PRESENT;23;MODE;0
RAW_IMU;AX;38.0;AY;0.0;AZ;254.0;GX;0.0;GY;0.0;GZ;-1.0;MAGX;19.0;MAGY;-118.0;MAGZ;86.0
MOT;0;1000.0;1;1000.0;2;1000.0;3;1000.0;4;0.0;5;0.0;6;0.0;7;0.0;
RC;ROLL;1500.0;PITCH;1500.0;YAW;1500.0;THROTTLE;1500.0;AUX1;1500.0;AUX2;1500.0;AUX3;1500.0;AUX4;1500.0
ALTITUDE;0.0
DEBUG;DEBUG10.0;DEBUG2;0.0;DEBUG3;0.0;DEBUG4;0.0
ATTITUDE;ANGX;4.0;ANGY;-2.0;HEAD;-167.0
STATUS;CYCLETIME;2904;I2CERR;0;PRESENT;23;MODE;0
RAW_IMU;AX;35.0;AY;-1.0;AZ;253.0;GX;0.0;GY;0.0;GZ;-1.0;MAGX;19.0;MAGY;-118.0;MAGZ;86.0
MOT;0;1000.0;1;1000.0;2;1000.0;3;1000.0;4;0.0;5;0.0;6;0.0;7;0.0;
RC;ROLL;1500.0;PITCH;1500.0;YAW;1500.0;THROTTLE;1500.0;AUX1;1500.0;AUX2;1500.0;AUX3;1500.0;AUX4;1500.0
ALTITUDE;0.0
DEBUG;DEBUG10.0;DEBUG2;0.0;DEBUG3;0.0;DEBUG4;0.0
ATTITUDE;ANGX;4.0;ANGY;-2.0;HEAD;-167.0
STATUS;CYCLETIME;2884;I2CERR;0;PRESENT;23;MODE;0
RAW_IMU;AX;37.0;AY;-1.0;AZ;253.0;GX;-1.0;GY;0.0;GZ;-1.0;MAGX;19.0;MAGY;-118.0;MAGZ;85.0
MOT;0;1000.0;1;1000.0;2;1000.0;3;1000.0;4;0.0;5;0.0;6;0.0;7;0.0;
RC;ROLL;1500.0;PITCH;1500.0;YAW;1500.0;THROTTLE;1500.0;AUX1;1500.0;AUX2;1500.0;AUX3;1500.0;AUX4;1500.0
ALTITUDE;0.0
DEBUG;DEBUG10.0;DEBUG2;0.0;DEBUG3;0.0;DEBUG4;0.0
ATTITUDE;ANGX;4.0;ANGY;-2.0;HEAD;-167.0
STATUS;CYCLETIME;2892;I2CERR;0;PRESENT;23;MODE;0
RAW_IMU;AX;37.0;AY;2.0;AZ;253.0;GX;0.0;GY;0.0;GZ;-1.0;MAGX;19.0;MAGY;-118.0;MAGZ;85.0
MOT;0;1000.0;1;1000.0;2;1000.0;3;1000.0;4;0.0;5;0.0;6;0.0;7;0.0;
RC;ROLL;1500.0;PITCH;1500.0;YAW;1500.0;THROTTLE;1500.0;AUX1;1500.0;AUX2;1500.0;AUX3;1500.0;AUX4;1500.0
ALTITUDE;0.0
DEBUG;DEBUG10.0;DEBUG2;0.0;DEBUG3;0.0;DEBUG4;0.0
ATTITUDE;ANGX;4.0;ANGY;-2.0;HEAD;-167.0
STATUS;CYCLETIME;2912;I2CERR;0;PRESENT;23;MODE;0
RAW_IMU;AX;38.0;AY;1.0;AZ;252.0;GX;0.0;GY;0.0;GZ;-1.0;MAGX;18.0;MAGY;-117.0;MAGZ;86.0
MOT;0;1000.0;1;1000.0;2;1000.0;3;1000.0;4;0.0;5;0.0;6;0.0;7;0.0;
RC;ROLL;1500.0;PITCH;1500.0;YAW;1500.0;THROTTLE;1500.0;AUX1;1500.0;AUX2;1500.0;AUX3;1500.0;AUX4;1500.0
ALTITUDE;0.0
DEBUG;DEBUG10.0;DEBUG2;0.0;DEBUG3;0.0;DEBUG4;0.0
ATTITUDE;ANGX;4.0;ANGY;-2.0;HEAD;-167.0
STATUS;CYCLETIME;3004;I2CERR;0;PRESENT;23;MODE;0
RAW_IMU;AX;36.0;AY;1.0;AZ;255.0;GX;-1.0;GY;0.0;GZ;-1.0;MAGX;18.0;MAGY;-117.0;MAGZ;86.0
MOT;0;1000.0;1;1000.0;2;1000.0;3;1000.0;4;0.0;5;0.0;6;0.0;7;0.0;
RC;ROLL;1500.0;PITCH;1500.0;YAW;1500.0;THROTTLE;1500.0;AUX1;1500.0;AUX2;1500.0;AUX3;1500.0;AUX4;1500.0
ALTITUDE;0.0
DEBUG;DEBUG10.0;DEBUG2;0.0;DEBUG3;0.0;DEBUG4;0.0
ATTITUDE;ANGX;4.0;ANGY;-2.0;HEAD;-167.0
STATUS;CYCLETIME;2908;I2CERR;0;PRESENT;23;MODE;0
RAW_IMU;AX;36.0;AY;1.0;AZ;254.0;GX;0.0;GY;0.0;GZ;-1.0;MAGX;18.0;MAGY;-118.0;MAGZ;85.0
MOT;0;1000.0;1;1000.0;2;1000.0;3;1000.0;4;0.0;5;0.0;6;0.0;7;0.0;
RC;ROLL;1500.0;PITCH;1500.0;YAW;1500.0;THROTTLE;1500.0;AUX1;1500.0;AUX2;1500.0;AUX3;1500.0;AUX4;1500.0
ALTITUDE;0.0
DEBUG;DEBUG10.0;DEBUG2;0.0;DEBUG3;0.0;DEBUG4;0.0
ATTITUDE;ANGX;4.0;ANGY;-2.0;HEAD;-167.0
STATUS;CYCLETIME;3000;I2CERR;0;PRESENT;23;MODE;0
RAW_IMU;AX;38.0;AY;1.0;AZ;254.0;GX;-1.0;GY;0.0;GZ;-1.0;MAGX;18.0;MAGY;-118.0;MAGZ;85.0
MOT;0;1000.0;1;1000.0;2;1000.0;3;1000.0;4;0.0;5;0.0;6;0.0;7;0.0;
RC;ROLL;1500.0;PITCH;1500.0;YAW;1500.0;THROTTLE;1500.0;AUX1;1500.0;AUX2;1500.0;AUX3;1500.0;AUX4;1500.0
ALTITUDE;0.0
DEBUG;DEBUG10.0;DEBUG2;0.0;DEBUG3;0.0;DEBUG4;0.0
ATTITUDE;ANGX;4.0;ANGY;-2.0;HEAD;-167.0
STATUS;CYCLETIME;2884;I2CERR;0;PRESENT;23;MODE;0
RAW_IMU;AX;38.0;AY;1.0;AZ;254.0;GX;0.0;GY;0.0;GZ;-1.0;MAGX;18.0;MAGY;-118.0;MAGZ;85.0
MOT;0;1000.0;1;1000.0;2;1000.0;3;1000.0;4;0.0;5;0.0;6;0.0;7;0.0;
RC;ROLL;1500.0;PITCH;1500.0;YAW;1500.0;THROTTLE;1500.0;AUX1;1500.0;AUX2;1500.0;AUX3;1500.0;AUX4;1500.0
ALTITUDE;0.0
DEBUG;DEBUG10.0;DEBUG2;0.0;DEBUG3;0.0;DEBUG4;0.0
ATTITUDE;ANGX;4.0;ANGY;-2.0;HEAD;-167.0
STATUS;CYCLETIME;2896;I2CERR;0;PRESENT;23;MODE;0
RAW_IMU;AX;37.0;AY;0.0;AZ;254.0;GX;-1.0;GY;0.0;GZ;-1.0;MAGX;19.0;MAGY;-117.0;MAGZ;86.0
MOT;0;1000.0;1;1000.0;2;1000.0;3;1000.0;4;0.0;5;0.0;6;0.0;7;0.0;
RC;ROLL;1500.0;PITCH;1500.0;YAW;1500.0;THROTTLE;1500.0;AUX1;1500.0;AUX2;1500.0;AUX3;1500.0;AUX4;1500.0
ALTITUDE;0.0
DEBUG;DEBUG10.0;DEBUG2;0.0;DEBUG3;0.0;DEBUG4;0.0
ATTITUDE;ANGX;4.0;ANGY;-2.0;HEAD;-167.0
STATUS;CYCLETIME;3000;I2CERR;0;PRESENT;23;MODE;0
RAW_IMU;AX;37.0;AY;-1.0;AZ;251.0;GX;0.0;GY;0.0;GZ;-1.0;MAGX;19.0;MAGY;-117.0;MAGZ;86.0
MOT;0;1000.0;1;1000.0;2;1000.0;3;1000.0;4;0.0;5;0.0;6;0.0;7;0.0;
RC;ROLL;1500.0;PITCH;1500.0;YAW;1500.0;THROTTLE;1500.0;AUX1;1500.0;AUX2;1500.0;AUX3;1500.0;AUX4;1500.0
ALTITUDE;0.0
DEBUG;DEBUG10.0;DEBUG2;0.0;DEBUG3;0.0;DEBUG4;0.0
ATTITUDE;ANGX;4.0;ANGY;-2.0;HEAD;-167.0
STATUS;CYCLETIME;2888;I2CERR;0;PRESENT;23;MODE;0
RAW_IMU;AX;38.0;AY;0.0;AZ;250.0;GX;-1.0;GY;0.0;GZ;-1.0;MAGX;18.0;MAGY;-117.0;MAGZ;84.0
MOT;0;1000.0;1;1000.0;2;1000.0;3;1000.0;4;0.0;5;0.0;6;0.0;7;0.0;
RC;ROLL;1500.0;PITCH;1500.0;YAW;1500.0;THROTTLE;1500.0;AUX1;1500.0;AUX2;1500.0;AUX3;1500.0;AUX4;1500.0
ALTITUDE;0.0
DEBUG;DEBUG10.0;DEBUG2;0.0;DEBUG3;0.0;DEBUG4;0.0
ATTITUDE;ANGX;4.0;ANGY;-2.0;HEAD;-167.0
STATUS;CYCLETIME;2884;I2CERR;0;PRESENT;23;MODE;0
RAW_IMU;AX;37.0;AY;3.0;AZ;252.0;GX;-1.0;GY;0.0;GZ;-1.0;MAGX;18.0;MAGY;-117.0;MAGZ;84.0
MOT;0;1000.0;1;1000.0;2;1000.0;3;1000.0;4;0.0;5;0.0;6;0.0;7;0.0;
RC;ROLL;1500.0;PITCH;1500.0;YAW;1500.0;THROTTLE;1500.0;AUX1;1500.0;AUX2;1500.0;AUX3;1500.0;AUX4;1500.0
ALTITUDE;0.0
DEBUG;DEBUG10.0;DEBUG2;0.0;DEBUG3;0.0;DEBUG4;0.0
ATTITUDE;ANGX;4.0;ANGY;-2.0;HEAD;-167.0
STATUS;CYCLETIME;2892;I2CERR;0;PRESENT;23;MODE;0
RAW_IMU;AX;37.0;AY;3.0;AZ;253.0;GX;0.0;GY;0.0;GZ;-1.0;MAGX;20.0;MAGY;-118.0;MAGZ;86.0
MOT;0;1000.0;1;1000.0;2;1000.0;3;1000.0;4;0.0;5;0.0;6;0.0;7;0.0;
RC;ROLL;1500.0;PITCH;1500.0;YAW;1500.0;THROTTLE;1500.0;AUX1;1500.0;AUX2;1500.0;AUX3;1500.0;AUX4;1500.0
ALTITUDE;0.0
DEBUG;DEBUG10.0;DEBUG2;0.0;DEBUG3;0.0;DEBUG4;0.0
ATTITUDE;ANGX;4.0;ANGY;-2.0;HEAD;-167.0
STATUS;CYCLETIME;2896;I2CERR;0;PRESENT;23;MODE;0
RAW_IMU;AX;38.0;AY;2.0;AZ;260.0;GX;-1.0;GY;0.0;GZ;-1.0;MAGX;20.0;MAGY;-118.0;MAGZ;86.0
MOT;0;1000.0;1;1000.0;2;1000.0;3;1000.0;4;0.0;5;0.0;6;0.0;7;0.0;
RC;ROLL;1500.0;PITCH;1500.0;YAW;1500.0;THROTTLE;1500.0;AUX1;1500.0;AUX2;1500.0;AUX3;1500.0;AUX4;1500.0
ALTITUDE;0.0
DEBUG;DEBUG10.0;DEBUG2;0.0;DEBUG3;0.0;DEBUG4;0.0
ATTITUDE;ANGX;4.0;ANGY;-2.0;HEAD;-167.0
STATUS;CYCLETIME;2892;I2CERR;0;PRESENT;23;MODE;0
RAW_IMU;AX;39.0;AY;1.0;AZ;259.0;GX;-1.0;GY;0.0;GZ;-1.0;MAGX;19.0;MAGY;-117.0;MAGZ;86.0
MOT;0;1000.0;1;1000.0;2;1000.0;3;1000.0;4;0.0;5;0.0;6;0.0;7;0.0;
RC;ROLL;1500.0;PITCH;1500.0;YAW;1500.0;THROTTLE;1500.0;AUX1;1500.0;AUX2;1500.0;AUX3;1500.0;AUX4;1500.0
ALTITUDE;0.0
DEBUG;DEBUG10.0;DEBUG2;0.0;DEBUG3;0.0;DEBUG4;0.0
ATTITUDE;ANGX;4.0;ANGY;-2.0;HEAD;-167.0
STATUS;CYCLETIME;2888;I2CERR;0;PRESENT;23;MODE;0
RAW_IMU;AX;39.0;AY;0.0;AZ;255.0;GX;-1.0;GY;0.0;GZ;-2.0;MAGX;19.0;MAGY;-117.0;MAGZ;86.0
MOT;0;1000.0;1;1000.0;2;1000.0;3;1000.0;4;0.0;5;0.0;6;0.0;7;0.0;
RC;ROLL;1500.0;PITCH;1500.0;YAW;1500.0;THROTTLE;1500.0;AUX1;1500.0;AUX2;1500.0;AUX3;1500.0;AUX4;1500.0
ALTITUDE;0.0
DEBUG;DEBUG10.0;DEBUG2;0.0;DEBUG3;0.0;DEBUG4;0.0
ATTITUDE;ANGX;4.0;ANGY;-2.0;HEAD;-167.0
STATUS;CYCLETIME;2888;I2CERR;0;PRESENT;23;MODE;0
RAW_IMU;AX;36.0;AY;0.0;AZ;254.0;GX;0.0;GY;0.0;GZ;-1.0;MAGX;18.0;MAGY;-117.0;MAGZ;85.0
MOT;0;1000.0;1;1000.0;2;1000.0;3;1000.0;4;0.0;5;0.0;6;0.0;7;0.0;
RC;ROLL;1500.0;PITCH;1500.0;YAW;1500.0;THROTTLE;1500.0;AUX1;1500.0;AUX2;1500.0;AUX3;1500.0;AUX4;1500.0
ALTITUDE;0.0
DEBUG;DEBUG10.0;DEBUG2;0.0;DEBUG3;0.0;DEBUG4;0.0
ATTITUDE;ANGX;4.0;ANGY;-2.0;HEAD;-167.0
STATUS;CYCLETIME;2992;I2CERR;0;PRESENT;23;MODE;0
RAW_IMU;AX;36.0;AY;0.0;AZ;249.0;GX;0.0;GY;0.0;GZ;-1.0;MAGX;18.0;MAGY;-117.0;MAGZ;85.0
MOT;0;1000.0;1;1000.0;2;1000.0;3;1000.0;4;0.0;5;0.0;6;0.0;7;0.0;
RC;ROLL;1500.0;PITCH;1500.0;YAW;1500.0;THROTTLE;1500.0;AUX1;1500.0;AUX2;1500.0;AUX3;1500.0;AUX4;1500.0
ALTITUDE;0.0
DEBUG;DEBUG10.0;DEBUG2;0.0;DEBUG3;0.0;DEBUG4;0.0
ATTITUDE;ANGX;4.0;ANGY;-2.0;HEAD;-167.0
STATUS;CYCLETIME;3188;I2CERR;0;PRESENT;23;MODE;0
RAW_IMU;AX;39.0;AY;1.0;AZ;248.0;GX;-1.0;GY;0.0;GZ;-1.0;MAGX;19.0;MAGY;-118.0;MAGZ;86.0
MOT;0;1000.0;1;1000.0;2;1000.0;3;1000.0;4;0.0;5;0.0;6;0.0;7;0.0;
RC;ROLL;1500.0;PITCH;1500.0;YAW;1500.0;THROTTLE;1500.0;AUX1;1500.0;AUX2;1500.0;AUX3;1500.0;AUX4;1500.0
ALTITUDE;0.0
DEBUG;DEBUG10.0;DEBUG2;0.0;DEBUG3;0.0;DEBUG4;0.0
ATTITUDE;ANGX;4.0;ANGY;-2.0;HEAD;-167.0
STATUS;CYCLETIME;2992;I2CERR;0;PRESENT;23;MODE;0
RAW_IMU;AX;40.0;AY;1.0;AZ;255.0;GX;-1.0;GY;0.0;GZ;-1.0;MAGX;19.0;MAGY;-118.0;MAGZ;86.0
MOT;0;1000.0;1;1000.0;2;1000.0;3;1000.0;4;0.0;5;0.0;6;0.0;7;0.0;
RC;ROLL;1500.0;PITCH;1500.0;YAW;1500.0;THROTTLE;1500.0;AUX1;1500.0;AUX2;1500.0;AUX3;1500.0;AUX4;1500.0
ALTITUDE;0.0
DEBUG;DEBUG10.0;DEBUG2;0.0;DEBUG3;0.0;DEBUG4;0.0
ATTITUDE;ANGX;4.0;ANGY;-2.0;HEAD;-167.0
STATUS;CYCLETIME;2908;I2CERR;0;PRESENT;23;MODE;0
RAW_IMU;AX;37.0;AY;1.0;AZ;257.0;GX;-1.0;GY;0.0;GZ;-1.0;MAGX;19.0;MAGY;-118.0;MAGZ;86.0
MOT;0;1000.0;1;1000.0;2;1000.0;3;1000.0;4;0.0;5;0.0;6;0.0;7;0.0;
RC;ROLL;1500.0;PITCH;1500.0;YAW;1500.0;THROTTLE;1500.0;AUX1;1500.0;AUX2;1500.0;AUX3;1500.0;AUX4;1500.0
ALTITUDE;0.0
DEBUG;DEBUG10.0;DEBUG2;0.0;DEBUG3;0.0;DEBUG4;0.0
ATTITUDE;ANGX;4.0;ANGY;-2.0;HEAD;-167.0
STATUS;CYCLETIME;2904;I2CERR;0;PRESENT;23;MODE;0
RAW_IMU;AX;36.0;AY;1.0;AZ;254.0;GX;-1.0;GY;0.0;GZ;-1.0;MAGX;18.0;MAGY;-117.0;MAGZ;86.0
MOT;0;1000.0;1;1000.0;2;1000.0;3;1000.0;4;0.0;5;0.0;6;0.0;7;0.0;
RC;ROLL;1500.0;PITCH;1500.0;YAW;1500.0;THROTTLE;1500.0;AUX1;1500.0;AUX2;1500.0;AUX3;1500.0;AUX4;1500.0
ALTITUDE;0.0
DEBUG;DEBUG10.0;DEBUG2;0.0;DEBUG3;0.0;DEBUG4;0.0
ATTITUDE;ANGX;4.0;ANGY;-2.0;HEAD;-167.0
STATUS;CYCLETIME;2892;I2CERR;0;PRESENT;23;MODE;0
RAW_IMU;AX;39.0;AY;1.0;AZ;253.0;GX;0.0;GY;0.0;GZ;-1.0;MAGX;18.0;MAGY;-117.0;MAGZ;86.0
MOT;0;1000.0;1;1000.0;2;1000.0;3;1000.0;4;0.0;5;0.0;6;0.0;7;0.0;
RC;ROLL;1500.0;PITCH;1500.0;YAW;1500.0;THROTTLE;1500.0;AUX1;1500.0;AUX2;1500.0;AUX3;1500.0;AUX4;1500.0
ALTITUDE;0.0
DEBUG;DEBUG10.0;DEBUG2;0.0;DEBUG3;0.0;DEBUG4;0.0
ATTITUDE;ANGX;4.0;ANGY;-2.0;HEAD;-167.0
STATUS;CYCLETIME;2904;I2CERR;0;PRESENT;23;MODE;0
RAW_IMU;AX;39.0;AY;0.0;AZ;253.0;GX;-1.0;GY;0.0;GZ;-1.0;MAGX;19.0;MAGY;-117.0;MAGZ;85.0
MOT;0;1000.0;1;1000.0;2;1000.0;3;1000.0;4;0.0;5;0.0;6;0.0;7;0.0;
RC;ROLL;1500.0;PITCH;1500.0;YAW;1500.0;THROTTLE;1500.0;AUX1;1500.0;AUX2;1500.0;AUX3;1500.0;AUX4;1500.0
ALTITUDE;0.0
DEBUG;DEBUG10.0;DEBUG2;0.0;DEBUG3;0.0;DEBUG4;0.0
ATTITUDE;ANGX;4.0;ANGY;-2.0;HEAD;-167.0
STATUS;CYCLETIME;2900;I2CERR;0;PRESENT;23;MODE;0
RAW_IMU;AX;38.0;AY;-1.0;AZ;254.0;GX;-1.0;GY;-1.0;GZ;-1.0;MAGX;19.0;MAGY;-117.0;MAGZ;85.0
MOT;0;1000.0;1;1000.0;2;1000.0;3;1000.0;4;0.0;5;0.0;6;0.0;7;0.0;
RC;ROLL;1500.0;PITCH;1500.0;YAW;1500.0;THROTTLE;1500.0;AUX1;1500.0;AUX2;1500.0;AUX3;1500.0;AUX4;1500.0
ALTITUDE;0.0
DEBUG;DEBUG10.0;DEBUG2;0.0;DEBUG3;0.0;DEBUG4;0.0
ATTITUDE;ANGX;4.0;ANGY;-2.0;HEAD;-167.0
STATUS;CYCLETIME;3012;I2CERR;0;PRESENT;23;MODE;0
RAW_IMU;AX;39.0;AY;1.0;AZ;251.0;GX;0.0;GY;0.0;GZ;-1.0;MAGX;19.0;MAGY;-118.0;MAGZ;85.0
MOT;0;1000.0;1;1000.0;2;1000.0;3;1000.0;4;0.0;5;0.0;6;0.0;7;0.0;
RC;ROLL;1500.0;PITCH;1500.0;YAW;1500.0;THROTTLE;1500.0;AUX1;1500.0;AUX2;1500.0;AUX3;1500.0;AUX4;1500.0
ALTITUDE;0.0
DEBUG;DEBUG10.0;DEBUG2;0.0;DEBUG3;0.0;DEBUG4;0.0
ATTITUDE;ANGX;4.0;ANGY;-2.0;HEAD;-167.0
STATUS;CYCLETIME;2900;I2CERR;0;PRESENT;23;MODE;0
RAW_IMU;AX;38.0;AY;0.0;AZ;250.0;GX;0.0;GY;0.0;GZ;-1.0;MAGX;19.0;MAGY;-118.0;MAGZ;85.0
MOT;0;1000.0;1;1000.0;2;1000.0;3;1000.0;4;0.0;5;0.0;6;0.0;7;0.0;
RC;ROLL;1500.0;PITCH;1500.0;YAW;1500.0;THROTTLE;1500.0;AUX1;1500.0;AUX2;1500.0;AUX3;1500.0;AUX4;1500.0
ALTITUDE;0.0
DEBUG;DEBUG10.0;DEBUG2;0.0;DEBUG3;0.0;DEBUG4;0.0
ATTITUDE;ANGX;4.0;ANGY;-2.0;HEAD;-167.0
STATUS;CYCLETIME;2892;I2CERR;0;PRESENT;23;MODE;0
RAW_IMU;AX;39.0;AY;0.0;AZ;252.0;GX;0.0;GY;0.0;GZ;-1.0;MAGX;19.0;MAGY;-117.0;MAGZ;86.0
MOT;0;1000.0;1;1000.0;2;1000.0;3;1000.0;4;0.0;5;0.0;6;0.0;7;0.0;
RC;ROLL;1500.0;PITCH;1500.0;YAW;1500.0;THROTTLE;1500.0;AUX1;1500.0;AUX2;1500.0;AUX3;1500.0;AUX4;1500.0
ALTITUDE;0.0
DEBUG;DEBUG10.0;DEBUG2;0.0;DEBUG3;0.0;DEBUG4;0.0
ATTITUDE;ANGX;4.0;ANGY;-2.0;HEAD;-167.0
STATUS;CYCLETIME;2888;I2CERR;0;PRESENT;23;MODE;0
RAW_IMU;AX;37.0;AY;1.0;AZ;254.0;GX;0.0;GY;0.0;GZ;-1.0;MAGX;19.0;MAGY;-117.0;MAGZ;86.0
MOT;0;1000.0;1;1000.0;2;1000.0;3;1000.0;4;0.0;5;0.0;6;0.0;7;0.0;
RC;ROLL;1500.0;PITCH;1500.0;YAW;1500.0;THROTTLE;1500.0;AUX1;1500.0;AUX2;1500.0;AUX3;1500.0;AUX4;1500.0
ALTITUDE;0.0
DEBUG;DEBUG10.0;DEBUG2;0.0;DEBUG3;0.0;DEBUG4;0.0
ATTITUDE;ANGX;4.0;ANGY;-2.0;HEAD;-167.0
STATUS;CYCLETIME;2880;I2CERR;0;PRESENT;23;MODE;0
RAW_IMU;AX;39.0;AY;0.0;AZ;253.0;GX;0.0;GY;0.0;GZ;-1.0;MAGX;18.0;MAGY;-118.0;MAGZ;86.0
MOT;0;1000.0;1;1000.0;2;1000.0;3;1000.0;4;0.0;5;0.0;6;0.0;7;0.0;
RC;ROLL;1500.0;PITCH;1500.0;YAW;1500.0;THROTTLE;1500.0;AUX1;1500.0;AUX2;1500.0;AUX3;1500.0;AUX4;1500.0
ALTITUDE;0.0
DEBUG;DEBUG10.0;DEBUG2;0.0;DEBUG3;0.0;DEBUG4;0.0
ATTITUDE;ANGX;4.0;ANGY;-2.0;HEAD;-167.0
STATUS;CYCLETIME;3012;I2CERR;0;PRESENT;23;MODE;0
RAW_IMU;AX;40.0;AY;1.0;AZ;251.0;GX;0.0;GY;0.0;GZ;-1.0;MAGX;18.0;MAGY;-118.0;MAGZ;86.0
MOT;0;1000.0;1;1000.0;2;1000.0;3;1000.0;4;0.0;5;0.0;6;0.0;7;0.0;
RC;ROLL;1500.0;PITCH;1500.0;YAW;1500.0;THROTTLE;1500.0;AUX1;1500.0;AUX2;1500.0;AUX3;1500.0;AUX4;1500.0
ALTITUDE;0.0
DEBUG;DEBUG10.0;DEBUG2;0.0;DEBUG3;0.0;DEBUG4;0.0
ATTITUDE;ANGX;4.0;ANGY;-2.0;HEAD;-167.0
STATUS;CYCLETIME;2888;I2CERR;0;PRESENT;23;MODE;0
RAW_IMU;AX;39.0;AY;1.0;AZ;253.0;GX;0.0;GY;0.0;GZ;-1.0;MAGX;18.0;MAGY;-117.0;MAGZ;86.0
MOT;0;1000.0;1;1000.0;2;1000.0;3;1000.0;4;0.0;5;0.0;6;0.0;7;0.0;
RC;ROLL;1500.0;PITCH;1500.0;YAW;1500.0;THROTTLE;1500.0;AUX1;1500.0;AUX2;1500.0;AUX3;1500.0;AUX4;1500.0
ALTITUDE;0.0
DEBUG;DEBUG10.0;DEBUG2;0.0;DEBUG3;0.0;DEBUG4;0.0
ATTITUDE;ANGX;4.0;ANGY;-2.0;HEAD;-167.0
STATUS;CYCLETIME;2888;I2CERR;0;PRESENT;23;MODE;0
RAW_IMU;AX;36.0;AY;0.0;AZ;254.0;GX;-1.0;GY;0.0;GZ;-1.0;MAGX;18.0;MAGY;-117.0;MAGZ;86.0
MOT;0;1000.0;1;1000.0;2;1000.0;3;1000.0;4;0.0;5;0.0;6;0.0;7;0.0;
RC;ROLL;1500.0;PITCH;1500.0;YAW;1500.0;THROTTLE;1500.0;AUX1;1500.0;AUX2;1500.0;AUX3;1500.0;AUX4;1500.0
ALTITUDE;0.0
DEBUG;DEBUG10.0;DEBUG2;0.0;DEBUG3;0.0;DEBUG4;0.0
ATTITUDE;ANGX;4.0;ANGY;-2.0;HEAD;-167.0
STATUS;CYCLETIME;3004;I2CERR;0;PRESENT;23;MODE;0
RAW_IMU;AX;35.0;AY;1.0;AZ;254.0;GX;0.0;GY;0.0;GZ;-1.0;MAGX;18.0;MAGY;-117.0;MAGZ;86.0
MOT;0;1000.0;1;1000.0;2;1000.0;3;1000.0;4;0.0;5;0.0;6;0.0;7;0.0;
RC;ROLL;1500.0;PITCH;1500.0;YAW;1500.0;THROTTLE;1500.0;AUX1;1500.0;AUX2;1500.0;AUX3;1500.0;AUX4;1500.0
ALTITUDE;0.0
DEBUG;DEBUG10.0;DEBUG2;0.0;DEBUG3;0.0;DEBUG4;0.0
ATTITUDE;ANGX;4.0;ANGY;-2.0;HEAD;-167.0
STATUS;CYCLETIME;2896;I2CERR;0;PRESENT;23;MODE;0
RAW_IMU;AX;35.0;AY;-1.0;AZ;255.0;GX;0.0;GY;0.0;GZ;-1.0;MAGX;19.0;MAGY;-118.0;MAGZ;86.0
MOT;0;1000.0;1;1000.0;2;1000.0;3;1000.0;4;0.0;5;0.0;6;0.0;7;0.0;
RC;ROLL;1500.0;PITCH;1500.0;YAW;1500.0;THROTTLE;1500.0;AUX1;1500.0;AUX2;1500.0;AUX3;1500.0;AUX4;1500.0
ALTITUDE;0.0
DEBUG;DEBUG10.0;DEBUG2;0.0;DEBUG3;0.0;DEBUG4;0.0
ATTITUDE;ANGX;4.0;ANGY;-2.0;HEAD;-167.0
STATUS;CYCLETIME;2896;I2CERR;0;PRESENT;23;MODE;0
RAW_IMU;AX;36.0;AY;1.0;AZ;252.0;GX;-1.0;GY;0.0;GZ;-1.0;MAGX;19.0;MAGY;-118.0;MAGZ;86.0
MOT;0;1000.0;1;1000.0;2;1000.0;3;1000.0;4;0.0;5;0.0;6;0.0;7;0.0;
RC;ROLL;1500.0;PITCH;1500.0;YAW;1500.0;THROTTLE;1500.0;AUX1;1500.0;AUX2;1500.0;AUX3;1500.0;AUX4;1500.0
ALTITUDE;0.0
DEBUG;DEBUG10.0;DEBUG2;0.0;DEBUG3;0.0;DEBUG4;0.0
ATTITUDE;ANGX;4.0;ANGY;-2.0;HEAD;-167.0
STATUS;CYCLETIME;2888;I2CERR;0;PRESENT;23;MODE;0
RAW_IMU;AX;38.0;AY;0.0;AZ;255.0;GX;0.0;GY;0.0;GZ;-1.0;MAGX;19.0;MAGY;-118.0;MAGZ;86.0
MOT;0;1000.0;1;1000.0;2;1000.0;3;1000.0;4;0.0;5;0.0;6;0.0;7;0.0;
RC;ROLL;1500.0;PITCH;1500.0;YAW;1500.0;THROTTLE;1500.0;AUX1;1500.0;AUX2;1500.0;AUX3;1500.0;AUX4;1500.0
ALTITUDE;0.0
DEBUG;DEBUG10.0;DEBUG2;0.0;DEBUG3;0.0;DEBUG4;0.0
ATTITUDE;ANGX;4.0;ANGY;-2.0;HEAD;-167.0
STATUS;CYCLETIME;2896;I2CERR;0;PRESENT;23;MODE;0
RAW_IMU;AX;36.0;AY;0.0;AZ;253.0;GX;0.0;GY;0.0;GZ;-1.0;MAGX;19.0;MAGY;-118.0;MAGZ;86.0
MOT;0;1000.0;1;1000.0;2;1000.0;3;1000.0;4;0.0;5;0.0;6;0.0;7;0.0;
RC;ROLL;1500.0;PITCH;1500.0;YAW;1500.0;THROTTLE;1500.0;AUX1;1500.0;AUX2;1500.0;AUX3;1500.0;AUX4;1500.0
ALTITUDE;0.0
DEBUG;DEBUG10.0;DEBUG2;0.0;DEBUG3;0.0;DEBUG4;0.0
ATTITUDE;ANGX;4.0;ANGY;-2.0;HEAD;-167.0
STATUS;CYCLETIME;2892;I2CERR;0;PRESENT;23;MODE;0
RAW_IMU;AX;38.0;AY;-1.0;AZ;253.0;GX;0.0;GY;0.0;GZ;-1.0;MAGX;18.0;MAGY;-119.0;MAGZ;86.0
MOT;0;1000.0;1;1000.0;2;1000.0;3;1000.0;4;0.0;5;0.0;6;0.0;7;0.0;
RC;ROLL;1500.0;PITCH;1500.0;YAW;1500.0;THROTTLE;1500.0;AUX1;1500.0;AUX2;1500.0;AUX3;1500.0;AUX4;1500.0
ALTITUDE;0.0
DEBUG;DEBUG10.0;DEBUG2;0.0;DEBUG3;0.0;DEBUG4;0.0
ATTITUDE;ANGX;4.0;ANGY;-2.0;HEAD;-167.0
STATUS;CYCLETIME;2880;I2CERR;0;PRESENT;23;MODE;0
RAW_IMU;AX;36.0;AY;0.0;AZ;254.0;GX;0.0;GY;0.0;GZ;-1.0;MAGX;18.0;MAGY;-119.0;MAGZ;86.0
MOT;0;1000.0;1;1000.0;2;1000.0;3;1000.0;4;0.0;5;0.0;6;0.0;7;0.0;
RC;ROLL;1500.0;PITCH;1500.0;YAW;1500.0;THROTTLE;1500.0;AUX1;1500.0;AUX2;1500.0;AUX3;1500.0;AUX4;1500.0
ALTITUDE;0.0
DEBUG;DEBUG10.0;DEBUG2;0.0;DEBUG3;0.0;DEBUG4;0.0
ATTITUDE;ANGX;4.0;ANGY;-2.0;HEAD;-167.0
STATUS;CYCLETIME;2904;I2CERR;0;PRESENT;23;MODE;0
RAW_IMU;AX;37.0;AY;1.0;AZ;254.0;GX;0.0;GY;0.0;GZ;-1.0;MAGX;19.0;MAGY;-117.0;MAGZ;86.0
MOT;0;1000.0;1;1000.0;2;1000.0;3;1000.0;4;0.0;5;0.0;6;0.0;7;0.0;
RC;ROLL;1500.0;PITCH;1500.0;YAW;1500.0;THROTTLE;1500.0;AUX1;1500.0;AUX2;1500.0;AUX3;1500.0;AUX4;1500.0
ALTITUDE;0.0
DEBUG;DEBUG10.0;DEBUG2;0.0;DEBUG3;0.0;DEBUG4;0.0
ATTITUDE;ANGX;4.0;ANGY;-2.0;HEAD;-167.0
STATUS;CYCLETIME;3004;I2CERR;0;PRESENT;23;MODE;0
RAW_IMU;AX;37.0;AY;1.0;AZ;255.0;GX;0.0;GY;0.0;GZ;-1.0;MAGX;19.0;MAGY;-117.0;MAGZ;86.0
MOT;0;1000.0;1;1000.0;2;1000.0;3;1000.0;4;0.0;5;0.0;6;0.0;7;0.0;
RC;ROLL;1500.0;PITCH;1500.0;YAW;1500.0;THROTTLE;1500.0;AUX1;1500.0;AUX2;1500.0;AUX3;1500.0;AUX4;1500.0
ALTITUDE;0.0
DEBUG;DEBUG10.0;DEBUG2;0.0;DEBUG3;0.0;DEBUG4;0.0
ATTITUDE;ANGX;4.0;ANGY;-2.0;HEAD;-167.0
STATUS;CYCLETIME;2888;I2CERR;0;PRESENT;23;MODE;0
RAW_IMU;AX;38.0;AY;0.0;AZ;256.0;GX;-1.0;GY;0.0;GZ;-1.0;MAGX;19.0;MAGY;-118.0;MAGZ;86.0
MOT;0;1000.0;1;1000.0;2;1000.0;3;1000.0;4;0.0;5;0.0;6;0.0;7;0.0;
RC;ROLL;1500.0;PITCH;1500.0;YAW;1500.0;THROTTLE;1500.0;AUX1;1500.0;AUX2;1500.0;AUX3;1500.0;AUX4;1500.0
ALTITUDE;0.0
DEBUG;DEBUG10.0;DEBUG2;0.0;DEBUG3;0.0;DEBUG4;0.0
ATTITUDE;ANGX;4.0;ANGY;-2.0;HEAD;-167.0
STATUS;CYCLETIME;2908;I2CERR;0;PRESENT;23;MODE;0
RAW_IMU;AX;38.0;AY;-1.0;AZ;253.0;GX;0.0;GY;0.0;GZ;-1.0;MAGX;19.0;MAGY;-118.0;MAGZ;86.0
MOT;0;1000.0;1;1000.0;2;1000.0;3;1000.0;4;0.0;5;0.0;6;0.0;7;0.0;
RC;ROLL;1500.0;PITCH;1500.0;YAW;1500.0;THROTTLE;1500.0;AUX1;1500.0;AUX2;1500.0;AUX3;1500.0;AUX4;1500.0
ALTITUDE;0.0
DEBUG;DEBUG10.0;DEBUG2;0.0;DEBUG3;0.0;DEBUG4;0.0
ATTITUDE;ANGX;4.0;ANGY;-2.0;HEAD;-167.0
STATUS;CYCLETIME;2900;I2CERR;0;PRESENT;23;MODE;0
RAW_IMU;AX;37.0;AY;2.0;AZ;254.0;GX;0.0;GY;0.0;GZ;-1.0;MAGX;19.0;MAGY;-118.0;MAGZ;86.0
MOT;0;1000.0;1;1000.0;2;1000.0;3;1000.0;4;0.0;5;0.0;6;0.0;7;0.0;
RC;ROLL;1500.0;PITCH;1500.0;YAW;1500.0;THROTTLE;1500.0;AUX1;1500.0;AUX2;1500.0;AUX3;1500.0;AUX4;1500.0
ALTITUDE;0.0
DEBUG;DEBUG10.0;DEBUG2;0.0;DEBUG3;0.0;DEBUG4;0.0
ATTITUDE;ANGX;4.0;ANGY;-2.0;HEAD;-167.0
STATUS;CYCLETIME;2896;I2CERR;0;PRESENT;23;MODE;0
RAW_IMU;AX;38.0;AY;2.0;AZ;255.0;GX;0.0;GY;0.0;GZ;-1.0;MAGX;18.0;MAGY;-118.0;MAGZ;85.0
MOT;0;1000.0;1;1000.0;2;1000.0;3;1000.0;4;0.0;5;0.0;6;0.0;7;0.0;
RC;ROLL;1500.0;PITCH;1500.0;YAW;1500.0;THROTTLE;1500.0;AUX1;1500.0;AUX2;1500.0;AUX3;1500.0;AUX4;1500.0
ALTITUDE;0.0
DEBUG;DEBUG10.0;DEBUG2;0.0;DEBUG3;0.0;DEBUG4;0.0
ATTITUDE;ANGX;4.0;ANGY;-2.0;HEAD;-167.0
STATUS;CYCLETIME;2892;I2CERR;0;PRESENT;23;MODE;0
RAW_IMU;AX;37.0;AY;-1.0;AZ;254.0;GX;0.0;GY;0.0;GZ;-1.0;MAGX;18.0;MAGY;-118.0;MAGZ;85.0
MOT;0;1000.0;1;1000.0;2;1000.0;3;1000.0;4;0.0;5;0.0;6;0.0;7;0.0;
RC;ROLL;1500.0;PITCH;1500.0;YAW;1500.0;THROTTLE;1500.0;AUX1;1500.0;AUX2;1500.0;AUX3;1500.0;AUX4;1500.0
ALTITUDE;0.0
DEBUG;DEBUG10.0;DEBUG2;0.0;DEBUG3;0.0;DEBUG4;0.0
ATTITUDE;ANGX;4.0;ANGY;-2.0;HEAD;-167.0
STATUS;CYCLETIME;2904;I2CERR;0;PRESENT;23;MODE;0
RAW_IMU;AX;36.0;AY;-1.0;AZ;254.0;GX;-1.0;GY;0.0;GZ;-1.0;MAGX;18.0;MAGY;-119.0;MAGZ;85.0
MOT;0;1000.0;1;1000.0;2;1000.0;3;1000.0;4;0.0;5;0.0;6;0.0;7;0.0;
RC;ROLL;1500.0;PITCH;1500.0;YAW;1500.0;THROTTLE;1500.0;AUX1;1500.0;AUX2;1500.0;AUX3;1500.0;AUX4;1500.0
ALTITUDE;0.0
DEBUG;DEBUG10.0;DEBUG2;0.0;DEBUG3;0.0;DEBUG4;0.0
ATTITUDE;ANGX;4.0;ANGY;-2.0;HEAD;-167.0
STATUS;CYCLETIME;2920;I2CERR;0;PRESENT;23;MODE;0
RAW_IMU;AX;41.0;AY;2.0;AZ;253.0;GX;0.0;GY;0.0;GZ;-1.0;MAGX;18.0;MAGY;-119.0;MAGZ;85.0
MOT;0;1000.0;1;1000.0;2;1000.0;3;1000.0;4;0.0;5;0.0;6;0.0;7;0.0;
RC;ROLL;1500.0;PITCH;1500.0;YAW;1500.0;THROTTLE;1500.0;AUX1;1500.0;AUX2;1500.0;AUX3;1500.0;AUX4;1500.0
ALTITUDE;0.0
DEBUG;DEBUG10.0;DEBUG2;0.0;DEBUG3;0.0;DEBUG4;0.0
ATTITUDE;ANGX;4.0;ANGY;-2.0;HEAD;-167.0
STATUS;CYCLETIME;3016;I2CERR;0;PRESENT;23;MODE;0
RAW_IMU;AX;40.0;AY;0.0;AZ;252.0;GX;0.0;GY;0.0;GZ;-1.0;MAGX;19.0;MAGY;-118.0;MAGZ;86.0
MOT;0;1000.0;1;1000.0;2;1000.0;3;1000.0;4;0.0;5;0.0;6;0.0;7;0.0;
RC;ROLL;1500.0;PITCH;1500.0;YAW;1500.0;THROTTLE;1500.0;AUX1;1500.0;AUX2;1500.0;AUX3;1500.0;AUX4;1500.0
ALTITUDE;0.0
DEBUG;DEBUG10.0;DEBUG2;0.0;DEBUG3;0.0;DEBUG4;0.0
ATTITUDE;ANGX;4.0;ANGY;-2.0;HEAD;-167.0
STATUS;CYCLETIME;2892;I2CERR;0;PRESENT;23;MODE;0
RAW_IMU;AX;38.0;AY;0.0;AZ;252.0;GX;0.0;GY;0.0;GZ;-1.0;MAGX;19.0;MAGY;-118.0;MAGZ;86.0
MOT;0;1000.0;1;1000.0;2;1000.0;3;1000.0;4;0.0;5;0.0;6;0.0;7;0.0;
RC;ROLL;1500.0;PITCH;1500.0;YAW;1500.0;THROTTLE;1500.0;AUX1;1500.0;AUX2;1500.0;AUX3;1500.0;AUX4;1500.0
ALTITUDE;0.0
DEBUG;DEBUG10.0;DEBUG2;0.0;DEBUG3;0.0;DEBUG4;0.0
ATTITUDE;ANGX;4.0;ANGY;-2.0;HEAD;-167.0
STATUS;CYCLETIME;2892;I2CERR;0;PRESENT;23;MODE;0
RAW_IMU;AX;38.0;AY;0.0;AZ;252.0;GX;-1.0;GY;0.0;GZ;-2.0;MAGX;19.0;MAGY;-119.0;MAGZ;85.0
MOT;0;1000.0;1;1000.0;2;1000.0;3;1000.0;4;0.0;5;0.0;6;0.0;7;0.0;
RC;ROLL;1500.0;PITCH;1500.0;YAW;1500.0;THROTTLE;1500.0;AUX1;1500.0;AUX2;1500.0;AUX3;1500.0;AUX4;1500.0
ALTITUDE;0.0
DEBUG;DEBUG10.0;DEBUG2;0.0;DEBUG3;0.0;DEBUG4;0.0
ATTITUDE;ANGX;4.0;ANGY;-2.0;HEAD;-167.0
STATUS;CYCLETIME;2896;I2CERR;0;PRESENT;23;MODE;0
RAW_IMU;AX;37.0;AY;-2.0;AZ;252.0;GX;0.0;GY;0.0;GZ;-1.0;MAGX;19.0;MAGY;-119.0;MAGZ;85.0
MOT;0;1000.0;1;1000.0;2;1000.0;3;1000.0;4;0.0;5;0.0;6;0.0;7;0.0;
RC;ROLL;1500.0;PITCH;1500.0;YAW;1500.0;THROTTLE;1500.0;AUX1;1500.0;AUX2;1500.0;AUX3;1500.0;AUX4;1500.0
ALTITUDE;0.0
DEBUG;DEBUG10.0;DEBUG2;0.0;DEBUG3;0.0;DEBUG4;0.0
ATTITUDE;ANGX;4.0;ANGY;-2.0;HEAD;-167.0
STATUS;CYCLETIME;2900;I2CERR;0;PRESENT;23;MODE;0
RAW_IMU;AX;38.0;AY;-1.0;AZ;252.0;GX;0.0;GY;0.0;GZ;-1.0;MAGX;18.0;MAGY;-118.0;MAGZ;85.0
MOT;0;1000.0;1;1000.0;2;1000.0;3;1000.0;4;0.0;5;0.0;6;0.0;7;0.0;
RC;ROLL;1500.0;PITCH;1500.0;YAW;1500.0;THROTTLE;1500.0;AUX1;1500.0;AUX2;1500.0;AUX3;1500.0;AUX4;1500.0
ALTITUDE;0.0
DEBUG;DEBUG10.0;DEBUG2;0.0;DEBUG3;0.0;DEBUG4;0.0
ATTITUDE;ANGX;4.0;ANGY;-2.0;HEAD;-167.0
STATUS;CYCLETIME;2896;I2CERR;0;PRESENT;23;MODE;0
RAW_IMU;AX;38.0;AY;-1.0;AZ;252.0;GX;-1.0;GY;0.0;GZ;-1.0;MAGX;18.0;MAGY;-118.0;MAGZ;85.0
MOT;0;1000.0;1;1000.0;2;1000.0;3;1000.0;4;0.0;5;0.0;6;0.0;7;0.0;
RC;ROLL;1500.0;PITCH;1500.0;YAW;1500.0;THROTTLE;1500.0;AUX1;1500.0;AUX2;1500.0;AUX3;1500.0;AUX4;1500.0
ALTITUDE;0.0
DEBUG;DEBUG10.0;DEBUG2;0.0;DEBUG3;0.0;DEBUG4;0.0
ATTITUDE;ANGX;4.0;ANGY;-2.0;HEAD;-167.0
STATUS;CYCLETIME;2888;I2CERR;0;PRESENT;23;MODE;0
RAW_IMU;AX;37.0;AY;1.0;AZ;252.0;GX;0.0;GY;0.0;GZ;-1.0;MAGX;18.0;MAGY;-118.0;MAGZ;85.0
MOT;0;1000.0;1;1000.0;2;1000.0;3;1000.0;4;0.0;5;0.0;6;0.0;7;0.0;
RC;ROLL;1500.0;PITCH;1500.0;YAW;1500.0;THROTTLE;1500.0;AUX1;1500.0;AUX2;1500.0;AUX3;1500.0;AUX4;1500.0
ALTITUDE;0.0
DEBUG;DEBUG10.0;DEBUG2;0.0;DEBUG3;0.0;DEBUG4;0.0
ATTITUDE;ANGX;4.0;ANGY;-2.0;HEAD;-167.0
STATUS;CYCLETIME;2900;I2CERR;0;PRESENT;23;MODE;0
RAW_IMU;AX;37.0;AY;-2.0;AZ;254.0;GX;-1.0;GY;0.0;GZ;-1.0;MAGX;18.0;MAGY;-118.0;MAGZ;85.0
MOT;0;1000.0;1;1000.0;2;1000.0;3;1000.0;4;0.0;5;0.0;6;0.0;7;0.0;
RC;ROLL;1500.0;PITCH;1500.0;YAW;1500.0;THROTTLE;1500.0;AUX1;1500.0;AUX2;1500.0;AUX3;1500.0;AUX4;1500.0
ALTITUDE;0.0
DEBUG;DEBUG10.0;DEBUG2;0.0;DEBUG3;0.0;DEBUG4;0.0
ATTITUDE;ANGX;4.0;ANGY;-2.0;HEAD;-167.0
STATUS;CYCLETIME;3000;I2CERR;0;PRESENT;23;MODE;0
RAW_IMU;AX;37.0;AY;-1.0;AZ;252.0;GX;0.0;GY;0.0;GZ;-1.0;MAGX;19.0;MAGY;-118.0;MAGZ;86.0
MOT;0;1000.0;1;1000.0;2;1000.0;3;1000.0;4;0.0;5;0.0;6;0.0;7;0.0;
RC;ROLL;1500.0;PITCH;1500.0;YAW;1500.0;THROTTLE;1500.0;AUX1;1500.0;AUX2;1500.0;AUX3;1500.0;AUX4;1500.0
ALTITUDE;0.0
DEBUG;DEBUG10.0;DEBUG2;0.0;DEBUG3;0.0;DEBUG4;0.0
ATTITUDE;ANGX;4.0;ANGY;-2.0;HEAD;-167.0
STATUS;CYCLETIME;2900;I2CERR;0;PRESENT;23;MODE;0
RAW_IMU;AX;35.0;AY;-1.0;AZ;252.0;GX;-1.0;GY;0.0;GZ;-1.0;MAGX;19.0;MAGY;-118.0;MAGZ;86.0
MOT;0;1000.0;1;1000.0;2;1000.0;3;1000.0;4;0.0;5;0.0;6;0.0;7;0.0;
RC;ROLL;1500.0;PITCH;1500.0;YAW;1500.0;THROTTLE;1500.0;AUX1;1500.0;AUX2;1500.0;AUX3;1500.0;AUX4;1500.0
ALTITUDE;0.0
DEBUG;DEBUG10.0;DEBUG2;0.0;DEBUG3;0.0;DEBUG4;0.0
ATTITUDE;ANGX;4.0;ANGY;-2.0;HEAD;-167.0
STATUS;CYCLETIME;2892;I2CERR;0;PRESENT;23;MODE;0
RAW_IMU;AX;35.0;AY;-1.0;AZ;251.0;GX;0.0;GY;0.0;GZ;-1.0;MAGX;19.0;MAGY;-118.0;MAGZ;86.0
MOT;0;1000.0;1;1000.0;2;1000.0;3;1000.0;4;0.0;5;0.0;6;0.0;7;0.0;
RC;ROLL;1500.0;PITCH;1500.0;YAW;1500.0;THROTTLE;1500.0;AUX1;1500.0;AUX2;1500.0;AUX3;1500.0;AUX4;1500.0
ALTITUDE;0.0
DEBUG;DEBUG10.0;DEBUG2;0.0;DEBUG3;0.0;DEBUG4;0.0
ATTITUDE;ANGX;4.0;ANGY;-2.0;HEAD;-167.0
STATUS;CYCLETIME;2896;I2CERR;0;PRESENT;23;MODE;0
RAW_IMU;AX;38.0;AY;-1.0;AZ;253.0;GX;0.0;GY;0.0;GZ;-1.0;MAGX;20.0;MAGY;-118.0;MAGZ;86.0
MOT;0;1000.0;1;1000.0;2;1000.0;3;1000.0;4;0.0;5;0.0;6;0.0;7;0.0;
RC;ROLL;1500.0;PITCH;1500.0;YAW;1500.0;THROTTLE;1500.0;AUX1;1500.0;AUX2;1500.0;AUX3;1500.0;AUX4;1500.0
ALTITUDE;0.0
DEBUG;DEBUG10.0;DEBUG2;0.0;DEBUG3;0.0;DEBUG4;0.0
ATTITUDE;ANGX;4.0;ANGY;-2.0;HEAD;-167.0
STATUS;CYCLETIME;2912;I2CERR;0;PRESENT;23;MODE;0
RAW_IMU;AX;35.0;AY;0.0;AZ;252.0;GX;0.0;GY;0.0;GZ;-1.0;MAGX;20.0;MAGY;-118.0;MAGZ;86.0
MOT;0;1000.0;1;1000.0;2;1000.0;3;1000.0;4;0.0;5;0.0;6;0.0;7;0.0;
RC;ROLL;1500.0;PITCH;1500.0;YAW;1500.0;THROTTLE;1500.0;AUX1;1500.0;AUX2;1500.0;AUX3;1500.0;AUX4;1500.0
ALTITUDE;0.0
DEBUG;DEBUG10.0;DEBUG2;0.0;DEBUG3;0.0;DEBUG4;0.0
ATTITUDE;ANGX;4.0;ANGY;-2.0;HEAD;-167.0
STATUS;CYCLETIME;2900;I2CERR;0;PRESENT;23;MODE;0
RAW_IMU;AX;37.0;AY;-1.0;AZ;255.0;GX;-1.0;GY;0.0;GZ;-1.0;MAGX;19.0;MAGY;-119.0;MAGZ;85.0
MOT;0;1000.0;1;1000.0;2;1000.0;3;1000.0;4;0.0;5;0.0;6;0.0;7;0.0;
RC;ROLL;1500.0;PITCH;1500.0;YAW;1500.0;THROTTLE;1500.0;AUX1;1500.0;AUX2;1500.0;AUX3;1500.0;AUX4;1500.0
ALTITUDE;0.0
DEBUG;DEBUG10.0;DEBUG2;0.0;DEBUG3;0.0;DEBUG4;0.0
ATTITUDE;ANGX;4.0;ANGY;-2.0;HEAD;-167.0
STATUS;CYCLETIME;2892;I2CERR;0;PRESENT;23;MODE;0
RAW_IMU;AX;39.0;AY;-1.0;AZ;254.0;GX;0.0;GY;0.0;GZ;-1.0;MAGX;19.0;MAGY;-119.0;MAGZ;85.0
MOT;0;1000.0;1;1000.0;2;1000.0;3;1000.0;4;0.0;5;0.0;6;0.0;7;0.0;
RC;ROLL;1500.0;PITCH;1500.0;YAW;1500.0;THROTTLE;1500.0;AUX1;1500.0;AUX2;1500.0;AUX3;1500.0;AUX4;1500.0
ALTITUDE;0.0
DEBUG;DEBUG10.0;DEBUG2;0.0;DEBUG3;0.0;DEBUG4;0.0
ATTITUDE;ANGX;4.0;ANGY;-2.0;HEAD;-167.0
STATUS;CYCLETIME;2912;I2CERR;0;PRESENT;23;MODE;0
RAW_IMU;AX;36.0;AY;1.0;AZ;253.0;GX;-1.0;GY;0.0;GZ;-1.0;MAGX;19.0;MAGY;-119.0;MAGZ;86.0
MOT;0;1000.0;1;1000.0;2;1000.0;3;1000.0;4;0.0;5;0.0;6;0.0;7;0.0;
RC;ROLL;1500.0;PITCH;1500.0;YAW;1500.0;THROTTLE;1500.0;AUX1;1500.0;AUX2;1500.0;AUX3;1500.0;AUX4;1500.0
ALTITUDE;0.0
DEBUG;DEBUG10.0;DEBUG2;0.0;DEBUG3;0.0;DEBUG4;0.0
ATTITUDE;ANGX;4.0;ANGY;-2.0;HEAD;-167.0
STATUS;CYCLETIME;2896;I2CERR;0;PRESENT;23;MODE;0
RAW_IMU;AX;38.0;AY;0.0;AZ;254.0;GX;0.0;GY;0.0;GZ;-1.0;MAGX;19.0;MAGY;-119.0;MAGZ;86.0
MOT;0;1000.0;1;1000.0;2;1000.0;3;1000.0;4;0.0;5;0.0;6;0.0;7;0.0;
RC;ROLL;1500.0;PITCH;1500.0;YAW;1500.0;THROTTLE;1500.0;AUX1;1500.0;AUX2;1500.0;AUX3;1500.0;AUX4;1500.0
ALTITUDE;0.0
DEBUG;DEBUG10.0;DEBUG2;0.0;DEBUG3;0.0;DEBUG4;0.0
ATTITUDE;ANGX;4.0;ANGY;-2.0;HEAD;-167.0
STATUS;CYCLETIME;2896;I2CERR;0;PRESENT;23;MODE;0
RAW_IMU;AX;37.0;AY;0.0;AZ;256.0;GX;0.0;GY;0.0;GZ;-1.0;MAGX;19.0;MAGY;-118.0;MAGZ;86.0
MOT;0;1000.0;1;1000.0;2;1000.0;3;1000.0;4;0.0;5;0.0;6;0.0;7;0.0;
RC;ROLL;1500.0;PITCH;1500.0;YAW;1500.0;THROTTLE;1500.0;AUX1;1500.0;AUX2;1500.0;AUX3;1500.0;AUX4;1500.0
ALTITUDE;0.0
DEBUG;DEBUG10.0;DEBUG2;0.0;DEBUG3;0.0;DEBUG4;0.0
ATTITUDE;ANGX;4.0;ANGY;-2.0;HEAD;-167.0
STATUS;CYCLETIME;2912;I2CERR;0;PRESENT;23;MODE;0
RAW_IMU;AX;39.0;AY;-1.0;AZ;254.0;GX;0.0;GY;0.0;GZ;-1.0;MAGX;19.0;MAGY;-118.0;MAGZ;86.0
MOT;0;1000.0;1;1000.0;2;1000.0;3;1000.0;4;0.0;5;0.0;6;0.0;7;0.0;
RC;ROLL;1500.0;PITCH;1500.0;YAW;1500.0;THROTTLE;1500.0;AUX1;1500.0;AUX2;1500.0;AUX3;1500.0;AUX4;1500.0
ALTITUDE;0.0
DEBUG;DEBUG10.0;DEBUG2;0.0;DEBUG3;0.0;DEBUG4;0.0
ATTITUDE;ANGX;4.0;ANGY;-2.0;HEAD;-167.0
STATUS;CYCLETIME;2900;I2CERR;0;PRESENT;23;MODE;0
RAW_IMU;AX;39.0;AY;0.0;AZ;254.0;GX;0.0;GY;0.0;GZ;-1.0;MAGX;18.0;MAGY;-119.0;MAGZ;86.0
MOT;0;1000.0;1;1000.0;2;1000.0;3;1000.0;4;0.0;5;0.0;6;0.0;7;0.0;
RC;ROLL;1500.0;PITCH;1500.0;YAW;1500.0;THROTTLE;1500.0;AUX1;1500.0;AUX2;1500.0;AUX3;1500.0;AUX4;1500.0
ALTITUDE;0.0
DEBUG;DEBUG10.0;DEBUG2;0.0;DEBUG3;0.0;DEBUG4;0.0
ATTITUDE;ANGX;4.0;ANGY;-2.0;HEAD;-167.0
STATUS;CYCLETIME;2912;I2CERR;0;PRESENT;23;MODE;0
RAW_IMU;AX;38.0;AY;0.0;AZ;256.0;GX;0.0;GY;0.0;GZ;-1.0;MAGX;18.0;MAGY;-119.0;MAGZ;86.0
MOT;0;1000.0;1;1000.0;2;1000.0;3;1000.0;4;0.0;5;0.0;6;0.0;7;0.0;
RC;ROLL;1500.0;PITCH;1500.0;YAW;1500.0;THROTTLE;1500.0;AUX1;1500.0;AUX2;1500.0;AUX3;1500.0;AUX4;1500.0
ALTITUDE;0.0
DEBUG;DEBUG10.0;DEBUG2;0.0;DEBUG3;0.0;DEBUG4;0.0
ATTITUDE;ANGX;4.0;ANGY;-2.0;HEAD;-167.0
STATUS;CYCLETIME;3176;I2CERR;0;PRESENT;23;MODE;0
RAW_IMU;AX;39.0;AY;2.0;AZ;256.0;GX;0.0;GY;0.0;GZ;-1.0;MAGX;19.0;MAGY;-118.0;MAGZ;86.0
MOT;0;1000.0;1;1000.0;2;1000.0;3;1000.0;4;0.0;5;0.0;6;0.0;7;0.0;
RC;ROLL;1500.0;PITCH;1500.0;YAW;1500.0;THROTTLE;1500.0;AUX1;1500.0;AUX2;1500.0;AUX3;1500.0;AUX4;1500.0
ALTITUDE;0.0
DEBUG;DEBUG10.0;DEBUG2;0.0;DEBUG3;0.0;DEBUG4;0.0
ATTITUDE;ANGX;4.0;ANGY;-2.0;HEAD;-167.0
STATUS;CYCLETIME;2904;I2CERR;0;PRESENT;23;MODE;0
RAW_IMU;AX;41.0;AY;3.0;AZ;256.0;GX;-1.0;GY;0.0;GZ;-1.0;MAGX;19.0;MAGY;-118.0;MAGZ;86.0
MOT;0;1000.0;1;1000.0;2;1000.0;3;1000.0;4;0.0;5;0.0;6;0.0;7;0.0;
RC;ROLL;1500.0;PITCH;1500.0;YAW;1500.0;THROTTLE;1500.0;AUX1;1500.0;AUX2;1500.0;AUX3;1500.0;AUX4;1500.0
ALTITUDE;0.0
DEBUG;DEBUG10.0;DEBUG2;0.0;DEBUG3;0.0;DEBUG4;0.0
ATTITUDE;ANGX;4.0;ANGY;-2.0;HEAD;-167.0
STATUS;CYCLETIME;2900;I2CERR;0;PRESENT;23;MODE;0
RAW_IMU;AX;40.0;AY;3.0;AZ;255.0;GX;0.0;GY;0.0;GZ;-1.0;MAGX;19.0;MAGY;-118.0;MAGZ;86.0
MOT;0;1000.0;1;1000.0;2;1000.0;3;1000.0;4;0.0;5;0.0;6;0.0;7;0.0;
RC;ROLL;1500.0;PITCH;1500.0;YAW;1500.0;THROTTLE;1500.0;AUX1;1500.0;AUX2;1500.0;AUX3;1500.0;AUX4;1500.0
ALTITUDE;0.0
DEBUG;DEBUG10.0;DEBUG2;0.0;DEBUG3;0.0;DEBUG4;0.0
ATTITUDE;ANGX;4.0;ANGY;-2.0;HEAD;-167.0
STATUS;CYCLETIME;2996;I2CERR;0;PRESENT;23;MODE;0
RAW_IMU;AX;38.0;AY;1.0;AZ;252.0;GX;-1.0;GY;0.0;GZ;-1.0;MAGX;18.0;MAGY;-119.0;MAGZ;86.0
MOT;0;1000.0;1;1000.0;2;1000.0;3;1000.0;4;0.0;5;0.0;6;0.0;7;0.0;
RC;ROLL;1500.0;PITCH;1500.0;YAW;1500.0;THROTTLE;1500.0;AUX1;1500.0;AUX2;1500.0;AUX3;1500.0;AUX4;1500.0
ALTITUDE;0.0
DEBUG;DEBUG10.0;DEBUG2;0.0;DEBUG3;0.0;DEBUG4;0.0
ATTITUDE;ANGX;4.0;ANGY;-2.0;HEAD;-167.0
STATUS;CYCLETIME;2900;I2CERR;0;PRESENT;23;MODE;0
RAW_IMU;AX;38.0;AY;0.0;AZ;254.0;GX;0.0;GY;0.0;GZ;-1.0;MAGX;18.0;MAGY;-119.0;MAGZ;86.0
MOT;0;1000.0;1;1000.0;2;1000.0;3;1000.0;4;0.0;5;0.0;6;0.0;7;0.0;
RC;ROLL;1500.0;PITCH;1500.0;YAW;1500.0;THROTTLE;1500.0;AUX1;1500.0;AUX2;1500.0;AUX3;1500.0;AUX4;1500.0
ALTITUDE;0.0
DEBUG;DEBUG10.0;DEBUG2;0.0;DEBUG3;0.0;DEBUG4;0.0
ATTITUDE;ANGX;4.0;ANGY;-2.0;HEAD;-167.0
STATUS;CYCLETIME;2888;I2CERR;0;PRESENT;23;MODE;0
RAW_IMU;AX;38.0;AY;4.0;AZ;253.0;GX;-1.0;GY;0.0;GZ;-1.0;MAGX;18.0;MAGY;-118.0;MAGZ;85.0
MOT;0;1000.0;1;1000.0;2;1000.0;3;1000.0;4;0.0;5;0.0;6;0.0;7;0.0;
RC;ROLL;1500.0;PITCH;1500.0;YAW;1500.0;THROTTLE;1500.0;AUX1;1500.0;AUX2;1500.0;AUX3;1500.0;AUX4;1500.0
ALTITUDE;0.0
DEBUG;DEBUG10.0;DEBUG2;0.0;DEBUG3;0.0;DEBUG4;0.0
ATTITUDE;ANGX;4.0;ANGY;-2.0;HEAD;-167.0
STATUS;CYCLETIME;2888;I2CERR;0;PRESENT;23;MODE;0
RAW_IMU;AX;39.0;AY;2.0;AZ;250.0;GX;0.0;GY;0.0;GZ;-1.0;MAGX;18.0;MAGY;-118.0;MAGZ;85.0
MOT;0;1000.0;1;1000.0;2;1000.0;3;1000.0;4;0.0;5;0.0;6;0.0;7;0.0;
RC;ROLL;1500.0;PITCH;1500.0;YAW;1500.0;THROTTLE;1500.0;AUX1;1500.0;AUX2;1500.0;AUX3;1500.0;AUX4;1500.0
ALTITUDE;0.0
DEBUG;DEBUG10.0;DEBUG2;0.0;DEBUG3;0.0;DEBUG4;0.0
ATTITUDE;ANGX;4.0;ANGY;-2.0;HEAD;-167.0
STATUS;CYCLETIME;2904;I2CERR;0;PRESENT;23;MODE;0
RAW_IMU;AX;36.0;AY;1.0;AZ;252.0;GX;0.0;GY;0.0;GZ;-1.0;MAGX;19.0;MAGY;-118.0;MAGZ;86.0
MOT;0;1000.0;1;1000.0;2;1000.0;3;1000.0;4;0.0;5;0.0;6;0.0;7;0.0;
RC;ROLL;1500.0;PITCH;1500.0;YAW;1500.0;THROTTLE;1500.0;AUX1;1500.0;AUX2;1500.0;AUX3;1500.0;AUX4;1500.0
ALTITUDE;0.0
DEBUG;DEBUG10.0;DEBUG2;0.0;DEBUG3;0.0;DEBUG4;0.0
ATTITUDE;ANGX;4.0;ANGY;-2.0;HEAD;-167.0
STATUS;CYCLETIME;2900;I2CERR;0;PRESENT;23;MODE;0
RAW_IMU;AX;37.0;AY;1.0;AZ;255.0;GX;0.0;GY;0.0;GZ;-2.0;MAGX;19.0;MAGY;-118.0;MAGZ;86.0
MOT;0;1000.0;1;1000.0;2;1000.0;3;1000.0;4;0.0;5;0.0;6;0.0;7;0.0;
RC;ROLL;1500.0;PITCH;1500.0;YAW;1500.0;THROTTLE;1500.0;AUX1;1500.0;AUX2;1500.0;AUX3;1500.0;AUX4;1500.0
ALTITUDE;0.0
DEBUG;DEBUG10.0;DEBUG2;0.0;DEBUG3;0.0;DEBUG4;0.0
ATTITUDE;ANGX;4.0;ANGY;-2.0;HEAD;-167.0
STATUS;CYCLETIME;2908;I2CERR;0;PRESENT;23;MODE;0
RAW_IMU;AX;40.0;AY;1.0;AZ;252.0;GX;-1.0;GY;0.0;GZ;-1.0;MAGX;19.0;MAGY;-119.0;MAGZ;86.0
MOT;0;1000.0;1;1000.0;2;1000.0;3;1000.0;4;0.0;5;0.0;6;0.0;7;0.0;
RC;ROLL;1500.0;PITCH;1500.0;YAW;1500.0;THROTTLE;1500.0;AUX1;1500.0;AUX2;1500.0;AUX3;1500.0;AUX4;1500.0
ALTITUDE;0.0
DEBUG;DEBUG10.0;DEBUG2;0.0;DEBUG3;0.0;DEBUG4;0.0
ATTITUDE;ANGX;4.0;ANGY;-2.0;HEAD;-167.0
STATUS;CYCLETIME;2912;I2CERR;0;PRESENT;23;MODE;0
RAW_IMU;AX;40.0;AY;1.0;AZ;252.0;GX;0.0;GY;0.0;GZ;-1.0;MAGX;19.0;MAGY;-119.0;MAGZ;86.0
MOT;0;1000.0;1;1000.0;2;1000.0;3;1000.0;4;0.0;5;0.0;6;0.0;7;0.0;
RC;ROLL;1500.0;PITCH;1500.0;YAW;1500.0;THROTTLE;1500.0;AUX1;1500.0;AUX2;1500.0;AUX3;1500.0;AUX4;1500.0
ALTITUDE;0.0
DEBUG;DEBUG10.0;DEBUG2;0.0;DEBUG3;0.0;DEBUG4;0.0
ATTITUDE;ANGX;4.0;ANGY;-2.0;HEAD;-167.0
STATUS;CYCLETIME;3004;I2CERR;0;PRESENT;23;MODE;0
RAW_IMU;AX;38.0;AY;1.0;AZ;253.0;GX;0.0;GY;0.0;GZ;-1.0;MAGX;19.0;MAGY;-119.0;MAGZ;85.0
MOT;0;1000.0;1;1000.0;2;1000.0;3;1000.0;4;0.0;5;0.0;6;0.0;7;0.0;
RC;ROLL;1500.0;PITCH;1500.0;YAW;1500.0;THROTTLE;1500.0;AUX1;1500.0;AUX2;1500.0;AUX3;1500.0;AUX4;1500.0
ALTITUDE;0.0
DEBUG;DEBUG10.0;DEBUG2;0.0;DEBUG3;0.0;DEBUG4;0.0
ATTITUDE;ANGX;4.0;ANGY;-2.0;HEAD;-167.0
STATUS;CYCLETIME;2904;I2CERR;0;PRESENT;23;MODE;0
RAW_IMU;AX;36.0;AY;2.0;AZ;254.0;GX;0.0;GY;0.0;GZ;-1.0;MAGX;19.0;MAGY;-119.0;MAGZ;85.0
MOT;0;1000.0;1;1000.0;2;1000.0;3;1000.0;4;0.0;5;0.0;6;0.0;7;0.0;
RC;ROLL;1500.0;PITCH;1500.0;YAW;1500.0;THROTTLE;1500.0;AUX1;1500.0;AUX2;1500.0;AUX3;1500.0;AUX4;1500.0
ALTITUDE;0.0
DEBUG;DEBUG10.0;DEBUG2;0.0;DEBUG3;0.0;DEBUG4;0.0
ATTITUDE;ANGX;4.0;ANGY;-2.0;HEAD;-167.0
STATUS;CYCLETIME;2892;I2CERR;0;PRESENT;23;MODE;0
RAW_IMU;AX;39.0;AY;1.0;AZ;253.0;GX;-1.0;GY;0.0;GZ;-1.0;MAGX;19.0;MAGY;-119.0;MAGZ;86.0
MOT;0;1000.0;1;1000.0;2;1000.0;3;1000.0;4;0.0;5;0.0;6;0.0;7;0.0;
RC;ROLL;1500.0;PITCH;1500.0;YAW;1500.0;THROTTLE;1500.0;AUX1;1500.0;AUX2;1500.0;AUX3;1500.0;AUX4;1500.0
ALTITUDE;0.0
DEBUG;DEBUG10.0;DEBUG2;0.0;DEBUG3;0.0;DEBUG4;0.0
ATTITUDE;ANGX;4.0;ANGY;-2.0;HEAD;-167.0
STATUS;CYCLETIME;2900;I2CERR;0;PRESENT;23;MODE;0
RAW_IMU;AX;38.0;AY;2.0;AZ;253.0;GX;-1.0;GY;0.0;GZ;-1.0;MAGX;19.0;MAGY;-119.0;MAGZ;86.0
MOT;0;1000.0;1;1000.0;2;1000.0;3;1000.0;4;0.0;5;0.0;6;0.0;7;0.0;
RC;ROLL;1500.0;PITCH;1500.0;YAW;1500.0;THROTTLE;1500.0;AUX1;1500.0;AUX2;1500.0;AUX3;1500.0;AUX4;1500.0
ALTITUDE;0.0
DEBUG;DEBUG10.0;DEBUG2;0.0;DEBUG3;0.0;DEBUG4;0.0
ATTITUDE;ANGX;4.0;ANGY;-2.0;HEAD;-167.0
STATUS;CYCLETIME;2904;I2CERR;0;PRESENT;23;MODE;0
RAW_IMU;AX;36.0;AY;3.0;AZ;253.0;GX;-1.0;GY;0.0;GZ;-1.0;MAGX;19.0;MAGY;-119.0;MAGZ;86.0
MOT;0;1000.0;1;1000.0;2;1000.0;3;1000.0;4;0.0;5;0.0;6;0.0;7;0.0;
RC;ROLL;1500.0;PITCH;1500.0;YAW;1500.0;THROTTLE;1500.0;AUX1;1500.0;AUX2;1500.0;AUX3;1500.0;AUX4;1500.0
ALTITUDE;0.0
DEBUG;DEBUG10.0;DEBUG2;0.0;DEBUG3;0.0;DEBUG4;0.0
ATTITUDE;ANGX;4.0;ANGY;-2.0;HEAD;-167.0
STATUS;CYCLETIME;2888;I2CERR;0;PRESENT;23;MODE;0
RAW_IMU;AX;36.0;AY;1.0;AZ;252.0;GX;0.0;GY;0.0;GZ;-1.0;MAGX;19.0;MAGY;-118.0;MAGZ;86.0
MOT;0;1000.0;1;1000.0;2;1000.0;3;1000.0;4;0.0;5;0.0;6;0.0;7;0.0;
RC;ROLL;1500.0;PITCH;1500.0;YAW;1500.0;THROTTLE;1500.0;AUX1;1500.0;AUX2;1500.0;AUX3;1500.0;AUX4;1500.0
ALTITUDE;0.0
DEBUG;DEBUG10.0;DEBUG2;0.0;DEBUG3;0.0;DEBUG4;0.0
ATTITUDE;ANGX;4.0;ANGY;-2.0;HEAD;-167.0
STATUS;CYCLETIME;2916;I2CERR;0;PRESENT;23;MODE;0
RAW_IMU;AX;37.0;AY;1.0;AZ;256.0;GX;0.0;GY;0.0;GZ;-1.0;MAGX;19.0;MAGY;-118.0;MAGZ;86.0
MOT;0;1000.0;1;1000.0;2;1000.0;3;1000.0;4;0.0;5;0.0;6;0.0;7;0.0;
RC;ROLL;1500.0;PITCH;1500.0;YAW;1500.0;THROTTLE;1500.0;AUX1;1500.0;AUX2;1500.0;AUX3;1500.0;AUX4;1500.0
ALTITUDE;0.0
DEBUG;DEBUG10.0;DEBUG2;0.0;DEBUG3;0.0;DEBUG4;0.0
ATTITUDE;ANGX;4.0;ANGY;-2.0;HEAD;-167.0
STATUS;CYCLETIME;2888;I2CERR;0;PRESENT;23;MODE;0
RAW_IMU;AX;37.0;AY;0.0;AZ;256.0;GX;-1.0;GY;0.0;GZ;-1.0;MAGX;19.0;MAGY;-118.0;MAGZ;85.0
MOT;0;1000.0;1;1000.0;2;1000.0;3;1000.0;4;0.0;5;0.0;6;0.0;7;0.0;
RC;ROLL;1500.0;PITCH;1500.0;YAW;1500.0;THROTTLE;1500.0;AUX1;1500.0;AUX2;1500.0;AUX3;1500.0;AUX4;1500.0
ALTITUDE;0.0
DEBUG;DEBUG10.0;DEBUG2;0.0;DEBUG3;0.0;DEBUG4;0.0
ATTITUDE;ANGX;4.0;ANGY;-2.0;HEAD;-167.0
STATUS;CYCLETIME;2896;I2CERR;0;PRESENT;23;MODE;0
RAW_IMU;AX;37.0;AY;2.0;AZ;255.0;GX;0.0;GY;0.0;GZ;-1.0;MAGX;19.0;MAGY;-118.0;MAGZ;85.0
MOT;0;1000.0;1;1000.0;2;1000.0;3;1000.0;4;0.0;5;0.0;6;0.0;7;0.0;
RC;ROLL;1500.0;PITCH;1500.0;YAW;1500.0;THROTTLE;1500.0;AUX1;1500.0;AUX2;1500.0;AUX3;1500.0;AUX4;1500.0
ALTITUDE;0.0
DEBUG;DEBUG10.0;DEBUG2;0.0;DEBUG3;0.0;DEBUG4;0.0
ATTITUDE;ANGX;4.0;ANGY;-2.0;HEAD;-167.0
STATUS;CYCLETIME;2908;I2CERR;0;PRESENT;23;MODE;0
RAW_IMU;AX;35.0;AY;2.0;AZ;252.0;GX;0.0;GY;0.0;GZ;-1.0;MAGX;19.0;MAGY;-118.0;MAGZ;85.0
MOT;0;1000.0;1;1000.0;2;1000.0;3;1000.0;4;0.0;5;0.0;6;0.0;7;0.0;
RC;ROLL;1500.0;PITCH;1500.0;YAW;1500.0;THROTTLE;1500.0;AUX1;1500.0;AUX2;1500.0;AUX3;1500.0;AUX4;1500.0
ALTITUDE;0.0
DEBUG;DEBUG10.0;DEBUG2;0.0;DEBUG3;0.0;DEBUG4;0.0
ATTITUDE;ANGX;4.0;ANGY;-2.0;HEAD;-167.0
STATUS;CYCLETIME;2892;I2CERR;0;PRESENT;23;MODE;0
RAW_IMU;AX;41.0;AY;-1.0;AZ;251.0;GX;-1.0;GY;0.0;GZ;-1.0;MAGX;19.0;MAGY;-118.0;MAGZ;85.0
MOT;0;1000.0;1;1000.0;2;1000.0;3;1000.0;4;0.0;5;0.0;6;0.0;7;0.0;
RC;ROLL;1500.0;PITCH;1500.0;YAW;1500.0;THROTTLE;1500.0;AUX1;1500.0;AUX2;1500.0;AUX3;1500.0;AUX4;1500.0
ALTITUDE;0.0
DEBUG;DEBUG10.0;DEBUG2;0.0;DEBUG3;0.0;DEBUG4;0.0
ATTITUDE;ANGX;4.0;ANGY;-2.0;HEAD;-167.0
STATUS;CYCLETIME;2900;I2CERR;0;PRESENT;23;MODE;0
RAW_IMU;AX;39.0;AY;1.0;AZ;252.0;GX;-1.0;GY;0.0;GZ;-1.0;MAGX;19.0;MAGY;-118.0;MAGZ;86.0
MOT;0;1000.0;1;1000.0;2;1000.0;3;1000.0;4;0.0;5;0.0;6;0.0;7;0.0;
RC;ROLL;1500.0;PITCH;1500.0;YAW;1500.0;THROTTLE;1500.0;AUX1;1500.0;AUX2;1500.0;AUX3;1500.0;AUX4;1500.0
ALTITUDE;0.0
DEBUG;DEBUG10.0;DEBUG2;0.0;DEBUG3;0.0;DEBUG4;0.0
ATTITUDE;ANGX;4.0;ANGY;-2.0;HEAD;-167.0
STATUS;CYCLETIME;2892;I2CERR;0;PRESENT;23;MODE;0
RAW_IMU;AX;39.0;AY;0.0;AZ;254.0;GX;0.0;GY;0.0;GZ;-1.0;MAGX;19.0;MAGY;-118.0;MAGZ;86.0
MOT;0;1000.0;1;1000.0;2;1000.0;3;1000.0;4;0.0;5;0.0;6;0.0;7;0.0;
RC;ROLL;1500.0;PITCH;1500.0;YAW;1500.0;THROTTLE;1500.0;AUX1;1500.0;AUX2;1500.0;AUX3;1500.0;AUX4;1500.0
ALTITUDE;0.0
DEBUG;DEBUG10.0;DEBUG2;0.0;DEBUG3;0.0;DEBUG4;0.0
ATTITUDE;ANGX;4.0;ANGY;-2.0;HEAD;-167.0
STATUS;CYCLETIME;3008;I2CERR;0;PRESENT;23;MODE;0
RAW_IMU;AX;38.0;AY;0.0;AZ;255.0;GX;0.0;GY;0.0;GZ;-1.0;MAGX;18.0;MAGY;-118.0;MAGZ;87.0
MOT;0;1000.0;1;1000.0;2;1000.0;3;1000.0;4;0.0;5;0.0;6;0.0;7;0.0;
RC;ROLL;1500.0;PITCH;1500.0;YAW;1500.0;THROTTLE;1500.0;AUX1;1500.0;AUX2;1500.0;AUX3;1500.0;AUX4;1500.0
ALTITUDE;0.0
DEBUG;DEBUG10.0;DEBUG2;0.0;DEBUG3;0.0;DEBUG4;0.0
ATTITUDE;ANGX;4.0;ANGY;-2.0;HEAD;-167.0
STATUS;CYCLETIME;2888;I2CERR;0;PRESENT;23;MODE;0
RAW_IMU;AX;40.0;AY;-1.0;AZ;254.0;GX;0.0;GY;0.0;GZ;-1.0;MAGX;18.0;MAGY;-118.0;MAGZ;87.0
MOT;0;1000.0;1;1000.0;2;1000.0;3;1000.0;4;0.0;5;0.0;6;0.0;7;0.0;
RC;ROLL;1500.0;PITCH;1500.0;YAW;1500.0;THROTTLE;1500.0;AUX1;1500.0;AUX2;1500.0;AUX3;1500.0;AUX4;1500.0
ALTITUDE;0.0
DEBUG;DEBUG10.0;DEBUG2;0.0;DEBUG3;0.0;DEBUG4;0.0
ATTITUDE;ANGX;4.0;ANGY;-2.0;HEAD;-167.0
STATUS;CYCLETIME;2896;I2CERR;0;PRESENT;23;MODE;0
RAW_IMU;AX;39.0;AY;-1.0;AZ;255.0;GX;-1.0;GY;0.0;GZ;-1.0;MAGX;19.0;MAGY;-119.0;MAGZ;86.0
MOT;0;1000.0;1;1000.0;2;1000.0;3;1000.0;4;0.0;5;0.0;6;0.0;7;0.0;
RC;ROLL;1500.0;PITCH;1500.0;YAW;1500.0;THROTTLE;1500.0;AUX1;1500.0;AUX2;1500.0;AUX3;1500.0;AUX4;1500.0
ALTITUDE;0.0
DEBUG;DEBUG10.0;DEBUG2;0.0;DEBUG3;0.0;DEBUG4;0.0
ATTITUDE;ANGX;4.0;ANGY;-2.0;HEAD;-167.0
STATUS;CYCLETIME;2996;I2CERR;0;PRESENT;23;MODE;0
RAW_IMU;AX;37.0;AY;-1.0;AZ;253.0;GX;0.0;GY;0.0;GZ;-1.0;MAGX;19.0;MAGY;-119.0;MAGZ;86.0
MOT;0;1000.0;1;1000.0;2;1000.0;3;1000.0;4;0.0;5;0.0;6;0.0;7;0.0;
RC;ROLL;1500.0;PITCH;1500.0;YAW;1500.0;THROTTLE;1500.0;AUX1;1500.0;AUX2;1500.0;AUX3;1500.0;AUX4;1500.0
ALTITUDE;0.0
DEBUG;DEBUG10.0;DEBUG2;0.0;DEBUG3;0.0;DEBUG4;0.0
ATTITUDE;ANGX;4.0;ANGY;-2.0;HEAD;-167.0
STATUS;CYCLETIME;2896;I2CERR;0;PRESENT;23;MODE;0
RAW_IMU;AX;39.0;AY;1.0;AZ;253.0;GX;-1.0;GY;0.0;GZ;-1.0;MAGX;19.0;MAGY;-119.0;MAGZ;86.0
MOT;0;1000.0;1;1000.0;2;1000.0;3;1000.0;4;0.0;5;0.0;6;0.0;7;0.0;
RC;ROLL;1500.0;PITCH;1500.0;YAW;1500.0;THROTTLE;1500.0;AUX1;1500.0;AUX2;1500.0;AUX3;1500.0;AUX4;1500.0
ALTITUDE;0.0
DEBUG;DEBUG10.0;DEBUG2;0.0;DEBUG3;0.0;DEBUG4;0.0
ATTITUDE;ANGX;4.0;ANGY;-2.0;HEAD;-167.0
STATUS;CYCLETIME;2892;I2CERR;0;PRESENT;23;MODE;0
RAW_IMU;AX;39.0;AY;2.0;AZ;255.0;GX;0.0;GY;0.0;GZ;-1.0;MAGX;18.0;MAGY;-118.0;MAGZ;86.0
MOT;0;1000.0;1;1000.0;2;1000.0;3;1000.0;4;0.0;5;0.0;6;0.0;7;0.0;
RC;ROLL;1500.0;PITCH;1500.0;YAW;1500.0;THROTTLE;1500.0;AUX1;1500.0;AUX2;1500.0;AUX3;1500.0;AUX4;1500.0
ALTITUDE;0.0
DEBUG;DEBUG10.0;DEBUG2;0.0;DEBUG3;0.0;DEBUG4;0.0
ATTITUDE;ANGX;4.0;ANGY;-2.0;HEAD;-167.0
STATUS;CYCLETIME;2896;I2CERR;0;PRESENT;23;MODE;0
RAW_IMU;AX;39.0;AY;1.0;AZ;255.0;GX;0.0;GY;0.0;GZ;-1.0;MAGX;18.0;MAGY;-118.0;MAGZ;86.0
MOT;0;1000.0;1;1000.0;2;1000.0;3;1000.0;4;0.0;5;0.0;6;0.0;7;0.0;
RC;ROLL;1500.0;PITCH;1500.0;YAW;1500.0;THROTTLE;1500.0;AUX1;1500.0;AUX2;1500.0;AUX3;1500.0;AUX4;1500.0
ALTITUDE;0.0
DEBUG;DEBUG10.0;DEBUG2;0.0;DEBUG3;0.0;DEBUG4;0.0
ATTITUDE;ANGX;4.0;ANGY;-2.0;HEAD;-167.0
STATUS;CYCLETIME;2900;I2CERR;0;PRESENT;23;MODE;0
RAW_IMU;AX;38.0;AY;1.0;AZ;254.0;GX;0.0;GY;0.0;GZ;-1.0;MAGX;20.0;MAGY;-119.0;MAGZ;86.0
MOT;0;1000.0;1;1000.0;2;1000.0;3;1000.0;4;0.0;5;0.0;6;0.0;7;0.0;
RC;ROLL;1500.0;PITCH;1500.0;YAW;1500.0;THROTTLE;1500.0;AUX1;1500.0;AUX2;1500.0;AUX3;1500.0;AUX4;1500.0
ALTITUDE;0.0
DEBUG;DEBUG10.0;DEBUG2;0.0;DEBUG3;0.0;DEBUG4;0.0
ATTITUDE;ANGX;4.0;ANGY;-2.0;HEAD;-167.0
STATUS;CYCLETIME;2900;I2CERR;0;PRESENT;23;MODE;0
RAW_IMU;AX;39.0;AY;3.0;AZ;253.0;GX;0.0;GY;0.0;GZ;-1.0;MAGX;20.0;MAGY;-119.0;MAGZ;86.0
MOT;0;1000.0;1;1000.0;2;1000.0;3;1000.0;4;0.0;5;0.0;6;0.0;7;0.0;
RC;ROLL;1500.0;PITCH;1500.0;YAW;1500.0;THROTTLE;1500.0;AUX1;1500.0;AUX2;1500.0;AUX3;1500.0;AUX4;1500.0
ALTITUDE;0.0
DEBUG;DEBUG10.0;DEBUG2;0.0;DEBUG3;0.0;DEBUG4;0.0
ATTITUDE;ANGX;4.0;ANGY;-2.0;HEAD;-167.0
STATUS;CYCLETIME;2888;I2CERR;0;PRESENT;23;MODE;0
RAW_IMU;AX;39.0;AY;3.0;AZ;253.0;GX;0.0;GY;0.0;GZ;-1.0;MAGX;19.0;MAGY;-118.0;MAGZ;87.0
MOT;0;1000.0;1;1000.0;2;1000.0;3;1000.0;4;0.0;5;0.0;6;0.0;7;0.0;
RC;ROLL;1500.0;PITCH;1500.0;YAW;1500.0;THROTTLE;1500.0;AUX1;1500.0;AUX2;1500.0;AUX3;1500.0;AUX4;1500.0
ALTITUDE;0.0
DEBUG;DEBUG10.0;DEBUG2;0.0;DEBUG3;0.0;DEBUG4;0.0
ATTITUDE;ANGX;4.0;ANGY;-2.0;HEAD;-167.0
STATUS;CYCLETIME;2896;I2CERR;0;PRESENT;23;MODE;0
RAW_IMU;AX;37.0;AY;3.0;AZ;254.0;GX;-1.0;GY;0.0;GZ;-1.0;MAGX;19.0;MAGY;-118.0;MAGZ;87.0
MOT;0;1000.0;1;1000.0;2;1000.0;3;1000.0;4;0.0;5;0.0;6;0.0;7;0.0;
RC;ROLL;1500.0;PITCH;1500.0;YAW;1500.0;THROTTLE;1500.0;AUX1;1500.0;AUX2;1500.0;AUX3;1500.0;AUX4;1500.0
ALTITUDE;0.0
DEBUG;DEBUG10.0;DEBUG2;0.0;DEBUG3;0.0;DEBUG4;0.0
ATTITUDE;ANGX;4.0;ANGY;-2.0;HEAD;-167.0
STATUS;CYCLETIME;3004;I2CERR;0;PRESENT;23;MODE;0
RAW_IMU;AX;37.0;AY;1.0;AZ;253.0;GX;0.0;GY;0.0;GZ;-1.0;MAGX;19.0;MAGY;-119.0;MAGZ;85.0
MOT;0;1000.0;1;1000.0;2;1000.0;3;1000.0;4;0.0;5;0.0;6;0.0;7;0.0;
RC;ROLL;1500.0;PITCH;1500.0;YAW;1500.0;THROTTLE;1500.0;AUX1;1500.0;AUX2;1500.0;AUX3;1500.0;AUX4;1500.0
ALTITUDE;0.0
DEBUG;DEBUG10.0;DEBUG2;0.0;DEBUG3;0.0;DEBUG4;0.0
ATTITUDE;ANGX;4.0;ANGY;-2.0;HEAD;-167.0
STATUS;CYCLETIME;2888;I2CERR;0;PRESENT;23;MODE;0
RAW_IMU;AX;36.0;AY;2.0;AZ;254.0;GX;0.0;GY;0.0;GZ;-1.0;MAGX;19.0;MAGY;-119.0;MAGZ;85.0
MOT;0;1000.0;1;1000.0;2;1000.0;3;1000.0;4;0.0;5;0.0;6;0.0;7;0.0;
RC;ROLL;1500.0;PITCH;1500.0;YAW;1500.0;THROTTLE;1500.0;AUX1;1500.0;AUX2;1500.0;AUX3;1500.0;AUX4;1500.0
ALTITUDE;0.0
DEBUG;DEBUG10.0;DEBUG2;0.0;DEBUG3;0.0;DEBUG4;0.0
ATTITUDE;ANGX;4.0;ANGY;-2.0;HEAD;-167.0
STATUS;CYCLETIME;3172;I2CERR;0;PRESENT;23;MODE;0
RAW_IMU;AX;38.0;AY;1.0;AZ;254.0;GX;0.0;GY;0.0;GZ;-1.0;MAGX;19.0;MAGY;-118.0;MAGZ;85.0
MOT;0;1000.0;1;1000.0;2;1000.0;3;1000.0;4;0.0;5;0.0;6;0.0;7;0.0;
RC;ROLL;1500.0;PITCH;1500.0;YAW;1500.0;THROTTLE;1500.0;AUX1;1500.0;AUX2;1500.0;AUX3;1500.0;AUX4;1500.0
ALTITUDE;0.0
DEBUG;DEBUG10.0;DEBUG2;0.0;DEBUG3;0.0;DEBUG4;0.0
ATTITUDE;ANGX;4.0;ANGY;-2.0;HEAD;-167.0
STATUS;CYCLETIME;2884;I2CERR;0;PRESENT;23;MODE;0
RAW_IMU;AX;36.0;AY;0.0;AZ;253.0;GX;0.0;GY;0.0;GZ;-1.0;MAGX;19.0;MAGY;-118.0;MAGZ;85.0
MOT;0;1000.0;1;1000.0;2;1000.0;3;1000.0;4;0.0;5;0.0;6;0.0;7;0.0;
RC;ROLL;1500.0;PITCH;1500.0;YAW;1500.0;THROTTLE;1500.0;AUX1;1500.0;AUX2;1500.0;AUX3;1500.0;AUX4;1500.0
ALTITUDE;0.0
DEBUG;DEBUG10.0;DEBUG2;0.0;DEBUG3;0.0;DEBUG4;0.0
ATTITUDE;ANGX;4.0;ANGY;-2.0;HEAD;-167.0
STATUS;CYCLETIME;2896;I2CERR;0;PRESENT;23;MODE;0
RAW_IMU;AX;35.0;AY;1.0;AZ;252.0;GX;0.0;GY;0.0;GZ;-1.0;MAGX;19.0;MAGY;-118.0;MAGZ;85.0
MOT;0;1000.0;1;1000.0;2;1000.0;3;1000.0;4;0.0;5;0.0;6;0.0;7;0.0;
RC;ROLL;1500.0;PITCH;1500.0;YAW;1500.0;THROTTLE;1500.0;AUX1;1500.0;AUX2;1500.0;AUX3;1500.0;AUX4;1500.0
ALTITUDE;0.0
DEBUG;DEBUG10.0;DEBUG2;0.0;DEBUG3;0.0;DEBUG4;0.0
ATTITUDE;ANGX;4.0;ANGY;-2.0;HEAD;-167.0
STATUS;CYCLETIME;3008;I2CERR;0;PRESENT;23;MODE;0
RAW_IMU;AX;36.0;AY;2.0;AZ;253.0;GX;0.0;GY;0.0;GZ;-1.0;MAGX;18.0;MAGY;-118.0;MAGZ;86.0
MOT;0;1000.0;1;1000.0;2;1000.0;3;1000.0;4;0.0;5;0.0;6;0.0;7;0.0;
RC;ROLL;1500.0;PITCH;1500.0;YAW;1500.0;THROTTLE;1500.0;AUX1;1500.0;AUX2;1500.0;AUX3;1500.0;AUX4;1500.0
ALTITUDE;0.0
DEBUG;DEBUG10.0;DEBUG2;0.0;DEBUG3;0.0;DEBUG4;0.0
ATTITUDE;ANGX;4.0;ANGY;-2.0;HEAD;-167.0
STATUS;CYCLETIME;2880;I2CERR;0;PRESENT;23;MODE;0
RAW_IMU;AX;38.0;AY;1.0;AZ;252.0;GX;-1.0;GY;0.0;GZ;-1.0;MAGX;18.0;MAGY;-118.0;MAGZ;86.0
MOT;0;1000.0;1;1000.0;2;1000.0;3;1000.0;4;0.0;5;0.0;6;0.0;7;0.0;
RC;ROLL;1500.0;PITCH;1500.0;YAW;1500.0;THROTTLE;1500.0;AUX1;1500.0;AUX2;1500.0;AUX3;1500.0;AUX4;1500.0
ALTITUDE;0.0
DEBUG;DEBUG10.0;DEBUG2;0.0;DEBUG3;0.0;DEBUG4;0.0
ATTITUDE;ANGX;4.0;ANGY;-2.0;HEAD;-167.0
STATUS;CYCLETIME;2892;I2CERR;0;PRESENT;23;MODE;0
RAW_IMU;AX;36.0;AY;0.0;AZ;252.0;GX;0.0;GY;0.0;GZ;-2.0;MAGX;19.0;MAGY;-119.0;MAGZ;85.0
MOT;0;1000.0;1;1000.0;2;1000.0;3;1000.0;4;0.0;5;0.0;6;0.0;7;0.0;
RC;ROLL;1500.0;PITCH;1500.0;YAW;1500.0;THROTTLE;1500.0;AUX1;1500.0;AUX2;1500.0;AUX3;1500.0;AUX4;1500.0
ALTITUDE;0.0
DEBUG;DEBUG10.0;DEBUG2;0.0;DEBUG3;0.0;DEBUG4;0.0
ATTITUDE;ANGX;4.0;ANGY;-2.0;HEAD;-167.0
STATUS;CYCLETIME;3000;I2CERR;0;PRESENT;23;MODE;0
RAW_IMU;AX;37.0;AY;2.0;AZ;255.0;GX;-1.0;GY;0.0;GZ;-1.0;MAGX;19.0;MAGY;-119.0;MAGZ;85.0
MOT;0;1000.0;1;1000.0;2;1000.0;3;1000.0;4;0.0;5;0.0;6;0.0;7;0.0;
RC;ROLL;1500.0;PITCH;1500.0;YAW;1500.0;THROTTLE;1500.0;AUX1;1500.0;AUX2;1500.0;AUX3;1500.0;AUX4;1500.0
ALTITUDE;0.0
DEBUG;DEBUG10.0;DEBUG2;0.0;DEBUG3;0.0;DEBUG4;0.0
ATTITUDE;ANGX;4.0;ANGY;-2.0;HEAD;-167.0
STATUS;CYCLETIME;2920;I2CERR;0;PRESENT;23;MODE;0
RAW_IMU;AX;39.0;AY;3.0;AZ;252.0;GX;-1.0;GY;0.0;GZ;-1.0;MAGX;19.0;MAGY;-119.0;MAGZ;85.0
MOT;0;1000.0;1;1000.0;2;1000.0;3;1000.0;4;0.0;5;0.0;6;0.0;7;0.0;
RC;ROLL;1500.0;PITCH;1500.0;YAW;1500.0;THROTTLE;1500.0;AUX1;1500.0;AUX2;1500.0;AUX3;1500.0;AUX4;1500.0
ALTITUDE;0.0
DEBUG;DEBUG10.0;DEBUG2;0.0;DEBUG3;0.0;DEBUG4;0.0
ATTITUDE;ANGX;4.0;ANGY;-2.0;HEAD;-167.0
STATUS;CYCLETIME;2892;I2CERR;0;PRESENT;23;MODE;0
RAW_IMU;AX;39.0;AY;2.0;AZ;252.0;GX;-1.0;GY;0.0;GZ;-1.0;MAGX;19.0;MAGY;-119.0;MAGZ;85.0
MOT;0;1000.0;1;1000.0;2;1000.0;3;1000.0;4;0.0;5;0.0;6;0.0;7;0.0;
RC;ROLL;1500.0;PITCH;1500.0;YAW;1500.0;THROTTLE;1500.0;AUX1;1500.0;AUX2;1500.0;AUX3;1500.0;AUX4;1500.0
ALTITUDE;0.0
DEBUG;DEBUG10.0;DEBUG2;0.0;DEBUG3;0.0;DEBUG4;0.0
ATTITUDE;ANGX;4.0;ANGY;-2.0;HEAD;-167.0
STATUS;CYCLETIME;2896;I2CERR;0;PRESENT;23;MODE;0
RAW_IMU;AX;39.0;AY;2.0;AZ;254.0;GX;-1.0;GY;0.0;GZ;-1.0;MAGX;19.0;MAGY;-118.0;MAGZ;86.0
MOT;0;1000.0;1;1000.0;2;1000.0;3;1000.0;4;0.0;5;0.0;6;0.0;7;0.0;
RC;ROLL;1500.0;PITCH;1500.0;YAW;1500.0;THROTTLE;1500.0;AUX1;1500.0;AUX2;1500.0;AUX3;1500.0;AUX4;1500.0
ALTITUDE;0.0
DEBUG;DEBUG10.0;DEBUG2;0.0;DEBUG3;0.0;DEBUG4;0.0
ATTITUDE;ANGX;4.0;ANGY;-2.0;HEAD;-167.0
STATUS;CYCLETIME;2904;I2CERR;0;PRESENT;23;MODE;0
RAW_IMU;AX;40.0;AY;2.0;AZ;251.0;GX;-1.0;GY;0.0;GZ;-1.0;MAGX;19.0;MAGY;-118.0;MAGZ;86.0
MOT;0;1000.0;1;1000.0;2;1000.0;3;1000.0;4;0.0;5;0.0;6;0.0;7;0.0;
RC;ROLL;1500.0;PITCH;1500.0;YAW;1500.0;THROTTLE;1500.0;AUX1;1500.0;AUX2;1500.0;AUX3;1500.0;AUX4;1500.0
ALTITUDE;0.0
DEBUG;DEBUG10.0;DEBUG2;0.0;DEBUG3;0.0;DEBUG4;0.0
ATTITUDE;ANGX;4.0;ANGY;-2.0;HEAD;-167.0
STATUS;CYCLETIME;2900;I2CERR;0;PRESENT;23;MODE;0
RAW_IMU;AX;38.0;AY;1.0;AZ;252.0;GX;0.0;GY;0.0;GZ;-1.0;MAGX;19.0;MAGY;-118.0;MAGZ;86.0
MOT;0;1000.0;1;1000.0;2;1000.0;3;1000.0;4;0.0;5;0.0;6;0.0;7;0.0;
RC;ROLL;1500.0;PITCH;1500.0;YAW;1500.0;THROTTLE;1500.0;AUX1;1500.0;AUX2;1500.0;AUX3;1500.0;AUX4;1500.0
ALTITUDE;0.0
DEBUG;DEBUG10.0;DEBUG2;0.0;DEBUG3;0.0;DEBUG4;0.0
ATTITUDE;ANGX;4.0;ANGY;-2.0;HEAD;-167.0
STATUS;CYCLETIME;2904;I2CERR;0;PRESENT;23;MODE;0
RAW_IMU;AX;37.0;AY;-1.0;AZ;252.0;GX;0.0;GY;0.0;GZ;-1.0;MAGX;19.0;MAGY;-118.0;MAGZ;86.0
MOT;0;1000.0;1;1000.0;2;1000.0;3;1000.0;4;0.0;5;0.0;6;0.0;7;0.0;
RC;ROLL;1500.0;PITCH;1500.0;YAW;1500.0;THROTTLE;1500.0;AUX1;1500.0;AUX2;1500.0;AUX3;1500.0;AUX4;1500.0
ALTITUDE;0.0
DEBUG;DEBUG10.0;DEBUG2;0.0;DEBUG3;0.0;DEBUG4;0.0
ATTITUDE;ANGX;4.0;ANGY;-2.0;HEAD;-167.0
STATUS;CYCLETIME;3168;I2CERR;0;PRESENT;23;MODE;0
RAW_IMU;AX;37.0;AY;0.0;AZ;252.0;GX;0.0;GY;0.0;GZ;-1.0;MAGX;18.0;MAGY;-117.0;MAGZ;86.0
MOT;0;1000.0;1;1000.0;2;1000.0;3;1000.0;4;0.0;5;0.0;6;0.0;7;0.0;
RC;ROLL;1500.0;PITCH;1500.0;YAW;1500.0;THROTTLE;1500.0;AUX1;1500.0;AUX2;1500.0;AUX3;1500.0;AUX4;1500.0
ALTITUDE;0.0
DEBUG;DEBUG10.0;DEBUG2;0.0;DEBUG3;0.0;DEBUG4;0.0
ATTITUDE;ANGX;4.0;ANGY;-2.0;HEAD;-167.0
STATUS;CYCLETIME;3000;I2CERR;0;PRESENT;23;MODE;0
RAW_IMU;AX;37.0;AY;2.0;AZ;254.0;GX;0.0;GY;0.0;GZ;-1.0;MAGX;18.0;MAGY;-117.0;MAGZ;86.0
MOT;0;1000.0;1;1000.0;2;1000.0;3;1000.0;4;0.0;5;0.0;6;0.0;7;0.0;
RC;ROLL;1500.0;PITCH;1500.0;YAW;1500.0;THROTTLE;1500.0;AUX1;1500.0;AUX2;1500.0;AUX3;1500.0;AUX4;1500.0
ALTITUDE;0.0
DEBUG;DEBUG10.0;DEBUG2;0.0;DEBUG3;0.0;DEBUG4;0.0
ATTITUDE;ANGX;4.0;ANGY;-2.0;HEAD;-167.0
STATUS;CYCLETIME;2900;I2CERR;0;PRESENT;23;MODE;0
RAW_IMU;AX;39.0;AY;1.0;AZ;251.0;GX;0.0;GY;0.0;GZ;-1.0;MAGX;18.0;MAGY;-117.0;MAGZ;86.0
MOT;0;1000.0;1;1000.0;2;1000.0;3;1000.0;4;0.0;5;0.0;6;0.0;7;0.0;
RC;ROLL;1500.0;PITCH;1500.0;YAW;1500.0;THROTTLE;1500.0;AUX1;1500.0;AUX2;1500.0;AUX3;1500.0;AUX4;1500.0
ALTITUDE;0.0
DEBUG;DEBUG10.0;DEBUG2;0.0;DEBUG3;0.0;DEBUG4;0.0
ATTITUDE;ANGX;4.0;ANGY;-2.0;HEAD;-167.0
STATUS;CYCLETIME;2904;I2CERR;0;PRESENT;23;MODE;0
RAW_IMU;AX;38.0;AY;1.0;AZ;254.0;GX;0.0;GY;0.0;GZ;-1.0;MAGX;19.0;MAGY;-118.0;MAGZ;86.0
MOT;0;1000.0;1;1000.0;2;1000.0;3;1000.0;4;0.0;5;0.0;6;0.0;7;0.0;
RC;ROLL;1500.0;PITCH;1500.0;YAW;1500.0;THROTTLE;1500.0;AUX1;1500.0;AUX2;1500.0;AUX3;1500.0;AUX4;1500.0
ALTITUDE;0.0
DEBUG;DEBUG10.0;DEBUG2;0.0;DEBUG3;0.0;DEBUG4;0.0
ATTITUDE;ANGX;4.0;ANGY;-2.0;HEAD;-167.0
STATUS;CYCLETIME;3000;I2CERR;0;PRESENT;23;MODE;0
RAW_IMU;AX;36.0;AY;2.0;AZ;255.0;GX;0.0;GY;0.0;GZ;-1.0;MAGX;19.0;MAGY;-118.0;MAGZ;86.0
MOT;0;1000.0;1;1000.0;2;1000.0;3;1000.0;4;0.0;5;0.0;6;0.0;7;0.0;
RC;ROLL;1500.0;PITCH;1500.0;YAW;1500.0;THROTTLE;1500.0;AUX1;1500.0;AUX2;1500.0;AUX3;1500.0;AUX4;1500.0
ALTITUDE;0.0
DEBUG;DEBUG10.0;DEBUG2;0.0;DEBUG3;0.0;DEBUG4;0.0
ATTITUDE;ANGX;4.0;ANGY;-2.0;HEAD;-167.0
STATUS;CYCLETIME;2912;I2CERR;0;PRESENT;23;MODE;0
RAW_IMU;AX;36.0;AY;1.0;AZ;256.0;GX;0.0;GY;0.0;GZ;-1.0;MAGX;18.0;MAGY;-118.0;MAGZ;86.0
MOT;0;1000.0;1;1000.0;2;1000.0;3;1000.0;4;0.0;5;0.0;6;0.0;7;0.0;
RC;ROLL;1500.0;PITCH;1500.0;YAW;1500.0;THROTTLE;1500.0;AUX1;1500.0;AUX2;1500.0;AUX3;1500.0;AUX4;1500.0
ALTITUDE;0.0
DEBUG;DEBUG10.0;DEBUG2;0.0;DEBUG3;0.0;DEBUG4;0.0
ATTITUDE;ANGX;4.0;ANGY;-2.0;HEAD;-167.0
STATUS;CYCLETIME;2900;I2CERR;0;PRESENT;23;MODE;0
RAW_IMU;AX;38.0;AY;3.0;AZ;256.0;GX;0.0;GY;0.0;GZ;-1.0;MAGX;18.0;MAGY;-118.0;MAGZ;86.0
MOT;0;1000.0;1;1000.0;2;1000.0;3;1000.0;4;0.0;5;0.0;6;0.0;7;0.0;
RC;ROLL;1500.0;PITCH;1500.0;YAW;1500.0;THROTTLE;1500.0;AUX1;1500.0;AUX2;1500.0;AUX3;1500.0;AUX4;1500.0
ALTITUDE;0.0
DEBUG;DEBUG10.0;DEBUG2;0.0;DEBUG3;0.0;DEBUG4;0.0
ATTITUDE;ANGX;4.0;ANGY;-2.0;HEAD;-167.0
STATUS;CYCLETIME;2908;I2CERR;0;PRESENT;23;MODE;0
RAW_IMU;AX;38.0;AY;1.0;AZ;256.0;GX;0.0;GY;0.0;GZ;-1.0;MAGX;19.0;MAGY;-119.0;MAGZ;86.0
MOT;0;1000.0;1;1000.0;2;1000.0;3;1000.0;4;0.0;5;0.0;6;0.0;7;0.0;
RC;ROLL;1500.0;PITCH;1500.0;YAW;1500.0;THROTTLE;1500.0;AUX1;1500.0;AUX2;1500.0;AUX3;1500.0;AUX4;1500.0
