IDENT;V;220;TYPE;3
MSP_MOTOR_PINS
STATUS;CYCLETIME;2752;I2CERR;0;PRESENT;31;MODE;0
RAW_IMU;AX;0.0;AY;0.0;AZ;24.0;GX;0.0;GY;0.0;GZ;0.0;MAGX;-2.0;MAGY;62.0;MAGZ;3.0
ALTITUDE;0.0
DEBUG;DEBUG10.0;DEBUG2;0.0;DEBUG3;0.0;DEBUG4;0.0
ATTITUDE;ANGX;0.0;ANGY;0.0;HEAD;12.0
STATUS;CYCLETIME;2624;I2CERR;0;PRESENT;31;MODE;0
RAW_IMU;AX;-1.0;AY;0.0;AZ;113.0;GX;0.0;GY;0.0;GZ;0.0;MAGX;-2.0;MAGY;62.0;MAGZ;3.0
MOT;0;1000.0;1;1000.0;2;1000.0;3;1000.0;4;0.0;5;0.0;6;0.0;7;0.0;
RC;ROLL;1500.0;PITCH;1500.0;YAW;1500.0;THROTTLE;1500.0;AUX1;1500.0;AUX2;1500.0;AUX3;1500.0;AUX4;1500.0
GPS;ALT;0;LAT;0;LON;0;SPD;0
ALTITUDE;0.0
DEBUG;DEBUG10.0;DEBUG2;0.0;DEBUG3;0.0;DEBUG4;0.0
ATTITUDE;ANGX;0.0;ANGY;0.0;HEAD;12.0
STATUS;CYCLETIME;2632;I2CERR;0;PRESENT;31;MODE;0
RAW_IMU;AX;-2.0;AY;0.0;AZ;192.0;GX;0.0;GY;0.0;GZ;0.0;MAGX;-2.0;MAGY;62.0;MAGZ;2.0
MOT;0;1000.0;1;1000.0;2;1000.0;3;1000.0;4;0.0;5;0.0;6;0.0;7;0.0;
RC;ROLL;1500.0;PITCH;1500.0;YAW;1500.0;THROTTLE;1500.0;AUX1;1500.0;AUX2;1500.0;AUX3;1500.0;AUX4;1500.0
GPS;ALT;0;LAT;0;LON;0;SPD;0
ALTITUDE;0.0
DEBUG;DEBUG10.0;DEBUG2;0.0;DEBUG3;0.0;DEBUG4;0.0
ATTITUDE;ANGX;0.0;ANGY;0.0;HEAD;12.0
STATUS;CYCLETIME;2656;I2CERR;0;PRESENT;31;MODE;0
RAW_IMU;AX;-2.0;AY;0.0;AZ;212.0;GX;0.0;GY;0.0;GZ;0.0;MAGX;-1.0;MAGY;62.0;MAGZ;4.0
MOT;0;1000.0;1;1000.0;2;1000.0;3;1000.0;4;0.0;5;0.0;6;0.0;7;0.0;
RC;ROLL;1500.0;PITCH;1500.0;YAW;1500.0;THROTTLE;1500.0;AUX1;1500.0;AUX2;1500.0;AUX3;1500.0;AUX4;1500.0
GPS;ALT;0;LAT;0;LON;0;SPD;0
ALTITUDE;0.0
DEBUG;DEBUG10.0;DEBUG2;0.0;DEBUG3;0.0;DEBUG4;0.0
ATTITUDE;ANGX;0.0;ANGY;0.0;HEAD;12.0
STATUS;CYCLETIME;2648;I2CERR;0;PRESENT;31;MODE;0
RAW_IMU;AX;-3.0;AY;0.0;AZ;226.0;GX;0.0;GY;0.0;GZ;0.0;MAGX;-1.0;MAGY;62.0;MAGZ;4.0
MOT;0;1000.0;1;1000.0;2;1000.0;3;1000.0;4;0.0;5;0.0;6;0.0;7;0.0;
RC;ROLL;1500.0;PITCH;1500.0;YAW;1500.0;THROTTLE;1500.0;AUX1;1500.0;AUX2;1500.0;AUX3;1500.0;AUX4;1500.0
GPS;ALT;0;LAT;0;LON;0;SPD;0
ALTITUDE;0.0
DEBUG;DEBUG10.0;DEBUG2;0.0;DEBUG3;0.0;DEBUG4;0.0
ATTITUDE;ANGX;0.0;ANGY;0.0;HEAD;12.0
STATUS;CYCLETIME;2884;I2CERR;0;PRESENT;31;MODE;0
RAW_IMU;AX;-2.0;AY;0.0;AZ;236.0;GX;0.0;GY;0.0;GZ;0.0;MAGX;-2.0;MAGY;61.0;MAGZ;3.0
MOT;0;1000.0;1;1000.0;2;1000.0;3;1000.0;4;0.0;5;0.0;6;0.0;7;0.0;
RC;ROLL;1500.0;PITCH;1500.0;YAW;1500.0;THROTTLE;1500.0;AUX1;1500.0;AUX2;1500.0;AUX3;1500.0;AUX4;1500.0
GPS;ALT;0;LAT;0;LON;0;SPD;0
ALTITUDE;0.0
DEBUG;DEBUG10.0;DEBUG2;0.0;DEBUG3;0.0;DEBUG4;0.0
ATTITUDE;ANGX;0.0;ANGY;0.0;HEAD;11.0
STATUS;CYCLETIME;2628;I2CERR;0;PRESENT;31;MODE;0
RAW_IMU;AX;-3.0;AY;0.0;AZ;242.0;GX;0.0;GY;0.0;GZ;0.0;MAGX;-2.0;MAGY;61.0;MAGZ;3.0
MOT;0;1000.0;1;1000.0;2;1000.0;3;1000.0;4;0.0;5;0.0;6;0.0;7;0.0;
RC;ROLL;1500.0;PITCH;1500.0;YAW;1500.0;THROTTLE;1500.0;AUX1;1500.0;AUX2;1500.0;AUX3;1500.0;AUX4;1500.0
GPS;ALT;0;LAT;0;LON;0;SPD;0
ALTITUDE;0.0
DEBUG;DEBUG10.0;DEBUG2;0.0;DEBUG3;0.0;DEBUG4;0.0
ATTITUDE;ANGX;0.0;ANGY;0.0;HEAD;12.0
STATUS;CYCLETIME;2624;I2CERR;0;PRESENT;31;MODE;0
RAW_IMU;AX;-3.0;AY;0.0;AZ;246.0;GX;0.0;GY;0.0;GZ;0.0;MAGX;-2.0;MAGY;61.0;MAGZ;3.0
MOT;0;1000.0;1;1000.0;2;1000.0;3;1000.0;4;0.0;5;0.0;6;0.0;7;0.0;
RC;ROLL;1500.0;PITCH;1500.0;YAW;1500.0;THROTTLE;1500.0;AUX1;1500.0;AUX2;1500.0;AUX3;1500.0;AUX4;1500.0
GPS;ALT;0;LAT;0;LON;0;SPD;0
ALTITUDE;0.0
DEBUG;DEBUG10.0;DEBUG2;0.0;DEBUG3;0.0;DEBUG4;0.0
ATTITUDE;ANGX;0.0;ANGY;0.0;HEAD;12.0
STATUS;CYCLETIME;2632;I2CERR;0;PRESENT;31;MODE;0
RAW_IMU;AX;-3.0;AY;0.0;AZ;249.0;GX;0.0;GY;0.0;GZ;0.0;MAGX;-1.0;MAGY;62.0;MAGZ;4.0
MOT;0;1000.0;1;1000.0;2;1000.0;3;1000.0;4;0.0;5;0.0;6;0.0;7;0.0;
RC;ROLL;1500.0;PITCH;1500.0;YAW;1500.0;THROTTLE;1500.0;AUX1;1500.0;AUX2;1500.0;AUX3;1500.0;AUX4;1500.0
GPS;ALT;0;LAT;0;LON;0;SPD;0
ALTITUDE;0.0
DEBUG;DEBUG10.0;DEBUG2;0.0;DEBUG3;0.0;DEBUG4;0.0
ATTITUDE;ANGX;0.0;ANGY;0.0;HEAD;11.0
STATUS;CYCLETIME;2880;I2CERR;0;PRESENT;31;MODE;0
RAW_IMU;AX;-3.0;AY;0.0;AZ;251.0;GX;0.0;GY;0.0;GZ;0.0;MAGX;-1.0;MAGY;62.0;MAGZ;4.0
MOT;0;1000.0;1;1000.0;2;1000.0;3;1000.0;4;0.0;5;0.0;6;0.0;7;0.0;
RC;ROLL;1500.0;PITCH;1500.0;YAW;1500.0;THROTTLE;1500.0;AUX1;1500.0;AUX2;1500.0;AUX3;1500.0;AUX4;1500.0
GPS;ALT;0;LAT;0;LON;0;SPD;0
ALTITUDE;0.0
DEBUG;DEBUG10.0;DEBUG2;0.0;DEBUG3;0.0;DEBUG4;0.0
ATTITUDE;ANGX;0.0;ANGY;0.0;HEAD;11.0
STATUS;CYCLETIME;2628;I2CERR;0;PRESENT;31;MODE;0
RAW_IMU;AX;-3.0;AY;0.0;AZ;253.0;GX;0.0;GY;0.0;GZ;0.0;MAGX;-2.0;MAGY;62.0;MAGZ;4.0
MOT;0;1000.0;1;1000.0;2;1000.0;3;1000.0;4;0.0;5;0.0;6;0.0;7;0.0;
RC;ROLL;1500.0;PITCH;1500.0;YAW;1500.0;THROTTLE;1500.0;AUX1;1500.0;AUX2;1500.0;AUX3;1500.0;AUX4;1500.0
GPS;ALT;0;LAT;0;LON;0;SPD;0
ALTITUDE;0.0
DEBUG;DEBUG10.0;DEBUG2;0.0;DEBUG3;0.0;DEBUG4;0.0
ATTITUDE;ANGX;0.0;ANGY;0.0;HEAD;11.0
STATUS;CYCLETIME;2636;I2CERR;0;PRESENT;31;MODE;0
RAW_IMU;AX;-3.0;AY;0.0;AZ;254.0;GX;0.0;GY;0.0;GZ;0.0;MAGX;-2.0;MAGY;62.0;MAGZ;4.0
MOT;0;1000.0;1;1000.0;2;1000.0;3;1000.0;4;0.0;5;0.0;6;0.0;7;0.0;
RC;ROLL;1500.0;PITCH;1500.0;YAW;1500.0;THROTTLE;1500.0;AUX1;1500.0;AUX2;1500.0;AUX3;1500.0;AUX4;1500.0
GPS;ALT;0;LAT;0;LON;0;SPD;0
ALTITUDE;0.0
DEBUG;DEBUG10.0;DEBUG2;0.0;DEBUG3;0.0;DEBUG4;0.0
ATTITUDE;ANGX;0.0;ANGY;0.0;HEAD;11.0
STATUS;CYCLETIME;2640;I2CERR;0;PRESENT;31;MODE;0
RAW_IMU;AX;-3.0;AY;0.0;AZ;255.0;GX;0.0;GY;0.0;GZ;0.0;MAGX;-1.0;MAGY;61.0;MAGZ;3.0
MOT;0;1000.0;1;1000.0;2;1000.0;3;1000.0;4;0.0;5;0.0;6;0.0;7;0.0;
RC;ROLL;1500.0;PITCH;1500.0;YAW;1500.0;THROTTLE;1500.0;AUX1;1500.0;AUX2;1500.0;AUX3;1500.0;AUX4;1500.0
GPS;ALT;0;LAT;0;LON;0;SPD;0
ALTITUDE;0.0
DEBUG;DEBUG10.0;DEBUG2;0.0;DEBUG3;0.0;DEBUG4;0.0
ATTITUDE;ANGX;0.0;ANGY;0.0;HEAD;11.0
STATUS;CYCLETIME;-22228;I2CERR;0;PRESENT;31;MODE;0
RAW_IMU;AX;-3.0;AY;0.0;AZ;255.0;GX;0.0;GY;0.0;GZ;0.0;MAGX;-1.0;MAGY;61.0;MAGZ;3.0
MOT;0;1000.0;1;1000.0;2;1000.0;3;1000.0;4;0.0;5;0.0;6;0.0;7;0.0;
RC;ROLL;1500.0;PITCH;1500.0;YAW;1500.0;THROTTLE;1500.0;AUX1;1500.0;AUX2;1500.0;AUX3;1500.0;AUX4;1500.0
GPS;ALT;0;LAT;0;LON;0;SPD;0
ALTITUDE;0.0
STATUS;CYCLETIME;2768;I2CERR;0;PRESENT;31;MODE;0
RAW_IMU;AX;-3.0;AY;0.0;AZ;256.0;GX;0.0;GY;0.0;GZ;0.0;MAGX;-1.0;MAGY;60.0;MAGZ;3.0
MOT;0;1000.0;1;1000.0;2;1000.0;3;1000.0;4;0.0;5;0.0;6;0.0;7;0.0;
RC;ROLL;1500.0;PITCH;1500.0;YAW;1500.0;THROTTLE;1500.0;AUX1;1500.0;AUX2;1500.0;AUX3;1500.0;AUX4;1500.0
GPS;ALT;0;LAT;0;LON;0;SPD;0
ALTITUDE;0.0
DEBUG;DEBUG10.0;DEBUG2;0.0;DEBUG3;0.0;DEBUG4;0.0
ATTITUDE;ANGX;0.0;ANGY;0.0;HEAD;11.0
STATUS;CYCLETIME;2740;I2CERR;0;PRESENT;31;MODE;0
RAW_IMU;AX;-3.0;AY;0.0;AZ;256.0;GX;0.0;GY;0.0;GZ;0.0;MAGX;-2.0;MAGY;61.0;MAGZ;4.0
MOT;0;1000.0;1;1000.0;2;1000.0;3;1000.0;4;0.0;5;0.0;6;0.0;7;0.0;
RC;ROLL;1500.0;PITCH;1500.0;YAW;1500.0;THROTTLE;1500.0;AUX1;1500.0;AUX2;1500.0;AUX3;1500.0;AUX4;1500.0
GPS;ALT;0;LAT;0;LON;0;SPD;0
ALTITUDE;0.0
DEBUG;DEBUG10.0;DEBUG2;0.0;DEBUG3;0.0;DEBUG4;0.0
ATTITUDE;ANGX;0.0;ANGY;0.0;HEAD;11.0
STATUS;CYCLETIME;2848;I2CERR;0;PRESENT;31;MODE;0
RAW_IMU;AX;-3.0;AY;0.0;AZ;256.0;GX;0.0;GY;0.0;GZ;0.0;MAGX;-2.0;MAGY;61.0;MAGZ;4.0
MOT;0;1000.0;1;1000.0;2;1000.0;3;1000.0;4;0.0;5;0.0;6;0.0;7;0.0;
RC;ROLL;1500.0;PITCH;1500.0;YAW;1500.0;THROTTLE;1500.0;AUX1;1500.0;AUX2;1500.0;AUX3;1500.0;AUX4;1500.0
GPS;ALT;0;LAT;0;LON;0;SPD;0
ALTITUDE;0.0
DEBUG;DEBUG10.0;DEBUG2;0.0;DEBUG3;0.0;DEBUG4;0.0
ATTITUDE;ANGX;0.0;ANGY;0.0;HEAD;12.0
STATUS;CYCLETIME;2740;I2CERR;0;PRESENT;31;MODE;0
RAW_IMU;AX;-3.0;AY;0.0;AZ;257.0;GX;0.0;GY;0.0;GZ;0.0;MAGX;-2.0;MAGY;61.0;MAGZ;4.0
MOT;0;1000.0;1;1000.0;2;1000.0;3;1000.0;4;0.0;5;0.0;6;0.0;7;0.0;
RC;ROLL;1500.0;PITCH;1500.0;YAW;1500.0;THROTTLE;1500.0;AUX1;1500.0;AUX2;1500.0;AUX3;1500.0;AUX4;1500.0
GPS;ALT;0;LAT;0;LON;0;SPD;0
ALTITUDE;0.0
DEBUG;DEBUG10.0;DEBUG2;0.0;DEBUG3;0.0;DEBUG4;0.0
ATTITUDE;ANGX;0.0;ANGY;0.0;HEAD;12.0
STATUS;CYCLETIME;2796;I2CERR;0;PRESENT;31;MODE;0
RAW_IMU;AX;-3.0;AY;0.0;AZ;256.0;GX;0.0;GY;0.0;GZ;0.0;MAGX;-2.0;MAGY;60.0;MAGZ;3.0
MOT;0;1000.0;1;1000.0;2;1000.0;3;1000.0;4;0.0;5;0.0;6;0.0;7;0.0;
RC;ROLL;1500.0;PITCH;1500.0;YAW;1500.0;THROTTLE;1500.0;AUX1;1500.0;AUX2;1500.0;AUX3;1500.0;AUX4;1500.0
GPS;ALT;0;LAT;0;LON;0;SPD;0
ALTITUDE;0.0
DEBUG;DEBUG10.0;DEBUG2;0.0;DEBUG3;0.0;DEBUG4;0.0
ATTITUDE;ANGX;0.0;ANGY;0.0;HEAD;12.0
STATUS;CYCLETIME;2844;I2CERR;0;PRESENT;31;MODE;0
RAW_IMU;AX;-3.0;AY;0.0;AZ;257.0;GX;0.0;GY;0.0;GZ;0.0;MAGX;-2.0;MAGY;60.0;MAGZ;3.0
MOT;0;1000.0;1;1000.0;2;1000.0;3;1000.0;4;0.0;5;0.0;6;0.0;7;0.0;
RC;ROLL;1500.0;PITCH;1500.0;YAW;1500.0;THROTTLE;1500.0;AUX1;1500.0;AUX2;1500.0;AUX3;1500.0;AUX4;1500.0
GPS;ALT;0;LAT;0;LON;0;SPD;0
ALTITUDE;0.0
DEBUG;DEBUG10.0;DEBUG2;0.0;DEBUG3;0.0;DEBUG4;0.0
ATTITUDE;ANGX;0.0;ANGY;0.0;HEAD;12.0
STATUS;CYCLETIME;2772;I2CERR;0;PRESENT;31;MODE;0
RAW_IMU;AX;-3.0;AY;0.0;AZ;257.0;GX;0.0;GY;0.0;GZ;0.0;MAGX;-1.0;MAGY;60.0;MAGZ;3.0
MOT;0;1000.0;1;1000.0;2;1000.0;3;1000.0;4;0.0;5;0.0;6;0.0;7;0.0;
RC;ROLL;1500.0;PITCH;1500.0;YAW;1500.0;THROTTLE;1500.0;AUX1;1500.0;AUX2;1500.0;AUX3;1500.0;AUX4;1500.0
GPS;ALT;0;LAT;0;LON;0;SPD;0
ALTITUDE;0.0
DEBUG;DEBUG10.0;DEBUG2;0.0;DEBUG3;0.0;DEBUG4;0.0
ATTITUDE;ANGX;0.0;ANGY;0.0;HEAD;12.0
STATUS;CYCLETIME;2756;I2CERR;0;PRESENT;31;MODE;0
RAW_IMU;AX;-3.0;AY;0.0;AZ;257.0;GX;0.0;GY;0.0;GZ;0.0;MAGX;-1.0;MAGY;60.0;MAGZ;3.0
MOT;0;1000.0;1;1000.0;2;1000.0;3;1000.0;4;0.0;5;0.0;6;0.0;7;0.0;
RC;ROLL;1500.0;PITCH;1500.0;YAW;1500.0;THROTTLE;1500.0;AUX1;1500.0;AUX2;1500.0;AUX3;1500.0;AUX4;1500.0
GPS;ALT;0;LAT;0;LON;0;SPD;0
ALTITUDE;0.0
DEBUG;DEBUG10.0;DEBUG2;0.0;DEBUG3;0.0;DEBUG4;0.0
ATTITUDE;ANGX;0.0;ANGY;0.0;HEAD;12.0
STATUS;CYCLETIME;2840;I2CERR;0;PRESENT;31;MODE;0
RAW_IMU;AX;-3.0;AY;0.0;AZ;256.0;GX;0.0;GY;0.0;GZ;0.0;MAGX;-1.0;MAGY;62.0;MAGZ;3.0
MOT;0;1000.0;1;1000.0;2;1000.0;3;1000.0;4;0.0;5;0.0;6;0.0;7;0.0;
RC;ROLL;1500.0;PITCH;1500.0;YAW;1500.0;THROTTLE;1500.0;AUX1;1500.0;AUX2;1500.0;AUX3;1500.0;AUX4;1500.0
GPS;ALT;0;LAT;0;LON;0;SPD;0
ALTITUDE;0.0
DEBUG;DEBUG10.0;DEBUG2;0.0;DEBUG3;0.0;DEBUG4;0.0
ATTITUDE;ANGX;0.0;ANGY;0.0;HEAD;12.0
STATUS;CYCLETIME;2712;I2CERR;0;PRESENT;31;MODE;0
RAW_IMU;AX;-3.0;AY;0.0;AZ;256.0;GX;0.0;GY;0.0;GZ;0.0;MAGX;-1.0;MAGY;62.0;MAGZ;3.0
MOT;0;1000.0;1;1000.0;2;1000.0;3;1000.0;4;0.0;5;0.0;6;0.0;7;0.0;
RC;ROLL;1500.0;PITCH;1500.0;YAW;1500.0;THROTTLE;1500.0;AUX1;1500.0;AUX2;1500.0;AUX3;1500.0;AUX4;1500.0
GPS;ALT;0;LAT;0;LON;0;SPD;0
ALTITUDE;0.0
DEBUG;DEBUG10.0;DEBUG2;0.0;DEBUG3;0.0;DEBUG4;0.0
ATTITUDE;ANGX;0.0;ANGY;0.0;HEAD;12.0
STATUS;CYCLETIME;2732;I2CERR;0;PRESENT;31;MODE;0
RAW_IMU;AX;-4.0;AY;0.0;AZ;256.0;GX;0.0;GY;0.0;GZ;0.0;MAGX;0.0;MAGY;61.0;MAGZ;3.0
MOT;0;1000.0;1;1000.0;2;1000.0;3;1000.0;4;0.0;5;0.0;6;0.0;7;0.0;
RC;ROLL;1500.0;PITCH;1500.0;YAW;1500.0;THROTTLE;1500.0;AUX1;1500.0;AUX2;1500.0;AUX3;1500.0;AUX4;1500.0
GPS;ALT;0;LAT;0;LON;0;SPD;0
ALTITUDE;0.0
DEBUG;DEBUG10.0;DEBUG2;0.0;DEBUG3;0.0;DEBUG4;0.0
ATTITUDE;ANGX;0.0;ANGY;0.0;HEAD;11.0
STATUS;CYCLETIME;2680;I2CERR;0;PRESENT;31;MODE;0
RAW_IMU;AX;-3.0;AY;0.0;AZ;257.0;GX;0.0;GY;0.0;GZ;0.0;MAGX;0.0;MAGY;61.0;MAGZ;3.0
MOT;0;1000.0;1;1000.0;2;1000.0;3;1000.0;4;0.0;5;0.0;6;0.0;7;0.0;
RC;ROLL;1500.0;PITCH;1500.0;YAW;1500.0;THROTTLE;1500.0;AUX1;1500.0;AUX2;1500.0;AUX3;1500.0;AUX4;1500.0
GPS;ALT;0;LAT;0;LON;0;SPD;0
ALTITUDE;0.0
DEBUG;DEBUG10.0;DEBUG2;0.0;DEBUG3;0.0;DEBUG4;0.0
ATTITUDE;ANGX;0.0;ANGY;0.0;HEAD;11.0
STATUS;CYCLETIME;2692;I2CERR;0;PRESENT;31;MODE;0
RAW_IMU;AX;-3.0;AY;0.0;AZ;257.0;GX;0.0;GY;0.0;GZ;0.0;MAGX;-1.0;MAGY;61.0;MAGZ;3.0
MOT;0;1000.0;1;1000.0;2;1000.0;3;1000.0;4;0.0;5;0.0;6;0.0;7;0.0;
RC;ROLL;1500.0;PITCH;1500.0;YAW;1500.0;THROTTLE;1500.0;AUX1;1500.0;AUX2;1500.0;AUX3;1500.0;AUX4;1500.0
GPS;ALT;0;LAT;0;LON;0;SPD;0
ALTITUDE;0.0
DEBUG;DEBUG10.0;DEBUG2;0.0;DEBUG3;0.0;DEBUG4;0.0
ATTITUDE;ANGX;0.0;ANGY;0.0;HEAD;11.0
STATUS;CYCLETIME;2700;I2CERR;0;PRESENT;31;MODE;0
RAW_IMU;AX;-3.0;AY;0.0;AZ;257.0;GX;0.0;GY;0.0;GZ;0.0;MAGX;-1.0;MAGY;61.0;MAGZ;3.0
MOT;0;1000.0;1;1000.0;2;1000.0;3;1000.0;4;0.0;5;0.0;6;0.0;7;0.0;
RC;ROLL;1500.0;PITCH;1500.0;YAW;1500.0;THROTTLE;1500.0;AUX1;1500.0;AUX2;1500.0;AUX3;1500.0;AUX4;1500.0
GPS;ALT;0;LAT;0;LON;0;SPD;0
ALTITUDE;0.0
DEBUG;DEBUG10.0;DEBUG2;0.0;DEBUG3;0.0;DEBUG4;0.0
ATTITUDE;ANGX;0.0;ANGY;0.0;HEAD;11.0
STATUS;CYCLETIME;2724;I2CERR;0;PRESENT;31;MODE;0
RAW_IMU;AX;-3.0;AY;0.0;AZ;257.0;GX;0.0;GY;0.0;GZ;0.0;MAGX;-1.0;MAGY;60.0;MAGZ;3.0
MOT;0;1000.0;1;1000.0;2;1000.0;3;1000.0;4;0.0;5;0.0;6;0.0;7;0.0;
RC;ROLL;1500.0;PITCH;1500.0;YAW;1500.0;THROTTLE;1500.0;AUX1;1500.0;AUX2;1500.0;AUX3;1500.0;AUX4;1500.0
GPS;ALT;0;LAT;0;LON;0;SPD;0
ALTITUDE;0.0
DEBUG;DEBUG10.0;DEBUG2;0.0;DEBUG3;0.0;DEBUG4;0.0
ATTITUDE;ANGX;0.0;ANGY;0.0;HEAD;11.0
STATUS;CYCLETIME;2732;I2CERR;0;PRESENT;31;MODE;0
RAW_IMU;AX;-3.0;AY;0.0;AZ;257.0;GX;0.0;GY;0.0;GZ;0.0;MAGX;-1.0;MAGY;60.0;MAGZ;3.0
MOT;0;1000.0;1;1000.0;2;1000.0;3;1000.0;4;0.0;5;0.0;6;0.0;7;0.0;
RC;ROLL;1500.0;PITCH;1500.0;YAW;1500.0;THROTTLE;1500.0;AUX1;1500.0;AUX2;1500.0;AUX3;1500.0;AUX4;1500.0
GPS;ALT;0;LAT;0;LON;0;SPD;0
ALTITUDE;0.0
DEBUG;DEBUG10.0;DEBUG2;0.0;DEBUG3;0.0;DEBUG4;0.0
ATTITUDE;ANGX;0.0;ANGY;0.0;HEAD;11.0
STATUS;CYCLETIME;2760;I2CERR;0;PRESENT;31;MODE;0
RAW_IMU;AX;-3.0;AY;0.0;AZ;256.0;GX;0.0;GY;0.0;GZ;0.0;MAGX;-2.0;MAGY;61.0;MAGZ;4.0
MOT;0;1000.0;1;1000.0;2;1000.0;3;1000.0;4;0.0;5;0.0;6;0.0;7;0.0;
RC;ROLL;1500.0;PITCH;1500.0;YAW;1500.0;THROTTLE;1500.0;AUX1;1500.0;AUX2;1500.0;AUX3;1500.0;AUX4;1500.0
GPS;ALT;0;LAT;0;LON;0;SPD;0
ALTITUDE;0.0
DEBUG;DEBUG10.0;DEBUG2;0.0;DEBUG3;0.0;DEBUG4;0.0
ATTITUDE;ANGX;0.0;ANGY;0.0;HEAD;11.0
STATUS;CYCLETIME;2868;I2CERR;0;PRESENT;31;MODE;0
RAW_IMU;AX;-3.0;AY;0.0;AZ;256.0;GX;0.0;GY;0.0;GZ;0.0;MAGX;-2.0;MAGY;61.0;MAGZ;4.0
MOT;0;1000.0;1;1000.0;2;1000.0;3;1000.0;4;0.0;5;0.0;6;0.0;7;0.0;
RC;ROLL;1500.0;PITCH;1500.0;YAW;1500.0;THROTTLE;1500.0;AUX1;1500.0;AUX2;1500.0;AUX3;1500.0;AUX4;1500.0
GPS;ALT;0;LAT;0;LON;0;SPD;0
ALTITUDE;0.0
DEBUG;DEBUG10.0;DEBUG2;0.0;DEBUG3;0.0;DEBUG4;0.0
ATTITUDE;ANGX;0.0;ANGY;0.0;HEAD;11.0
STATUS;CYCLETIME;2692;I2CERR;0;PRESENT;31;MODE;0
RAW_IMU;AX;-3.0;AY;0.0;AZ;256.0;GX;0.0;GY;0.0;GZ;0.0;MAGX;-2.0;MAGY;61.0;MAGZ;3.0
MOT;0;1000.0;1;1000.0;2;1000.0;3;1000.0;4;0.0;5;0.0;6;0.0;7;0.0;
RC;ROLL;1500.0;PITCH;1500.0;YAW;1500.0;THROTTLE;1500.0;AUX1;1500.0;AUX2;1500.0;AUX3;1500.0;AUX4;1500.0
GPS;ALT;0;LAT;0;LON;0;SPD;0
ALTITUDE;0.0
DEBUG;DEBUG10.0;DEBUG2;0.0;DEBUG3;0.0;DEBUG4;0.0
ATTITUDE;ANGX;0.0;ANGY;0.0;HEAD;12.0
STATUS;CYCLETIME;2784;I2CERR;0;PRESENT;31;MODE;0
RAW_IMU;AX;-3.0;AY;0.0;AZ;256.0;GX;0.0;GY;0.0;GZ;0.0;MAGX;-2.0;MAGY;61.0;MAGZ;3.0
MOT;0;1000.0;1;1000.0;2;1000.0;3;1000.0;4;0.0;5;0.0;6;0.0;7;0.0;
RC;ROLL;1500.0;PITCH;1500.0;YAW;1500.0;THROTTLE;1500.0;AUX1;1500.0;AUX2;1500.0;AUX3;1500.0;AUX4;1500.0
GPS;ALT;0;LAT;0;LON;0;SPD;0
ALTITUDE;0.0
DEBUG;DEBUG10.0;DEBUG2;0.0;DEBUG3;0.0;DEBUG4;0.0
ATTITUDE;ANGX;0.0;ANGY;0.0;HEAD;12.0
STATUS;CYCLETIME;2836;I2CERR;0;PRESENT;31;MODE;0
RAW_IMU;AX;-3.0;AY;0.0;AZ;256.0;GX;0.0;GY;0.0;GZ;0.0;MAGX;-1.0;MAGY;61.0;MAGZ;3.0
MOT;0;1000.0;1;1000.0;2;1000.0;3;1000.0;4;0.0;5;0.0;6;0.0;7;0.0;
RC;ROLL;1500.0;PITCH;1500.0;YAW;1500.0;THROTTLE;1500.0;AUX1;1500.0;AUX2;1500.0;AUX3;1500.0;AUX4;1500.0
GPS;ALT;0;LAT;0;LON;0;SPD;0
ALTITUDE;0.0
DEBUG;DEBUG10.0;DEBUG2;0.0;DEBUG3;0.0;DEBUG4;0.0
ATTITUDE;ANGX;0.0;ANGY;0.0;HEAD;12.0
STATUS;CYCLETIME;2748;I2CERR;0;PRESENT;31;MODE;0
RAW_IMU;AX;-3.0;AY;0.0;AZ;256.0;GX;0.0;GY;0.0;GZ;0.0;MAGX;-1.0;MAGY;61.0;MAGZ;3.0
MOT;0;1000.0;1;1000.0;2;1000.0;3;1000.0;4;0.0;5;0.0;6;0.0;7;0.0;
RC;ROLL;1500.0;PITCH;1500.0;YAW;1500.0;THROTTLE;1500.0;AUX1;1500.0;AUX2;1500.0;AUX3;1500.0;AUX4;1500.0
GPS;ALT;0;LAT;0;LON;0;SPD;0
ALTITUDE;0.0
DEBUG;DEBUG10.0;DEBUG2;0.0;DEBUG3;0.0;DEBUG4;0.0
ATTITUDE;ANGX;0.0;ANGY;0.0;HEAD;12.0
STATUS;CYCLETIME;2728;I2CERR;0;PRESENT;31;MODE;0
RAW_IMU;AX;-3.0;AY;0.0;AZ;256.0;GX;0.0;GY;0.0;GZ;0.0;MAGX;-2.0;MAGY;61.0;MAGZ;2.0
MOT;0;1000.0;1;1000.0;2;1000.0;3;1000.0;4;0.0;5;0.0;6;0.0;7;0.0;
RC;ROLL;1500.0;PITCH;1500.0;YAW;1500.0;THROTTLE;1500.0;AUX1;1500.0;AUX2;1500.0;AUX3;1500.0;AUX4;1500.0
GPS;ALT;0;LAT;0;LON;0;SPD;0
ALTITUDE;0.0
DEBUG;DEBUG10.0;DEBUG2;0.0;DEBUG3;0.0;DEBUG4;0.0
ATTITUDE;ANGX;0.0;ANGY;0.0;HEAD;12.0
STATUS;CYCLETIME;2696;I2CERR;0;PRESENT;31;MODE;0
RAW_IMU;AX;-3.0;AY;0.0;AZ;257.0;GX;0.0;GY;0.0;GZ;0.0;MAGX;-2.0;MAGY;61.0;MAGZ;2.0
MOT;0;1000.0;1;1000.0;2;1000.0;3;1000.0;4;0.0;5;0.0;6;0.0;7;0.0;
RC;ROLL;1500.0;PITCH;1500.0;YAW;1500.0;THROTTLE;1500.0;AUX1;1500.0;AUX2;1500.0;AUX3;1500.0;AUX4;1500.0
GPS;ALT;0;LAT;0;LON;0;SPD;0
ALTITUDE;0.0
DEBUG;DEBUG10.0;DEBUG2;0.0;DEBUG3;0.0;DEBUG4;0.0
ATTITUDE;ANGX;0.0;ANGY;0.0;HEAD;12.0
STATUS;CYCLETIME;2744;I2CERR;0;PRESENT;31;MODE;0
RAW_IMU;AX;-3.0;AY;0.0;AZ;257.0;GX;0.0;GY;0.0;GZ;0.0;MAGX;-1.0;MAGY;61.0;MAGZ;3.0
MOT;0;1000.0;1;1000.0;2;1000.0;3;1000.0;4;0.0;5;0.0;6;0.0;7;0.0;
RC;ROLL;1500.0;PITCH;1500.0;YAW;1500.0;THROTTLE;1500.0;AUX1;1500.0;AUX2;1500.0;AUX3;1500.0;AUX4;1500.0
GPS;ALT;0;LAT;0;LON;0;SPD;0
ALTITUDE;0.0
DEBUG;DEBUG10.0;DEBUG2;0.0;DEBUG3;0.0;DEBUG4;0.0
ATTITUDE;ANGX;0.0;ANGY;0.0;HEAD;12.0
STATUS;CYCLETIME;2708;I2CERR;0;PRESENT;31;MODE;0
RAW_IMU;AX;-3.0;AY;0.0;AZ;257.0;GX;0.0;GY;0.0;GZ;0.0;MAGX;-1.0;MAGY;61.0;MAGZ;3.0
MOT;0;1000.0;1;1000.0;2;1000.0;3;1000.0;4;0.0;5;0.0;6;0.0;7;0.0;
RC;ROLL;1500.0;PITCH;1500.0;YAW;1500.0;THROTTLE;1500.0;AUX1;1500.0;AUX2;1500.0;AUX3;1500.0;AUX4;1500.0
GPS;ALT;0;LAT;0;LON;0;SPD;0
ALTITUDE;0.0
DEBUG;DEBUG10.0;DEBUG2;0.0;DEBUG3;0.0;DEBUG4;0.0
ATTITUDE;ANGX;0.0;ANGY;0.0;HEAD;12.0
STATUS;CYCLETIME;2684;I2CERR;0;PRESENT;31;MODE;0
RAW_IMU;AX;-3.0;AY;1.0;AZ;257.0;GX;0.0;GY;0.0;GZ;0.0;MAGX;-1.0;MAGY;61.0;MAGZ;3.0
MOT;0;1000.0;1;1000.0;2;1000.0;3;1000.0;4;0.0;5;0.0;6;0.0;7;0.0;
RC;ROLL;1500.0;PITCH;1500.0;YAW;1500.0;THROTTLE;1500.0;AUX1;1500.0;AUX2;1500.0;AUX3;1500.0;AUX4;1500.0
GPS;ALT;0;LAT;0;LON;0;SPD;0
ALTITUDE;0.0
DEBUG;DEBUG10.0;DEBUG2;0.0;DEBUG3;0.0;DEBUG4;0.0
ATTITUDE;ANGX;0.0;ANGY;0.0;HEAD;12.0
STATUS;CYCLETIME;2708;I2CERR;0;PRESENT;31;MODE;0
RAW_IMU;AX;-3.0;AY;0.0;AZ;257.0;GX;0.0;GY;0.0;GZ;0.0;MAGX;-1.0;MAGY;61.0;MAGZ;3.0
MOT;0;1000.0;1;1000.0;2;1000.0;3;1000.0;4;0.0;5;0.0;6;0.0;7;0.0;
RC;ROLL;1500.0;PITCH;1500.0;YAW;1500.0;THROTTLE;1500.0;AUX1;1500.0;AUX2;1500.0;AUX3;1500.0;AUX4;1500.0
GPS;ALT;0;LAT;0;LON;0;SPD;0
ALTITUDE;0.0
DEBUG;DEBUG10.0;DEBUG2;0.0;DEBUG3;0.0;DEBUG4;0.0
ATTITUDE;ANGX;0.0;ANGY;0.0;HEAD;12.0
STATUS;CYCLETIME;2820;I2CERR;0;PRESENT;31;MODE;0
RAW_IMU;AX;-3.0;AY;1.0;AZ;257.0;GX;0.0;GY;0.0;GZ;0.0;MAGX;-1.0;MAGY;60.0;MAGZ;3.0
MOT;0;1000.0;1;1000.0;2;1000.0;3;1000.0;4;0.0;5;0.0;6;0.0;7;0.0;
RC;ROLL;1500.0;PITCH;1500.0;YAW;1500.0;THROTTLE;1500.0;AUX1;1500.0;AUX2;1500.0;AUX3;1500.0;AUX4;1500.0
GPS;ALT;0;LAT;0;LON;0;SPD;0
ALTITUDE;0.0
DEBUG;DEBUG10.0;DEBUG2;0.0;DEBUG3;0.0;DEBUG4;0.0
ATTITUDE;ANGX;0.0;ANGY;0.0;HEAD;12.0
STATUS;CYCLETIME;2792;I2CERR;0;PRESENT;31;MODE;0
RAW_IMU;AX;-3.0;AY;0.0;AZ;257.0;GX;0.0;GY;0.0;GZ;0.0;MAGX;-1.0;MAGY;60.0;MAGZ;3.0
MOT;0;1000.0;1;1000.0;2;1000.0;3;1000.0;4;0.0;5;0.0;6;0.0;7;0.0;
RC;ROLL;1500.0;PITCH;1500.0;YAW;1500.0;THROTTLE;1500.0;AUX1;1500.0;AUX2;1500.0;AUX3;1500.0;AUX4;1500.0
GPS;ALT;0;LAT;0;LON;0;SPD;0
ALTITUDE;0.0
DEBUG;DEBUG10.0;DEBUG2;0.0;DEBUG3;0.0;DEBUG4;0.0
ATTITUDE;ANGX;0.0;ANGY;0.0;HEAD;12.0
STATUS;CYCLETIME;2724;I2CERR;0;PRESENT;31;MODE;0
RAW_IMU;AX;-3.0;AY;0.0;AZ;257.0;GX;0.0;GY;0.0;GZ;0.0;MAGX;-1.0;MAGY;60.0;MAGZ;5.0
MOT;0;1000.0;1;1000.0;2;1000.0;3;1000.0;4;0.0;5;0.0;6;0.0;7;0.0;
RC;ROLL;1500.0;PITCH;1500.0;YAW;1500.0;THROTTLE;1500.0;AUX1;1500.0;AUX2;1500.0;AUX3;1500.0;AUX4;1500.0
GPS;ALT;0;LAT;0;LON;0;SPD;0
ALTITUDE;0.0
DEBUG;DEBUG10.0;DEBUG2;0.0;DEBUG3;0.0;DEBUG4;0.0
ATTITUDE;ANGX;0.0;ANGY;0.0;HEAD;11.0
STATUS;CYCLETIME;2936;I2CERR;0;PRESENT;31;MODE;0
RAW_IMU;AX;-3.0;AY;0.0;AZ;257.0;GX;0.0;GY;0.0;GZ;0.0;MAGX;-1.0;MAGY;60.0;MAGZ;5.0
MOT;0;1000.0;1;1000.0;2;1000.0;3;1000.0;4;0.0;5;0.0;6;0.0;7;0.0;
RC;ROLL;1500.0;PITCH;1500.0;YAW;1500.0;THROTTLE;1500.0;AUX1;1500.0;AUX2;1500.0;AUX3;1500.0;AUX4;1500.0
GPS;ALT;0;LAT;0;LON;0;SPD;0
ALTITUDE;0.0
DEBUG;DEBUG10.0;DEBUG2;0.0;DEBUG3;0.0;DEBUG4;0.0
ATTITUDE;ANGX;0.0;ANGY;0.0;HEAD;11.0
STATUS;CYCLETIME;2780;I2CERR;0;PRESENT;31;MODE;0
RAW_IMU;AX;-3.0;AY;0.0;AZ;257.0;GX;0.0;GY;0.0;GZ;0.0;MAGX;-1.0;MAGY;61.0;MAGZ;3.0
MOT;0;1000.0;1;1000.0;2;1000.0;3;1000.0;4;0.0;5;0.0;6;0.0;7;0.0;
RC;ROLL;1500.0;PITCH;1500.0;YAW;1500.0;THROTTLE;1500.0;AUX1;1500.0;AUX2;1500.0;AUX3;1500.0;AUX4;1500.0
GPS;ALT;0;LAT;0;LON;0;SPD;0
ALTITUDE;0.0
DEBUG;DEBUG10.0;DEBUG2;0.0;DEBUG3;0.0;DEBUG4;0.0
ATTITUDE;ANGX;0.0;ANGY;0.0;HEAD;11.0
STATUS;CYCLETIME;2672;I2CERR;0;PRESENT;31;MODE;0
RAW_IMU;AX;-3.0;AY;1.0;AZ;257.0;GX;0.0;GY;0.0;GZ;0.0;MAGX;-1.0;MAGY;61.0;MAGZ;3.0
MOT;0;1000.0;1;1000.0;2;1000.0;3;1000.0;4;0.0;5;0.0;6;0.0;7;0.0;
RC;ROLL;1500.0;PITCH;1500.0;YAW;1500.0;THROTTLE;1500.0;AUX1;1500.0;AUX2;1500.0;AUX3;1500.0;AUX4;1500.0
GPS;ALT;0;LAT;0;LON;0;SPD;0
ALTITUDE;20.0
DEBUG;DEBUG10.0;DEBUG2;0.0;DEBUG3;0.0;DEBUG4;0.0
ATTITUDE;ANGX;0.0;ANGY;0.0;HEAD;11.0
STATUS;CYCLETIME;2732;I2CERR;0;PRESENT;31;MODE;0
RAW_IMU;AX;-3.0;AY;0.0;AZ;257.0;GX;0.0;GY;0.0;GZ;0.0;MAGX;-1.0;MAGY;61.0;MAGZ;4.0
MOT;0;1000.0;1;1000.0;2;1000.0;3;1000.0;4;0.0;5;0.0;6;0.0;7;0.0;
RC;ROLL;1500.0;PITCH;1500.0;YAW;1500.0;THROTTLE;1500.0;AUX1;1500.0;AUX2;1500.0;AUX3;1500.0;AUX4;1500.0
GPS;ALT;0;LAT;0;LON;0;SPD;0
ALTITUDE;20.0
DEBUG;DEBUG10.0;DEBUG2;0.0;DEBUG3;0.0;DEBUG4;0.0
ATTITUDE;ANGX;0.0;ANGY;0.0;HEAD;11.0
STATUS;CYCLETIME;2832;I2CERR;0;PRESENT;31;MODE;0
RAW_IMU;AX;-4.0;AY;0.0;AZ;257.0;GX;0.0;GY;0.0;GZ;0.0;MAGX;-1.0;MAGY;61.0;MAGZ;4.0
MOT;0;1000.0;1;1000.0;2;1000.0;3;1000.0;4;0.0;5;0.0;6;0.0;7;0.0;
RC;ROLL;1500.0;PITCH;1500.0;YAW;1500.0;THROTTLE;1500.0;AUX1;1500.0;AUX2;1500.0;AUX3;1500.0;AUX4;1500.0
GPS;ALT;0;LAT;0;LON;0;SPD;0
ALTITUDE;20.0
DEBUG;DEBUG10.0;DEBUG2;0.0;DEBUG3;0.0;DEBUG4;0.0
ATTITUDE;ANGX;0.0;ANGY;0.0;HEAD;11.0
STATUS;CYCLETIME;2680;I2CERR;0;PRESENT;31;MODE;0
RAW_IMU;AX;-3.0;AY;0.0;AZ;257.0;GX;0.0;GY;0.0;GZ;0.0;MAGX;0.0;MAGY;62.0;MAGZ;2.0
MOT;0;1000.0;1;1000.0;2;1000.0;3;1000.0;4;0.0;5;0.0;6;0.0;7;0.0;
RC;ROLL;1500.0;PITCH;1500.0;YAW;1500.0;THROTTLE;1500.0;AUX1;1500.0;AUX2;1500.0;AUX3;1500.0;AUX4;1500.0
GPS;ALT;0;LAT;0;LON;0;SPD;0
ALTITUDE;20.0
DEBUG;DEBUG10.0;DEBUG2;0.0;DEBUG3;0.0;DEBUG4;0.0
ATTITUDE;ANGX;0.0;ANGY;0.0;HEAD;11.0
STATUS;CYCLETIME;2708;I2CERR;0;PRESENT;31;MODE;0
RAW_IMU;AX;-3.0;AY;0.0;AZ;257.0;GX;0.0;GY;0.0;GZ;0.0;MAGX;0.0;MAGY;62.0;MAGZ;2.0
MOT;0;1000.0;1;1000.0;2;1000.0;3;1000.0;4;0.0;5;0.0;6;0.0;7;0.0;
RC;ROLL;1500.0;PITCH;1500.0;YAW;1500.0;THROTTLE;1500.0;AUX1;1500.0;AUX2;1500.0;AUX3;1500.0;AUX4;1500.0
GPS;ALT;0;LAT;0;LON;0;SPD;0
ALTITUDE;20.0
DEBUG;DEBUG10.0;DEBUG2;0.0;DEBUG3;0.0;DEBUG4;0.0
ATTITUDE;ANGX;0.0;ANGY;0.0;HEAD;11.0
STATUS;CYCLETIME;2732;I2CERR;0;PRESENT;31;MODE;0
RAW_IMU;AX;-3.0;AY;0.0;AZ;257.0;GX;0.0;GY;0.0;GZ;0.0;MAGX;-1.0;MAGY;62.0;MAGZ;3.0
MOT;0;1000.0;1;1000.0;2;1000.0;3;1000.0;4;0.0;5;0.0;6;0.0;7;0.0;
RC;ROLL;1500.0;PITCH;1500.0;YAW;1500.0;THROTTLE;1500.0;AUX1;1500.0;AUX2;1500.0;AUX3;1500.0;AUX4;1500.0
GPS;ALT;0;LAT;197;LON;141;SPD;0
ALTITUDE;20.0
DEBUG;DEBUG10.0;DEBUG2;0.0;DEBUG3;0.0;DEBUG4;0.0
ATTITUDE;ANGX;0.0;ANGY;0.0;HEAD;11.0
STATUS;CYCLETIME;2772;I2CERR;0;PRESENT;31;MODE;0
RAW_IMU;AX;-3.0;AY;0.0;AZ;257.0;GX;0.0;GY;0.0;GZ;0.0;MAGX;-1.0;MAGY;62.0;MAGZ;3.0
MOT;0;1000.0;1;1000.0;2;1000.0;3;1000.0;4;0.0;5;0.0;6;0.0;7;0.0;
RC;ROLL;1500.0;PITCH;1500.0;YAW;1500.0;THROTTLE;1500.0;AUX1;1500.0;AUX2;1500.0;AUX3;1500.0;AUX4;1500.0
GPS;ALT;0;LAT;197;LON;141;SPD;0
ALTITUDE;20.0
DEBUG;DEBUG10.0;DEBUG2;0.0;DEBUG3;0.0;DEBUG4;0.0
ATTITUDE;ANGX;0.0;ANGY;0.0;HEAD;11.0
STATUS;CYCLETIME;2708;I2CERR;0;PRESENT;31;MODE;0
RAW_IMU;AX;-3.0;AY;0.0;AZ;256.0;GX;0.0;GY;0.0;GZ;0.0;MAGX;-1.0;MAGY;60.0;MAGZ;4.0
MOT;0;1000.0;1;1000.0;2;1000.0;3;1000.0;4;0.0;5;0.0;6;0.0;7;0.0;
RC;ROLL;1500.0;PITCH;1500.0;YAW;1500.0;THROTTLE;1500.0;AUX1;1500.0;AUX2;1500.0;AUX3;1500.0;AUX4;1500.0
GPS;ALT;0;LAT;197;LON;141;SPD;0
ALTITUDE;20.0
DEBUG;DEBUG10.0;DEBUG2;0.0;DEBUG3;0.0;DEBUG4;0.0
ATTITUDE;ANGX;0.0;ANGY;0.0;HEAD;11.0
STATUS;CYCLETIME;2828;I2CERR;0;PRESENT;31;MODE;0
RAW_IMU;AX;-3.0;AY;0.0;AZ;257.0;GX;0.0;GY;0.0;GZ;0.0;MAGX;-1.0;MAGY;60.0;MAGZ;4.0
MOT;0;1000.0;1;1000.0;2;1000.0;3;1000.0;4;0.0;5;0.0;6;0.0;7;0.0;
RC;ROLL;1500.0;PITCH;1500.0;YAW;1500.0;THROTTLE;1500.0;AUX1;1500.0;AUX2;1500.0;AUX3;1500.0;AUX4;1500.0
GPS;ALT;0;LAT;197;LON;141;SPD;0
ALTITUDE;20.0
DEBUG;DEBUG10.0;DEBUG2;0.0;DEBUG3;0.0;DEBUG4;0.0
ATTITUDE;ANGX;0.0;ANGY;0.0;HEAD;11.0
STATUS;CYCLETIME;2684;I2CERR;0;PRESENT;31;MODE;0
RAW_IMU;AX;-3.0;AY;0.0;AZ;257.0;GX;0.0;GY;0.0;GZ;0.0;MAGX;-1.0;MAGY;60.0;MAGZ;4.0
MOT;0;1000.0;1;1000.0;2;1000.0;3;1000.0;4;0.0;5;0.0;6;0.0;7;0.0;
RC;ROLL;1500.0;PITCH;1500.0;YAW;1500.0;THROTTLE;1500.0;AUX1;1500.0;AUX2;1500.0;AUX3;1500.0;AUX4;1500.0
GPS;ALT;0;LAT;197;LON;141;SPD;0
ALTITUDE;20.0
DEBUG;DEBUG10.0;DEBUG2;0.0;DEBUG3;0.0;DEBUG4;0.0
ATTITUDE;ANGX;0.0;ANGY;0.0;HEAD;11.0
STATUS;CYCLETIME;2712;I2CERR;0;PRESENT;31;MODE;0
RAW_IMU;AX;-3.0;AY;0.0;AZ;257.0;GX;0.0;GY;0.0;GZ;0.0;MAGX;-1.0;MAGY;60.0;MAGZ;4.0
MOT;0;1000.0;1;1000.0;2;1000.0;3;1000.0;4;0.0;5;0.0;6;0.0;7;0.0;
RC;ROLL;1500.0;PITCH;1500.0;YAW;1500.0;THROTTLE;1500.0;AUX1;1500.0;AUX2;1500.0;AUX3;1500.0;AUX4;1500.0
GPS;ALT;0;LAT;197;LON;141;SPD;0
ALTITUDE;20.0
DEBUG;DEBUG10.0;DEBUG2;0.0;DEBUG3;0.0;DEBUG4;0.0
ATTITUDE;ANGX;0.0;ANGY;0.0;HEAD;11.0
STATUS;CYCLETIME;3044;I2CERR;0;PRESENT;31;MODE;0
RAW_IMU;AX;-3.0;AY;0.0;AZ;257.0;GX;0.0;GY;0.0;GZ;0.0;MAGX;-1.0;MAGY;60.0;MAGZ;3.0
MOT;0;1000.0;1;1000.0;2;1000.0;3;1000.0;4;0.0;5;0.0;6;0.0;7;0.0;
RC;ROLL;1500.0;PITCH;1500.0;YAW;1500.0;THROTTLE;1500.0;AUX1;1500.0;AUX2;1500.0;AUX3;1500.0;AUX4;1500.0
GPS;ALT;0;LAT;197;LON;141;SPD;0
ALTITUDE;20.0
DEBUG;DEBUG10.0;DEBUG2;0.0;DEBUG3;0.0;DEBUG4;0.0
ATTITUDE;ANGX;0.0;ANGY;0.0;HEAD;11.0
STATUS;CYCLETIME;2968;I2CERR;0;PRESENT;31;MODE;0
RAW_IMU;AX;-3.0;AY;0.0;AZ;257.0;GX;0.0;GY;0.0;GZ;0.0;MAGX;-1.0;MAGY;60.0;MAGZ;3.0
MOT;0;1000.0;1;1000.0;2;1000.0;3;1000.0;4;0.0;5;0.0;6;0.0;7;0.0;
RC;ROLL;1500.0;PITCH;1500.0;YAW;1500.0;THROTTLE;1500.0;AUX1;1500.0;AUX2;1500.0;AUX3;1500.0;AUX4;1500.0
GPS;ALT;0;LAT;197;LON;141;SPD;0
ALTITUDE;20.0
DEBUG;DEBUG10.0;DEBUG2;0.0;DEBUG3;0.0;DEBUG4;0.0
ATTITUDE;ANGX;0.0;ANGY;0.0;HEAD;11.0
STATUS;CYCLETIME;2716;I2CERR;0;PRESENT;31;MODE;0
RAW_IMU;AX;-3.0;AY;0.0;AZ;257.0;GX;0.0;GY;0.0;GZ;0.0;MAGX;-1.0;MAGY;61.0;MAGZ;3.0
MOT;0;1000.0;1;1000.0;2;1000.0;3;1000.0;4;0.0;5;0.0;6;0.0;7;0.0;
RC;ROLL;1500.0;PITCH;1500.0;YAW;1500.0;THROTTLE;1500.0;AUX1;1500.0;AUX2;1500.0;AUX3;1500.0;AUX4;1500.0
GPS;ALT;0;LAT;197;LON;141;SPD;0
ALTITUDE;20.0
DEBUG;DEBUG10.0;DEBUG2;0.0;DEBUG3;0.0;DEBUG4;0.0
ATTITUDE;ANGX;0.0;ANGY;0.0;HEAD;11.0
STATUS;CYCLETIME;2704;I2CERR;0;PRESENT;31;MODE;0
RAW_IMU;AX;-3.0;AY;0.0;AZ;257.0;GX;0.0;GY;0.0;GZ;0.0;MAGX;-1.0;MAGY;61.0;MAGZ;3.0
MOT;0;1000.0;1;1000.0;2;1000.0;3;1000.0;4;0.0;5;0.0;6;0.0;7;0.0;
RC;ROLL;1500.0;PITCH;1500.0;YAW;1500.0;THROTTLE;1500.0;AUX1;1500.0;AUX2;1500.0;AUX3;1500.0;AUX4;1500.0
GPS;ALT;0;LAT;197;LON;141;SPD;0
ALTITUDE;20.0
DEBUG;DEBUG10.0;DEBUG2;0.0;DEBUG3;0.0;DEBUG4;0.0
ATTITUDE;ANGX;0.0;ANGY;0.0;HEAD;11.0
STATUS;CYCLETIME;2984;I2CERR;0;PRESENT;31;MODE;0
RAW_IMU;AX;-3.0;AY;0.0;AZ;257.0;GX;0.0;GY;0.0;GZ;0.0;MAGX;-1.0;MAGY;61.0;MAGZ;3.0
MOT;0;1000.0;1;1000.0;2;1000.0;3;1000.0;4;0.0;5;0.0;6;0.0;7;0.0;
RC;ROLL;1500.0;PITCH;1500.0;YAW;1500.0;THROTTLE;1500.0;AUX1;1500.0;AUX2;1500.0;AUX3;1500.0;AUX4;1500.0
GPS;ALT;0;LAT;197;LON;141;SPD;0
ALTITUDE;20.0
DEBUG;DEBUG10.0;DEBUG2;0.0;DEBUG3;0.0;DEBUG4;0.0
ATTITUDE;ANGX;0.0;ANGY;0.0;HEAD;11.0
STATUS;CYCLETIME;2768;I2CERR;0;PRESENT;31;MODE;0
RAW_IMU;AX;-3.0;AY;0.0;AZ;257.0;GX;0.0;GY;0.0;GZ;0.0;MAGX;-1.0;MAGY;61.0;MAGZ;3.0
MOT;0;1000.0;1;1000.0;2;1000.0;3;1000.0;4;0.0;5;0.0;6;0.0;7;0.0;
RC;ROLL;1500.0;PITCH;1500.0;YAW;1500.0;THROTTLE;1500.0;AUX1;1500.0;AUX2;1500.0;AUX3;1500.0;AUX4;1500.0
GPS;ALT;0;LAT;197;LON;141;SPD;0
ALTITUDE;20.0
DEBUG;DEBUG10.0;DEBUG2;0.0;DEBUG3;0.0;DEBUG4;0.0
ATTITUDE;ANGX;0.0;ANGY;0.0;HEAD;11.0
STATUS;CYCLETIME;2728;I2CERR;0;PRESENT;31;MODE;0
RAW_IMU;AX;-3.0;AY;0.0;AZ;257.0;GX;0.0;GY;0.0;GZ;0.0;MAGX;-1.0;MAGY;61.0;MAGZ;3.0
MOT;0;1000.0;1;1000.0;2;1000.0;3;1000.0;4;0.0;5;0.0;6;0.0;7;0.0;
RC;ROLL;1500.0;PITCH;1500.0;YAW;1500.0;THROTTLE;1500.0;AUX1;1500.0;AUX2;1500.0;AUX3;1500.0;AUX4;1500.0
GPS;ALT;0;LAT;197;LON;141;SPD;0
ALTITUDE;20.0
DEBUG;DEBUG10.0;DEBUG2;0.0;DEBUG3;0.0;DEBUG4;0.0
ATTITUDE;ANGX;0.0;ANGY;0.0;HEAD;11.0
STATUS;CYCLETIME;2760;I2CERR;0;PRESENT;31;MODE;0
RAW_IMU;AX;-3.0;AY;0.0;AZ;257.0;GX;0.0;GY;0.0;GZ;0.0;MAGX;-1.0;MAGY;61.0;MAGZ;3.0
MOT;0;1000.0;1;1000.0;2;1000.0;3;1000.0;4;0.0;5;0.0;6;0.0;7;0.0;
RC;ROLL;1500.0;PITCH;1500.0;YAW;1500.0;THROTTLE;1500.0;AUX1;1500.0;AUX2;1500.0;AUX3;1500.0;AUX4;1500.0
GPS;ALT;0;LAT;197;LON;141;SPD;0
ALTITUDE;20.0
DEBUG;DEBUG10.0;DEBUG2;0.0;DEBUG3;0.0;DEBUG4;0.0
ATTITUDE;ANGX;0.0;ANGY;0.0;HEAD;11.0
STATUS;CYCLETIME;3000;I2CERR;0;PRESENT;31;MODE;0
RAW_IMU;AX;-4.0;AY;0.0;AZ;257.0;GX;0.0;GY;0.0;GZ;0.0;MAGX;-1.0;MAGY;61.0;MAGZ;3.0
MOT;0;1000.0;1;1000.0;2;1000.0;3;1000.0;4;0.0;5;0.0;6;0.0;7;0.0;
RC;ROLL;1500.0;PITCH;1500.0;YAW;1500.0;THROTTLE;1500.0;AUX1;1500.0;AUX2;1500.0;AUX3;1500.0;AUX4;1500.0
GPS;ALT;0;LAT;197;LON;141;SPD;0
ALTITUDE;20.0
DEBUG;DEBUG10.0;DEBUG2;0.0;DEBUG3;0.0;DEBUG4;0.0
ATTITUDE;ANGX;0.0;ANGY;0.0;HEAD;11.0
STATUS;CYCLETIME;2752;I2CERR;0;PRESENT;31;MODE;0
RAW_IMU;AX;-3.0;AY;0.0;AZ;257.0;GX;0.0;GY;0.0;GZ;0.0;MAGX;-2.0;MAGY;61.0;MAGZ;4.0
MOT;0;1000.0;1;1000.0;2;1000.0;3;1000.0;4;0.0;5;0.0;6;0.0;7;0.0;
RC;ROLL;1500.0;PITCH;1500.0;YAW;1500.0;THROTTLE;1500.0;AUX1;1500.0;AUX2;1500.0;AUX3;1500.0;AUX4;1500.0
GPS;ALT;0;LAT;197;LON;141;SPD;0
ALTITUDE;20.0
DEBUG;DEBUG10.0;DEBUG2;0.0;DEBUG3;0.0;DEBUG4;0.0
ATTITUDE;ANGX;0.0;ANGY;0.0;HEAD;11.0
STATUS;CYCLETIME;2800;I2CERR;0;PRESENT;31;MODE;0
RAW_IMU;AX;-3.0;AY;0.0;AZ;257.0;GX;0.0;GY;0.0;GZ;0.0;MAGX;-2.0;MAGY;61.0;MAGZ;4.0
MOT;0;1000.0;1;1000.0;2;1000.0;3;1000.0;4;0.0;5;0.0;6;0.0;7;0.0;
RC;ROLL;1500.0;PITCH;1500.0;YAW;1500.0;THROTTLE;1500.0;AUX1;1500.0;AUX2;1500.0;AUX3;1500.0;AUX4;1500.0
GPS;ALT;0;LAT;197;LON;141;SPD;0
ALTITUDE;20.0
DEBUG;DEBUG10.0;DEBUG2;0.0;DEBUG3;0.0;DEBUG4;0.0
ATTITUDE;ANGX;0.0;ANGY;0.0;HEAD;11.0
STATUS;CYCLETIME;2724;I2CERR;0;PRESENT;31;MODE;0
RAW_IMU;AX;-3.0;AY;0.0;AZ;257.0;GX;0.0;GY;0.0;GZ;0.0;MAGX;-2.0;MAGY;61.0;MAGZ;4.0
MOT;0;1000.0;1;1000.0;2;1000.0;3;1000.0;4;0.0;5;0.0;6;0.0;7;0.0;
RC;ROLL;1500.0;PITCH;1500.0;YAW;1500.0;THROTTLE;1500.0;AUX1;1500.0;AUX2;1500.0;AUX3;1500.0;AUX4;1500.0
GPS;ALT;0;LAT;197;LON;141;SPD;0
ALTITUDE;20.0
DEBUG;DEBUG10.0;DEBUG2;0.0;DEBUG3;0.0;DEBUG4;0.0
ATTITUDE;ANGX;0.0;ANGY;0.0;HEAD;11.0
STATUS;CYCLETIME;2756;I2CERR;0;PRESENT;31;MODE;0
RAW_IMU;AX;-3.0;AY;1.0;AZ;257.0;GX;0.0;GY;0.0;GZ;0.0;MAGX;-2.0;MAGY;61.0;MAGZ;4.0
MOT;0;1000.0;1;1000.0;2;1000.0;3;1000.0;4;0.0;5;0.0;6;0.0;7;0.0;
RC;ROLL;1500.0;PITCH;1500.0;YAW;1500.0;THROTTLE;1500.0;AUX1;1500.0;AUX2;1500.0;AUX3;1500.0;AUX4;1500.0
GPS;ALT;0;LAT;197;LON;141;SPD;0
ALTITUDE;20.0
DEBUG;DEBUG10.0;DEBUG2;0.0;DEBUG3;0.0;DEBUG4;0.0
ATTITUDE;ANGX;0.0;ANGY;0.0;HEAD;11.0
STATUS;CYCLETIME;2732;I2CERR;0;PRESENT;31;MODE;0
RAW_IMU;AX;-3.0;AY;1.0;AZ;257.0;GX;0.0;GY;0.0;GZ;0.0;MAGX;-1.0;MAGY;61.0;MAGZ;4.0
MOT;0;1000.0;1;1000.0;2;1000.0;3;1000.0;4;0.0;5;0.0;6;0.0;7;0.0;
RC;ROLL;1500.0;PITCH;1500.0;YAW;1500.0;THROTTLE;1500.0;AUX1;1500.0;AUX2;1500.0;AUX3;1500.0;AUX4;1500.0
GPS;ALT;0;LAT;197;LON;141;SPD;0
ALTITUDE;20.0
DEBUG;DEBUG10.0;DEBUG2;0.0;DEBUG3;0.0;DEBUG4;0.0
ATTITUDE;ANGX;0.0;ANGY;0.0;HEAD;11.0
STATUS;CYCLETIME;2768;I2CERR;0;PRESENT;31;MODE;0
RAW_IMU;AX;-3.0;AY;1.0;AZ;256.0;GX;0.0;GY;0.0;GZ;0.0;MAGX;-1.0;MAGY;61.0;MAGZ;4.0
MOT;0;1000.0;1;1000.0;2;1000.0;3;1000.0;4;0.0;5;0.0;6;0.0;7;0.0;
RC;ROLL;1500.0;PITCH;1500.0;YAW;1500.0;THROTTLE;1500.0;AUX1;1500.0;AUX2;1500.0;AUX3;1500.0;AUX4;1500.0
GPS;ALT;0;LAT;197;LON;141;SPD;0
ALTITUDE;20.0
DEBUG;DEBUG10.0;DEBUG2;0.0;DEBUG3;0.0;DEBUG4;0.0
ATTITUDE;ANGX;0.0;ANGY;0.0;HEAD;11.0
STATUS;CYCLETIME;2760;I2CERR;0;PRESENT;31;MODE;0
RAW_IMU;AX;-3.0;AY;0.0;AZ;257.0;GX;0.0;GY;0.0;GZ;0.0;MAGX;-1.0;MAGY;61.0;MAGZ;4.0
MOT;0;1000.0;1;1000.0;2;1000.0;3;1000.0;4;0.0;5;0.0;6;0.0;7;0.0;
RC;ROLL;1500.0;PITCH;1500.0;YAW;1500.0;THROTTLE;1500.0;AUX1;1500.0;AUX2;1500.0;AUX3;1500.0;AUX4;1500.0
GPS;ALT;0;LAT;197;LON;141;SPD;0
ALTITUDE;20.0
DEBUG;DEBUG10.0;DEBUG2;0.0;DEBUG3;0.0;DEBUG4;0.0
ATTITUDE;ANGX;0.0;ANGY;0.0;HEAD;11.0
STATUS;CYCLETIME;2772;I2CERR;0;PRESENT;31;MODE;0
RAW_IMU;AX;-3.0;AY;0.0;AZ;257.0;GX;0.0;GY;0.0;GZ;0.0;MAGX;-1.0;MAGY;61.0;MAGZ;4.0
MOT;0;1000.0;1;1000.0;2;1000.0;3;1000.0;4;0.0;5;0.0;6;0.0;7;0.0;
RC;ROLL;1500.0;PITCH;1500.0;YAW;1500.0;THROTTLE;1500.0;AUX1;1500.0;AUX2;1500.0;AUX3;1500.0;AUX4;1500.0
GPS;ALT;0;LAT;197;LON;141;SPD;0
ALTITUDE;20.0
DEBUG;DEBUG10.0;DEBUG2;0.0;DEBUG3;0.0;DEBUG4;0.0
ATTITUDE;ANGX;0.0;ANGY;0.0;HEAD;11.0
STATUS;CYCLETIME;2740;I2CERR;0;PRESENT;31;MODE;0
RAW_IMU;AX;-3.0;AY;0.0;AZ;257.0;GX;0.0;GY;0.0;GZ;0.0;MAGX;-1.0;MAGY;61.0;MAGZ;4.0
MOT;0;1000.0;1;1000.0;2;1000.0;3;1000.0;4;0.0;5;0.0;6;0.0;7;0.0;
RC;ROLL;1500.0;PITCH;1500.0;YAW;1500.0;THROTTLE;1500.0;AUX1;1500.0;AUX2;1500.0;AUX3;1500.0;AUX4;1500.0
GPS;ALT;0;LAT;197;LON;141;SPD;0
ALTITUDE;20.0
DEBUG;DEBUG10.0;DEBUG2;0.0;DEBUG3;0.0;DEBUG4;0.0
ATTITUDE;ANGX;0.0;ANGY;0.0;HEAD;11.0
STATUS;CYCLETIME;2764;I2CERR;0;PRESENT;31;MODE;0
RAW_IMU;AX;-3.0;AY;0.0;AZ;256.0;GX;0.0;GY;0.0;GZ;0.0;MAGX;-1.0;MAGY;61.0;MAGZ;4.0
MOT;0;1000.0;1;1000.0;2;1000.0;3;1000.0;4;0.0;5;0.0;6;0.0;7;0.0;
RC;ROLL;1500.0;PITCH;1500.0;YAW;1500.0;THROTTLE;1500.0;AUX1;1500.0;AUX2;1500.0;AUX3;1500.0;AUX4;1500.0
GPS;ALT;0;LAT;197;LON;141;SPD;0
ALTITUDE;20.0
DEBUG;DEBUG10.0;DEBUG2;0.0;DEBUG3;0.0;DEBUG4;0.0
ATTITUDE;ANGX;0.0;ANGY;0.0;HEAD;11.0
STATUS;CYCLETIME;2748;I2CERR;0;PRESENT;31;MODE;0
RAW_IMU;AX;-3.0;AY;0.0;AZ;257.0;GX;0.0;GY;0.0;GZ;0.0;MAGX;-1.0;MAGY;60.0;MAGZ;3.0
MOT;0;1000.0;1;1000.0;2;1000.0;3;1000.0;4;0.0;5;0.0;6;0.0;7;0.0;
RC;ROLL;1500.0;PITCH;1500.0;YAW;1500.0;THROTTLE;1500.0;AUX1;1500.0;AUX2;1500.0;AUX3;1500.0;AUX4;1500.0
GPS;ALT;0;LAT;197;LON;141;SPD;0
ALTITUDE;20.0
DEBUG;DEBUG10.0;DEBUG2;0.0;DEBUG3;0.0;DEBUG4;0.0
ATTITUDE;ANGX;0.0;ANGY;0.0;HEAD;11.0
STATUS;CYCLETIME;2724;I2CERR;0;PRESENT;31;MODE;0
RAW_IMU;AX;-3.0;AY;0.0;AZ;256.0;GX;0.0;GY;0.0;GZ;0.0;MAGX;-1.0;MAGY;60.0;MAGZ;3.0
MOT;0;1000.0;1;1000.0;2;1000.0;3;1000.0;4;0.0;5;0.0;6;0.0;7;0.0;
RC;ROLL;1500.0;PITCH;1500.0;YAW;1500.0;THROTTLE;1500.0;AUX1;1500.0;AUX2;1500.0;AUX3;1500.0;AUX4;1500.0
GPS;ALT;0;LAT;197;LON;141;SPD;0
ALTITUDE;20.0
DEBUG;DEBUG10.0;DEBUG2;0.0;DEBUG3;0.0;DEBUG4;0.0
ATTITUDE;ANGX;0.0;ANGY;0.0;HEAD;11.0
STATUS;CYCLETIME;2752;I2CERR;0;PRESENT;31;MODE;0
RAW_IMU;AX;-4.0;AY;0.0;AZ;257.0;GX;0.0;GY;0.0;GZ;0.0;MAGX;-2.0;MAGY;61.0;MAGZ;3.0
MOT;0;1000.0;1;1000.0;2;1000.0;3;1000.0;4;0.0;5;0.0;6;0.0;7;0.0;
RC;ROLL;1500.0;PITCH;1500.0;YAW;1500.0;THROTTLE;1500.0;AUX1;1500.0;AUX2;1500.0;AUX3;1500.0;AUX4;1500.0
GPS;ALT;0;LAT;197;LON;141;SPD;0
ALTITUDE;20.0
DEBUG;DEBUG10.0;DEBUG2;0.0;DEBUG3;0.0;DEBUG4;0.0
ATTITUDE;ANGX;0.0;ANGY;0.0;HEAD;11.0
STATUS;CYCLETIME;2752;I2CERR;0;PRESENT;31;MODE;0
RAW_IMU;AX;-3.0;AY;0.0;AZ;256.0;GX;0.0;GY;0.0;GZ;0.0;MAGX;-2.0;MAGY;61.0;MAGZ;3.0
MOT;0;1000.0;1;1000.0;2;1000.0;3;1000.0;4;0.0;5;0.0;6;0.0;7;0.0;
RC;ROLL;1500.0;PITCH;1500.0;YAW;1500.0;THROTTLE;1500.0;AUX1;1500.0;AUX2;1500.0;AUX3;1500.0;AUX4;1500.0
GPS;ALT;0;LAT;197;LON;141;SPD;0
ALTITUDE;20.0
DEBUG;DEBUG10.0;DEBUG2;0.0;DEBUG3;0.0;DEBUG4;0.0
ATTITUDE;ANGX;0.0;ANGY;0.0;HEAD;11.0
STATUS;CYCLETIME;2900;I2CERR;0;PRESENT;31;MODE;0
RAW_IMU;AX;-3.0;AY;0.0;AZ;257.0;GX;0.0;GY;0.0;GZ;0.0;MAGX;0.0;MAGY;61.0;MAGZ;2.0
MOT;0;1000.0;1;1000.0;2;1000.0;3;1000.0;4;0.0;5;0.0;6;0.0;7;0.0;
RC;ROLL;1500.0;PITCH;1500.0;YAW;1500.0;THROTTLE;1500.0;AUX1;1500.0;AUX2;1500.0;AUX3;1500.0;AUX4;1500.0
GPS;ALT;0;LAT;197;LON;141;SPD;0
ALTITUDE;20.0
DEBUG;DEBUG10.0;DEBUG2;0.0;DEBUG3;0.0;DEBUG4;0.0
ATTITUDE;ANGX;0.0;ANGY;0.0;HEAD;11.0
STATUS;CYCLETIME;2716;I2CERR;0;PRESENT;31;MODE;0
RAW_IMU;AX;-4.0;AY;0.0;AZ;257.0;GX;0.0;GY;0.0;GZ;0.0;MAGX;0.0;MAGY;61.0;MAGZ;2.0
MOT;0;1000.0;1;1000.0;2;1000.0;3;1000.0;4;0.0;5;0.0;6;0.0;7;0.0;
RC;ROLL;1500.0;PITCH;1500.0;YAW;1500.0;THROTTLE;1500.0;AUX1;1500.0;AUX2;1500.0;AUX3;1500.0;AUX4;1500.0
GPS;ALT;0;LAT;197;LON;141;SPD;0
ALTITUDE;20.0
DEBUG;DEBUG10.0;DEBUG2;0.0;DEBUG3;0.0;DEBUG4;0.0
ATTITUDE;ANGX;0.0;ANGY;0.0;HEAD;11.0
STATUS;CYCLETIME;2980;I2CERR;0;PRESENT;31;MODE;0
RAW_IMU;AX;-3.0;AY;0.0;AZ;256.0;GX;0.0;GY;0.0;GZ;0.0;MAGX;-1.0;MAGY;61.0;MAGZ;3.0
MOT;0;1000.0;1;1000.0;2;1000.0;3;1000.0;4;0.0;5;0.0;6;0.0;7;0.0;
RC;ROLL;1500.0;PITCH;1500.0;YAW;1500.0;THROTTLE;1500.0;AUX1;1500.0;AUX2;1500.0;AUX3;1500.0;AUX4;1500.0
GPS;ALT;0;LAT;197;LON;141;SPD;0
ALTITUDE;20.0
DEBUG;DEBUG10.0;DEBUG2;0.0;DEBUG3;0.0;DEBUG4;0.0
ATTITUDE;ANGX;0.0;ANGY;0.0;HEAD;11.0
STATUS;CYCLETIME;2704;I2CERR;0;PRESENT;31;MODE;0
RAW_IMU;AX;-3.0;AY;0.0;AZ;257.0;GX;0.0;GY;0.0;GZ;0.0;MAGX;-1.0;MAGY;61.0;MAGZ;3.0
MOT;0;1000.0;1;1000.0;2;1000.0;3;1000.0;4;0.0;5;0.0;6;0.0;7;0.0;
RC;ROLL;1500.0;PITCH;1500.0;YAW;1500.0;THROTTLE;1500.0;AUX1;1500.0;AUX2;1500.0;AUX3;1500.0;AUX4;1500.0
GPS;ALT;0;LAT;197;LON;141;SPD;0
ALTITUDE;20.0
DEBUG;DEBUG10.0;DEBUG2;0.0;DEBUG3;0.0;DEBUG4;0.0
ATTITUDE;ANGX;0.0;ANGY;0.0;HEAD;11.0
STATUS;CYCLETIME;2756;I2CERR;0;PRESENT;31;MODE;0
RAW_IMU;AX;-3.0;AY;0.0;AZ;257.0;GX;0.0;GY;0.0;GZ;0.0;MAGX;-1.0;MAGY;61.0;MAGZ;3.0
MOT;0;1000.0;1;1000.0;2;1000.0;3;1000.0;4;0.0;5;0.0;6;0.0;7;0.0;
RC;ROLL;1500.0;PITCH;1500.0;YAW;1500.0;THROTTLE;1500.0;AUX1;1500.0;AUX2;1500.0;AUX3;1500.0;AUX4;1500.0
GPS;ALT;0;LAT;197;LON;141;SPD;0
ALTITUDE;20.0
DEBUG;DEBUG10.0;DEBUG2;0.0;DEBUG3;0.0;DEBUG4;0.0
ATTITUDE;ANGX;0.0;ANGY;0.0;HEAD;11.0
STATUS;CYCLETIME;2832;I2CERR;0;PRESENT;31;MODE;0
RAW_IMU;AX;-3.0;AY;0.0;AZ;257.0;GX;0.0;GY;0.0;GZ;0.0;MAGX;-1.0;MAGY;61.0;MAGZ;3.0
MOT;0;1000.0;1;1000.0;2;1000.0;3;1000.0;4;0.0;5;0.0;6;0.0;7;0.0;
RC;ROLL;1500.0;PITCH;1500.0;YAW;1500.0;THROTTLE;1500.0;AUX1;1500.0;AUX2;1500.0;AUX3;1500.0;AUX4;1500.0
GPS;ALT;0;LAT;197;LON;141;SPD;0
ALTITUDE;20.0
DEBUG;DEBUG10.0;DEBUG2;0.0;DEBUG3;0.0;DEBUG4;0.0
ATTITUDE;ANGX;0.0;ANGY;0.0;HEAD;11.0
STATUS;CYCLETIME;2756;I2CERR;0;PRESENT;31;MODE;0
RAW_IMU;AX;-3.0;AY;0.0;AZ;257.0;GX;0.0;GY;0.0;GZ;0.0;MAGX;-1.0;MAGY;61.0;MAGZ;3.0
MOT;0;1000.0;1;1000.0;2;1000.0;3;1000.0;4;0.0;5;0.0;6;0.0;7;0.0;
RC;ROLL;1500.0;PITCH;1500.0;YAW;1500.0;THROTTLE;1500.0;AUX1;1500.0;AUX2;1500.0;AUX3;1500.0;AUX4;1500.0
GPS;ALT;0;LAT;197;LON;141;SPD;0
ALTITUDE;20.0
DEBUG;DEBUG10.0;DEBUG2;0.0;DEBUG3;0.0;DEBUG4;0.0
ATTITUDE;ANGX;0.0;ANGY;0.0;HEAD;11.0
STATUS;CYCLETIME;2768;I2CERR;0;PRESENT;31;MODE;0
RAW_IMU;AX;-3.0;AY;0.0;AZ;257.0;GX;0.0;GY;0.0;GZ;0.0;MAGX;-1.0;MAGY;61.0;MAGZ;3.0
MOT;0;1000.0;1;1000.0;2;1000.0;3;1000.0;4;0.0;5;0.0;6;0.0;7;0.0;
RC;ROLL;1500.0;PITCH;1500.0;YAW;1500.0;THROTTLE;1500.0;AUX1;1500.0;AUX2;1500.0;AUX3;1500.0;AUX4;1500.0
GPS;ALT;0;LAT;197;LON;141;SPD;0
ALTITUDE;20.0
DEBUG;DEBUG10.0;DEBUG2;0.0;DEBUG3;0.0;DEBUG4;0.0
ATTITUDE;ANGX;0.0;ANGY;0.0;HEAD;11.0
STATUS;CYCLETIME;2860;I2CERR;0;PRESENT;31;MODE;0
RAW_IMU;AX;-3.0;AY;0.0;AZ;258.0;GX;0.0;GY;0.0;GZ;0.0;MAGX;-2.0;MAGY;61.0;MAGZ;4.0
MOT;0;1000.0;1;1000.0;2;1000.0;3;1000.0;4;0.0;5;0.0;6;0.0;7;0.0;
RC;ROLL;1500.0;PITCH;1500.0;YAW;1500.0;THROTTLE;1500.0;AUX1;1500.0;AUX2;1500.0;AUX3;1500.0;AUX4;1500.0
GPS;ALT;0;LAT;197;LON;141;SPD;0
ALTITUDE;20.0
DEBUG;DEBUG10.0;DEBUG2;0.0;DEBUG3;0.0;DEBUG4;0.0
ATTITUDE;ANGX;0.0;ANGY;0.0;HEAD;11.0
STATUS;CYCLETIME;2748;I2CERR;0;PRESENT;31;MODE;0
RAW_IMU;AX;-3.0;AY;0.0;AZ;257.0;GX;0.0;GY;0.0;GZ;0.0;MAGX;-2.0;MAGY;61.0;MAGZ;4.0
MOT;0;1000.0;1;1000.0;2;1000.0;3;1000.0;4;0.0;5;0.0;6;0.0;7;0.0;
RC;ROLL;1500.0;PITCH;1500.0;YAW;1500.0;THROTTLE;1500.0;AUX1;1500.0;AUX2;1500.0;AUX3;1500.0;AUX4;1500.0
GPS;ALT;0;LAT;197;LON;141;SPD;0
ALTITUDE;20.0
DEBUG;DEBUG10.0;DEBUG2;0.0;DEBUG3;0.0;DEBUG4;0.0
ATTITUDE;ANGX;0.0;ANGY;0.0;HEAD;11.0
STATUS;CYCLETIME;2724;I2CERR;0;PRESENT;31;MODE;0
RAW_IMU;AX;-3.0;AY;0.0;AZ;257.0;GX;0.0;GY;0.0;GZ;0.0;MAGX;-1.0;MAGY;61.0;MAGZ;3.0
MOT;0;1000.0;1;1000.0;2;1000.0;3;1000.0;4;0.0;5;0.0;6;0.0;7;0.0;
RC;ROLL;1500.0;PITCH;1500.0;YAW;1500.0;THROTTLE;1500.0;AUX1;1500.0;AUX2;1500.0;AUX3;1500.0;AUX4;1500.0
GPS;ALT;0;LAT;197;LON;141;SPD;0
ALTITUDE;20.0
DEBUG;DEBUG10.0;DEBUG2;0.0;DEBUG3;0.0;DEBUG4;0.0
ATTITUDE;ANGX;0.0;ANGY;0.0;HEAD;11.0
STATUS;CYCLETIME;2748;I2CERR;0;PRESENT;31;MODE;0
RAW_IMU;AX;-4.0;AY;0.0;AZ;257.0;GX;0.0;GY;0.0;GZ;0.0;MAGX;-1.0;MAGY;61.0;MAGZ;3.0
MOT;0;1000.0;1;1000.0;2;1000.0;3;1000.0;4;0.0;5;0.0;6;0.0;7;0.0;
RC;ROLL;1500.0;PITCH;1500.0;YAW;1500.0;THROTTLE;1500.0;AUX1;1500.0;AUX2;1500.0;AUX3;1500.0;AUX4;1500.0
GPS;ALT;0;LAT;197;LON;141;SPD;0
ALTITUDE;20.0
DEBUG;DEBUG10.0;DEBUG2;0.0;DEBUG3;0.0;DEBUG4;0.0
ATTITUDE;ANGX;0.0;ANGY;0.0;HEAD;11.0
STATUS;CYCLETIME;2764;I2CERR;0;PRESENT;31;MODE;0
RAW_IMU;AX;-4.0;AY;0.0;AZ;257.0;GX;0.0;GY;0.0;GZ;0.0;MAGX;-1.0;MAGY;61.0;MAGZ;4.0
MOT;0;1000.0;1;1000.0;2;1000.0;3;1000.0;4;0.0;5;0.0;6;0.0;7;0.0;
RC;ROLL;1500.0;PITCH;1500.0;YAW;1500.0;THROTTLE;1500.0;AUX1;1500.0;AUX2;1500.0;AUX3;1500.0;AUX4;1500.0
GPS;ALT;0;LAT;197;LON;141;SPD;0
ALTITUDE;20.0
DEBUG;DEBUG10.0;DEBUG2;0.0;DEBUG3;0.0;DEBUG4;0.0
ATTITUDE;ANGX;0.0;ANGY;0.0;HEAD;11.0
STATUS;CYCLETIME;2772;I2CERR;0;PRESENT;31;MODE;0
RAW_IMU;AX;-3.0;AY;0.0;AZ;257.0;GX;0.0;GY;0.0;GZ;0.0;MAGX;-1.0;MAGY;61.0;MAGZ;4.0
MOT;0;1000.0;1;1000.0;2;1000.0;3;1000.0;4;0.0;5;0.0;6;0.0;7;0.0;
RC;ROLL;1500.0;PITCH;1500.0;YAW;1500.0;THROTTLE;1500.0;AUX1;1500.0;AUX2;1500.0;AUX3;1500.0;AUX4;1500.0
GPS;ALT;0;LAT;197;LON;141;SPD;0
ALTITUDE;20.0
DEBUG;DEBUG10.0;DEBUG2;0.0;DEBUG3;0.0;DEBUG4;0.0
ATTITUDE;ANGX;0.0;ANGY;0.0;HEAD;11.0
STATUS;CYCLETIME;2708;I2CERR;0;PRESENT;31;MODE;0
RAW_IMU;AX;-3.0;AY;0.0;AZ;256.0;GX;0.0;GY;0.0;GZ;0.0;MAGX;-1.0;MAGY;61.0;MAGZ;3.0
MOT;0;1000.0;1;1000.0;2;1000.0;3;1000.0;4;0.0;5;0.0;6;0.0;7;0.0;
RC;ROLL;1500.0;PITCH;1500.0;YAW;1500.0;THROTTLE;1500.0;AUX1;1500.0;AUX2;1500.0;AUX3;1500.0;AUX4;1500.0
GPS;ALT;0;LAT;197;LON;141;SPD;0
ALTITUDE;20.0
DEBUG;DEBUG10.0;DEBUG2;0.0;DEBUG3;0.0;DEBUG4;0.0
ATTITUDE;ANGX;0.0;ANGY;0.0;HEAD;11.0
STATUS;CYCLETIME;2772;I2CERR;0;PRESENT;31;MODE;0
RAW_IMU;AX;-3.0;AY;0.0;AZ;256.0;GX;0.0;GY;0.0;GZ;0.0;MAGX;-1.0;MAGY;61.0;MAGZ;3.0
MOT;0;1000.0;1;1000.0;2;1000.0;3;1000.0;4;0.0;5;0.0;6;0.0;7;0.0;
RC;ROLL;1500.0;PITCH;1500.0;YAW;1500.0;THROTTLE;1500.0;AUX1;1500.0;AUX2;1500.0;AUX3;1500.0;AUX4;1500.0
GPS;ALT;0;LAT;197;LON;141;SPD;0
ALTITUDE;20.0
DEBUG;DEBUG10.0;DEBUG2;0.0;DEBUG3;0.0;DEBUG4;0.0
ATTITUDE;ANGX;0.0;ANGY;0.0;HEAD;11.0
STATUS;CYCLETIME;2828;I2CERR;0;PRESENT;31;MODE;0
RAW_IMU;AX;-3.0;AY;0.0;AZ;256.0;GX;0.0;GY;0.0;GZ;0.0;MAGX;-1.0;MAGY;60.0;MAGZ;5.0
MOT;0;1000.0;1;1000.0;2;1000.0;3;1000.0;4;0.0;5;0.0;6;0.0;7;0.0;
RC;ROLL;1500.0;PITCH;1500.0;YAW;1500.0;THROTTLE;1500.0;AUX1;1500.0;AUX2;1500.0;AUX3;1500.0;AUX4;1500.0
GPS;ALT;0;LAT;197;LON;141;SPD;0
ALTITUDE;20.0
DEBUG;DEBUG10.0;DEBUG2;0.0;DEBUG3;0.0;DEBUG4;0.0
ATTITUDE;ANGX;0.0;ANGY;0.0;HEAD;11.0
STATUS;CYCLETIME;2936;I2CERR;0;PRESENT;31;MODE;0
RAW_IMU;AX;-3.0;AY;0.0;AZ;256.0;GX;0.0;GY;0.0;GZ;0.0;MAGX;-1.0;MAGY;60.0;MAGZ;5.0
MOT;0;1000.0;1;1000.0;2;1000.0;3;1000.0;4;0.0;5;0.0;6;0.0;7;0.0;
RC;ROLL;1500.0;PITCH;1500.0;YAW;1500.0;THROTTLE;1500.0;AUX1;1500.0;AUX2;1500.0;AUX3;1500.0;AUX4;1500.0
GPS;ALT;0;LAT;197;LON;141;SPD;0
ALTITUDE;20.0
DEBUG;DEBUG10.0;DEBUG2;0.0;DEBUG3;0.0;DEBUG4;0.0
ATTITUDE;ANGX;0.0;ANGY;0.0;HEAD;11.0
STATUS;CYCLETIME;2688;I2CERR;0;PRESENT;31;MODE;0
RAW_IMU;AX;-3.0;AY;0.0;AZ;256.0;GX;0.0;GY;0.0;GZ;0.0;MAGX;-2.0;MAGY;61.0;MAGZ;3.0
MOT;0;1000.0;1;1000.0;2;1000.0;3;1000.0;4;0.0;5;0.0;6;0.0;7;0.0;
RC;ROLL;1500.0;PITCH;1500.0;YAW;1500.0;THROTTLE;1500.0;AUX1;1500.0;AUX2;1500.0;AUX3;1500.0;AUX4;1500.0
GPS;ALT;0;LAT;197;LON;141;SPD;0
ALTITUDE;20.0
DEBUG;DEBUG10.0;DEBUG2;0.0;DEBUG3;0.0;DEBUG4;0.0
ATTITUDE;ANGX;0.0;ANGY;0.0;HEAD;11.0
STATUS;CYCLETIME;2796;I2CERR;0;PRESENT;31;MODE;0
RAW_IMU;AX;-3.0;AY;0.0;AZ;257.0;GX;0.0;GY;0.0;GZ;0.0;MAGX;-2.0;MAGY;61.0;MAGZ;3.0
MOT;0;1000.0;1;1000.0;2;1000.0;3;1000.0;4;0.0;5;0.0;6;0.0;7;0.0;
RC;ROLL;1500.0;PITCH;1500.0;YAW;1500.0;THROTTLE;1500.0;AUX1;1500.0;AUX2;1500.0;AUX3;1500.0;AUX4;1500.0
GPS;ALT;0;LAT;197;LON;141;SPD;0
ALTITUDE;20.0
DEBUG;DEBUG10.0;DEBUG2;0.0;DEBUG3;0.0;DEBUG4;0.0
ATTITUDE;ANGX;0.0;ANGY;0.0;HEAD;11.0
STATUS;CYCLETIME;2980;I2CERR;0;PRESENT;31;MODE;0
RAW_IMU;AX;-3.0;AY;0.0;AZ;256.0;GX;0.0;GY;0.0;GZ;0.0;MAGX;-2.0;MAGY;61.0;MAGZ;5.0
MOT;0;1000.0;1;1000.0;2;1000.0;3;1000.0;4;0.0;5;0.0;6;0.0;7;0.0;
RC;ROLL;1500.0;PITCH;1500.0;YAW;1500.0;THROTTLE;1500.0;AUX1;1500.0;AUX2;1500.0;AUX3;1500.0;AUX4;1500.0
GPS;ALT;0;LAT;197;LON;141;SPD;0
ALTITUDE;20.0
DEBUG;DEBUG10.0;DEBUG2;0.0;DEBUG3;0.0;DEBUG4;0.0
ATTITUDE;ANGX;0.0;ANGY;0.0;HEAD;11.0
STATUS;CYCLETIME;2772;I2CERR;0;PRESENT;31;MODE;0
RAW_IMU;AX;-3.0;AY;0.0;AZ;257.0;GX;0.0;GY;0.0;GZ;0.0;MAGX;-2.0;MAGY;61.0;MAGZ;5.0
MOT;0;1000.0;1;1000.0;2;1000.0;3;1000.0;4;0.0;5;0.0;6;0.0;7;0.0;
RC;ROLL;1500.0;PITCH;1500.0;YAW;1500.0;THROTTLE;1500.0;AUX1;1500.0;AUX2;1500.0;AUX3;1500.0;AUX4;1500.0
GPS;ALT;0;LAT;197;LON;141;SPD;0
ALTITUDE;20.0
DEBUG;DEBUG10.0;DEBUG2;0.0;DEBUG3;0.0;DEBUG4;0.0
ATTITUDE;ANGX;0.0;ANGY;0.0;HEAD;11.0
STATUS;CYCLETIME;2748;I2CERR;0;PRESENT;31;MODE;0
RAW_IMU;AX;-3.0;AY;0.0;AZ;256.0;GX;0.0;GY;0.0;GZ;0.0;MAGX;-1.0;MAGY;61.0;MAGZ;3.0
MOT;0;1000.0;1;1000.0;2;1000.0;3;1000.0;4;0.0;5;0.0;6;0.0;7;0.0;
RC;ROLL;1500.0;PITCH;1500.0;YAW;1500.0;THROTTLE;1500.0;AUX1;1500.0;AUX2;1500.0;AUX3;1500.0;AUX4;1500.0
GPS;ALT;0;LAT;197;LON;141;SPD;0
ALTITUDE;20.0
DEBUG;DEBUG10.0;DEBUG2;0.0;DEBUG3;0.0;DEBUG4;0.0
ATTITUDE;ANGX;0.0;ANGY;0.0;HEAD;11.0
STATUS;CYCLETIME;2856;I2CERR;0;PRESENT;31;MODE;0
RAW_IMU;AX;-3.0;AY;0.0;AZ;257.0;GX;0.0;GY;0.0;GZ;0.0;MAGX;-1.0;MAGY;61.0;MAGZ;3.0
MOT;0;1000.0;1;1000.0;2;1000.0;3;1000.0;4;0.0;5;0.0;6;0.0;7;0.0;
RC;ROLL;1500.0;PITCH;1500.0;YAW;1500.0;THROTTLE;1500.0;AUX1;1500.0;AUX2;1500.0;AUX3;1500.0;AUX4;1500.0
GPS;ALT;0;LAT;197;LON;141;SPD;0
ALTITUDE;20.0
DEBUG;DEBUG10.0;DEBUG2;0.0;DEBUG3;0.0;DEBUG4;0.0
ATTITUDE;ANGX;0.0;ANGY;0.0;HEAD;11.0
STATUS;CYCLETIME;2724;I2CERR;0;PRESENT;31;MODE;0
RAW_IMU;AX;-3.0;AY;0.0;AZ;257.0;GX;0.0;GY;0.0;GZ;0.0;MAGX;-1.0;MAGY;61.0;MAGZ;4.0
MOT;0;1000.0;1;1000.0;2;1000.0;3;1000.0;4;0.0;5;0.0;6;0.0;7;0.0;
RC;ROLL;1500.0;PITCH;1500.0;YAW;1500.0;THROTTLE;1500.0;AUX1;1500.0;AUX2;1500.0;AUX3;1500.0;AUX4;1500.0
GPS;ALT;0;LAT;197;LON;141;SPD;0
ALTITUDE;20.0
DEBUG;DEBUG10.0;DEBUG2;0.0;DEBUG3;0.0;DEBUG4;0.0
ATTITUDE;ANGX;0.0;ANGY;0.0;HEAD;11.0
STATUS;CYCLETIME;2708;I2CERR;0;PRESENT;31;MODE;0
RAW_IMU;AX;-3.0;AY;0.0;AZ;257.0;GX;0.0;GY;0.0;GZ;0.0;MAGX;-1.0;MAGY;61.0;MAGZ;4.0
MOT;0;1000.0;1;1000.0;2;1000.0;3;1000.0;4;0.0;5;0.0;6;0.0;7;0.0;
RC;ROLL;1500.0;PITCH;1500.0;YAW;1500.0;THROTTLE;1500.0;AUX1;1500.0;AUX2;1500.0;AUX3;1500.0;AUX4;1500.0
GPS;ALT;0;LAT;197;LON;141;SPD;0
ALTITUDE;20.0
DEBUG;DEBUG10.0;DEBUG2;0.0;DEBUG3;0.0;DEBUG4;0.0
ATTITUDE;ANGX;0.0;ANGY;0.0;HEAD;11.0
STATUS;CYCLETIME;2728;I2CERR;0;PRESENT;31;MODE;0
RAW_IMU;AX;-3.0;AY;0.0;AZ;257.0;GX;0.0;GY;0.0;GZ;0.0;MAGX;-2.0;MAGY;61.0;MAGZ;3.0
MOT;0;1000.0;1;1000.0;2;1000.0;3;1000.0;4;0.0;5;0.0;6;0.0;7;0.0;
RC;ROLL;1500.0;PITCH;1500.0;YAW;1500.0;THROTTLE;1500.0;AUX1;1500.0;AUX2;1500.0;AUX3;1500.0;AUX4;1500.0
GPS;ALT;0;LAT;197;LON;141;SPD;0
ALTITUDE;20.0
DEBUG;DEBUG10.0;DEBUG2;0.0;DEBUG3;0.0;DEBUG4;0.0
ATTITUDE;ANGX;0.0;ANGY;0.0;HEAD;11.0
STATUS;CYCLETIME;2976;I2CERR;0;PRESENT;31;MODE;0
RAW_IMU;AX;-3.0;AY;0.0;AZ;257.0;GX;0.0;GY;0.0;GZ;0.0;MAGX;-2.0;MAGY;61.0;MAGZ;3.0
MOT;0;1000.0;1;1000.0;2;1000.0;3;1000.0;4;0.0;5;0.0;6;0.0;7;0.0;
RC;ROLL;1500.0;PITCH;1500.0;YAW;1500.0;THROTTLE;1500.0;AUX1;1500.0;AUX2;1500.0;AUX3;1500.0;AUX4;1500.0
GPS;ALT;0;LAT;197;LON;141;SPD;0
ALTITUDE;20.0
DEBUG;DEBUG10.0;DEBUG2;0.0;DEBUG3;0.0;DEBUG4;0.0
ATTITUDE;ANGX;0.0;ANGY;0.0;HEAD;11.0
STATUS;CYCLETIME;2716;I2CERR;0;PRESENT;31;MODE;0
RAW_IMU;AX;-3.0;AY;0.0;AZ;257.0;GX;0.0;GY;0.0;GZ;0.0;MAGX;-2.0;MAGY;61.0;MAGZ;3.0
MOT;0;1000.0;1;1000.0;2;1000.0;3;1000.0;4;0.0;5;0.0;6;0.0;7;0.0;
RC;ROLL;1500.0;PITCH;1500.0;YAW;1500.0;THROTTLE;1500.0;AUX1;1500.0;AUX2;1500.0;AUX3;1500.0;AUX4;1500.0
GPS;ALT;0;LAT;197;LON;141;SPD;0
ALTITUDE;20.0
DEBUG;DEBUG10.0;DEBUG2;0.0;DEBUG3;0.0;DEBUG4;0.0
ATTITUDE;ANGX;0.0;ANGY;0.0;HEAD;11.0
STATUS;CYCLETIME;2860;I2CERR;0;PRESENT;31;MODE;0
RAW_IMU;AX;-3.0;AY;0.0;AZ;257.0;GX;0.0;GY;0.0;GZ;0.0;MAGX;-2.0;MAGY;61.0;MAGZ;3.0
MOT;0;1000.0;1;1000.0;2;1000.0;3;1000.0;4;0.0;5;0.0;6;0.0;7;0.0;
RC;ROLL;1500.0;PITCH;1500.0;YAW;1500.0;THROTTLE;1500.0;AUX1;1500.0;AUX2;1500.0;AUX3;1500.0;AUX4;1500.0
GPS;ALT;0;LAT;197;LON;141;SPD;0
ALTITUDE;20.0
DEBUG;DEBUG10.0;DEBUG2;0.0;DEBUG3;0.0;DEBUG4;0.0
ATTITUDE;ANGX;0.0;ANGY;0.0;HEAD;11.0
STATUS;CYCLETIME;2836;I2CERR;0;PRESENT;31;MODE;0
RAW_IMU;AX;-2.0;AY;0.0;AZ;257.0;GX;0.0;GY;0.0;GZ;0.0;MAGX;-2.0;MAGY;61.0;MAGZ;3.0
MOT;0;1000.0;1;1000.0;2;1000.0;3;1000.0;4;0.0;5;0.0;6;0.0;7;0.0;
RC;ROLL;1500.0;PITCH;1500.0;YAW;1500.0;THROTTLE;1500.0;AUX1;1500.0;AUX2;1500.0;AUX3;1500.0;AUX4;1500.0
GPS;ALT;0;LAT;197;LON;141;SPD;0
ALTITUDE;20.0
DEBUG;DEBUG10.0;DEBUG2;0.0;DEBUG3;0.0;DEBUG4;0.0
ATTITUDE;ANGX;0.0;ANGY;0.0;HEAD;12.0
STATUS;CYCLETIME;2772;I2CERR;0;PRESENT;31;MODE;0
RAW_IMU;AX;-3.0;AY;0.0;AZ;257.0;GX;0.0;GY;0.0;GZ;0.0;MAGX;-2.0;MAGY;62.0;MAGZ;4.0
MOT;0;1000.0;1;1000.0;2;1000.0;3;1000.0;4;0.0;5;0.0;6;0.0;7;0.0;
RC;ROLL;1500.0;PITCH;1500.0;YAW;1500.0;THROTTLE;1500.0;AUX1;1500.0;AUX2;1500.0;AUX3;1500.0;AUX4;1500.0
GPS;ALT;0;LAT;197;LON;141;SPD;0
ALTITUDE;20.0
DEBUG;DEBUG10.0;DEBUG2;0.0;DEBUG3;0.0;DEBUG4;0.0
ATTITUDE;ANGX;0.0;ANGY;0.0;HEAD;12.0
STATUS;CYCLETIME;2740;I2CERR;0;PRESENT;31;MODE;0
RAW_IMU;AX;-3.0;AY;0.0;AZ;257.0;GX;0.0;GY;0.0;GZ;0.0;MAGX;-2.0;MAGY;62.0;MAGZ;4.0
MOT;0;1000.0;1;1000.0;2;1000.0;3;1000.0;4;0.0;5;0.0;6;0.0;7;0.0;
RC;ROLL;1500.0;PITCH;1500.0;YAW;1500.0;THROTTLE;1500.0;AUX1;1500.0;AUX2;1500.0;AUX3;1500.0;AUX4;1500.0
GPS;ALT;0;LAT;197;LON;141;SPD;0
ALTITUDE;20.0
DEBUG;DEBUG10.0;DEBUG2;0.0;DEBUG3;0.0;DEBUG4;0.0
ATTITUDE;ANGX;0.0;ANGY;0.0;HEAD;12.0
STATUS;CYCLETIME;2740;I2CERR;0;PRESENT;31;MODE;0
RAW_IMU;AX;-3.0;AY;0.0;AZ;256.0;GX;0.0;GY;0.0;GZ;0.0;MAGX;-1.0;MAGY;61.0;MAGZ;4.0
MOT;0;1000.0;1;1000.0;2;1000.0;3;1000.0;4;0.0;5;0.0;6;0.0;7;0.0;
RC;ROLL;1500.0;PITCH;1500.0;YAW;1500.0;THROTTLE;1500.0;AUX1;1500.0;AUX2;1500.0;AUX3;1500.0;AUX4;1500.0
GPS;ALT;0;LAT;197;LON;141;SPD;0
ALTITUDE;20.0
DEBUG;DEBUG10.0;DEBUG2;0.0;DEBUG3;0.0;DEBUG4;0.0
ATTITUDE;ANGX;0.0;ANGY;0.0;HEAD;12.0
STATUS;CYCLETIME;2976;I2CERR;0;PRESENT;31;MODE;0
RAW_IMU;AX;-3.0;AY;0.0;AZ;256.0;GX;0.0;GY;0.0;GZ;0.0;MAGX;-1.0;MAGY;61.0;MAGZ;4.0
MOT;0;1000.0;1;1000.0;2;1000.0;3;1000.0;4;0.0;5;0.0;6;0.0;7;0.0;
RC;ROLL;1500.0;PITCH;1500.0;YAW;1500.0;THROTTLE;1500.0;AUX1;1500.0;AUX2;1500.0;AUX3;1500.0;AUX4;1500.0
GPS;ALT;0;LAT;197;LON;141;SPD;0
ALTITUDE;20.0
DEBUG;DEBUG10.0;DEBUG2;0.0;DEBUG3;0.0;DEBUG4;0.0
ATTITUDE;ANGX;0.0;ANGY;0.0;HEAD;12.0
STATUS;CYCLETIME;2736;I2CERR;0;PRESENT;31;MODE;0
RAW_IMU;AX;-3.0;AY;0.0;AZ;257.0;GX;0.0;GY;0.0;GZ;0.0;MAGX;-2.0;MAGY;61.0;MAGZ;4.0
MOT;0;1000.0;1;1000.0;2;1000.0;3;1000.0;4;0.0;5;0.0;6;0.0;7;0.0;
RC;ROLL;1500.0;PITCH;1500.0;YAW;1500.0;THROTTLE;1500.0;AUX1;1500.0;AUX2;1500.0;AUX3;1500.0;AUX4;1500.0
GPS;ALT;0;LAT;197;LON;141;SPD;0
ALTITUDE;20.0
DEBUG;DEBUG10.0;DEBUG2;0.0;DEBUG3;0.0;DEBUG4;0.0
ATTITUDE;ANGX;0.0;ANGY;0.0;HEAD;12.0
STATUS;CYCLETIME;2708;I2CERR;0;PRESENT;31;MODE;0
RAW_IMU;AX;-3.0;AY;0.0;AZ;257.0;GX;0.0;GY;0.0;GZ;0.0;MAGX;-2.0;MAGY;61.0;MAGZ;4.0
MOT;0;1000.0;1;1000.0;2;1000.0;3;1000.0;4;0.0;5;0.0;6;0.0;7;0.0;
RC;ROLL;1500.0;PITCH;1500.0;YAW;1500.0;THROTTLE;1500.0;AUX1;1500.0;AUX2;1500.0;AUX3;1500.0;AUX4;1500.0
GPS;ALT;0;LAT;197;LON;141;SPD;0
ALTITUDE;20.0
DEBUG;DEBUG10.0;DEBUG2;0.0;DEBUG3;0.0;DEBUG4;0.0
ATTITUDE;ANGX;0.0;ANGY;0.0;HEAD;12.0
STATUS;CYCLETIME;2772;I2CERR;0;PRESENT;31;MODE;0
RAW_IMU;AX;-4.0;AY;0.0;AZ;257.0;GX;0.0;GY;0.0;GZ;0.0;MAGX;-1.0;MAGY;61.0;MAGZ;4.0
MOT;0;1000.0;1;1000.0;2;1000.0;3;1000.0;4;0.0;5;0.0;6;0.0;7;0.0;
RC;ROLL;1500.0;PITCH;1500.0;YAW;1500.0;THROTTLE;1500.0;AUX1;1500.0;AUX2;1500.0;AUX3;1500.0;AUX4;1500.0
GPS;ALT;0;LAT;197;LON;141;SPD;0
ALTITUDE;20.0
DEBUG;DEBUG10.0;DEBUG2;0.0;DEBUG3;0.0;DEBUG4;0.0
ATTITUDE;ANGX;0.0;ANGY;0.0;HEAD;12.0
STATUS;CYCLETIME;2748;I2CERR;0;PRESENT;31;MODE;0
RAW_IMU;AX;-3.0;AY;0.0;AZ;257.0;GX;0.0;GY;0.0;GZ;0.0;MAGX;-1.0;MAGY;61.0;MAGZ;4.0
MOT;0;1000.0;1;1000.0;2;1000.0;3;1000.0;4;0.0;5;0.0;6;0.0;7;0.0;
RC;ROLL;1500.0;PITCH;1500.0;YAW;1500.0;THROTTLE;1500.0;AUX1;1500.0;AUX2;1500.0;AUX3;1500.0;AUX4;1500.0
GPS;ALT;0;LAT;197;LON;141;SPD;0
ALTITUDE;20.0
DEBUG;DEBUG10.0;DEBUG2;0.0;DEBUG3;0.0;DEBUG4;0.0
ATTITUDE;ANGX;0.0;ANGY;0.0;HEAD;12.0
STATUS;CYCLETIME;2784;I2CERR;0;PRESENT;31;MODE;0
RAW_IMU;AX;-3.0;AY;0.0;AZ;257.0;GX;0.0;GY;0.0;GZ;0.0;MAGX;0.0;MAGY;61.0;MAGZ;3.0
MOT;0;1000.0;1;1000.0;2;1000.0;3;1000.0;4;0.0;5;0.0;6;0.0;7;0.0;
RC;ROLL;1500.0;PITCH;1500.0;YAW;1500.0;THROTTLE;1500.0;AUX1;1500.0;AUX2;1500.0;AUX3;1500.0;AUX4;1500.0
GPS;ALT;0;LAT;197;LON;141;SPD;0
ALTITUDE;20.0
DEBUG;DEBUG10.0;DEBUG2;0.0;DEBUG3;0.0;DEBUG4;0.0
ATTITUDE;ANGX;0.0;ANGY;0.0;HEAD;11.0
STATUS;CYCLETIME;2744;I2CERR;0;PRESENT;31;MODE;0
RAW_IMU;AX;-4.0;AY;0.0;AZ;256.0;GX;0.0;GY;0.0;GZ;0.0;MAGX;0.0;MAGY;61.0;MAGZ;3.0
MOT;0;1000.0;1;1000.0;2;1000.0;3;1000.0;4;0.0;5;0.0;6;0.0;7;0.0;
RC;ROLL;1500.0;PITCH;1500.0;YAW;1500.0;THROTTLE;1500.0;AUX1;1500.0;AUX2;1500.0;AUX3;1500.0;AUX4;1500.0
GPS;ALT;0;LAT;197;LON;141;SPD;0
ALTITUDE;20.0
DEBUG;DEBUG10.0;DEBUG2;0.0;DEBUG3;0.0;DEBUG4;0.0
ATTITUDE;ANGX;0.0;ANGY;0.0;HEAD;11.0
STATUS;CYCLETIME;2944;I2CERR;0;PRESENT;31;MODE;0
RAW_IMU;AX;-3.0;AY;0.0;AZ;256.0;GX;0.0;GY;0.0;GZ;0.0;MAGX;-2.0;MAGY;61.0;MAGZ;4.0
MOT;0;1000.0;1;1000.0;2;1000.0;3;1000.0;4;0.0;5;0.0;6;0.0;7;0.0;
RC;ROLL;1500.0;PITCH;1500.0;YAW;1500.0;THROTTLE;1500.0;AUX1;1500.0;AUX2;1500.0;AUX3;1500.0;AUX4;1500.0
GPS;ALT;0;LAT;197;LON;141;SPD;0
ALTITUDE;20.0
DEBUG;DEBUG10.0;DEBUG2;0.0;DEBUG3;0.0;DEBUG4;0.0
ATTITUDE;ANGX;0.0;ANGY;0.0;HEAD;11.0
STATUS;CYCLETIME;2720;I2CERR;0;PRESENT;31;MODE;0
RAW_IMU;AX;-3.0;AY;0.0;AZ;256.0;GX;0.0;GY;0.0;GZ;0.0;MAGX;-2.0;MAGY;61.0;MAGZ;4.0
MOT;0;1000.0;1;1000.0;2;1000.0;3;1000.0;4;0.0;5;0.0;6;0.0;7;0.0;
RC;ROLL;1500.0;PITCH;1500.0;YAW;1500.0;THROTTLE;1500.0;AUX1;1500.0;AUX2;1500.0;AUX3;1500.0;AUX4;1500.0
GPS;ALT;0;LAT;197;LON;141;SPD;0
ALTITUDE;20.0
DEBUG;DEBUG10.0;DEBUG2;0.0;DEBUG3;0.0;DEBUG4;0.0
ATTITUDE;ANGX;0.0;ANGY;0.0;HEAD;11.0
STATUS;CYCLETIME;2748;I2CERR;0;PRESENT;31;MODE;0
RAW_IMU;AX;-3.0;AY;0.0;AZ;256.0;GX;0.0;GY;0.0;GZ;0.0;MAGX;-1.0;MAGY;62.0;MAGZ;4.0
MOT;0;1000.0;1;1000.0;2;1000.0;3;1000.0;4;0.0;5;0.0;6;0.0;7;0.0;
RC;ROLL;1500.0;PITCH;1500.0;YAW;1500.0;THROTTLE;1500.0;AUX1;1500.0;AUX2;1500.0;AUX3;1500.0;AUX4;1500.0
GPS;ALT;0;LAT;197;LON;141;SPD;0
ALTITUDE;20.0
DEBUG;DEBUG10.0;DEBUG2;0.0;DEBUG3;0.0;DEBUG4;0.0
ATTITUDE;ANGX;0.0;ANGY;0.0;HEAD;11.0
STATUS;CYCLETIME;2872;I2CERR;0;PRESENT;31;MODE;0
RAW_IMU;AX;-3.0;AY;0.0;AZ;257.0;GX;0.0;GY;0.0;GZ;0.0;MAGX;-1.0;MAGY;62.0;MAGZ;4.0
MOT;0;1000.0;1;1000.0;2;1000.0;3;1000.0;4;0.0;5;0.0;6;0.0;7;0.0;
RC;ROLL;1500.0;PITCH;1500.0;YAW;1500.0;THROTTLE;1500.0;AUX1;1500.0;AUX2;1500.0;AUX3;1500.0;AUX4;1500.0
GPS;ALT;0;LAT;197;LON;141;SPD;0
ALTITUDE;20.0
DEBUG;DEBUG10.0;DEBUG2;0.0;DEBUG3;0.0;DEBUG4;0.0
ATTITUDE;ANGX;0.0;ANGY;0.0;HEAD;11.0
STATUS;CYCLETIME;2996;I2CERR;0;PRESENT;31;MODE;0
RAW_IMU;AX;-3.0;AY;0.0;AZ;257.0;GX;0.0;GY;0.0;GZ;0.0;MAGX;-1.0;MAGY;60.0;MAGZ;5.0
MOT;0;1000.0;1;1000.0;2;1000.0;3;1000.0;4;0.0;5;0.0;6;0.0;7;0.0;
RC;ROLL;1500.0;PITCH;1500.0;YAW;1500.0;THROTTLE;1500.0;AUX1;1500.0;AUX2;1500.0;AUX3;1500.0;AUX4;1500.0
GPS;ALT;0;LAT;197;LON;141;SPD;0
ALTITUDE;20.0
DEBUG;DEBUG10.0;DEBUG2;0.0;DEBUG3;0.0;DEBUG4;0.0
ATTITUDE;ANGX;0.0;ANGY;0.0;HEAD;11.0
STATUS;CYCLETIME;2696;I2CERR;0;PRESENT;31;MODE;0
RAW_IMU;AX;-3.0;AY;0.0;AZ;257.0;GX;0.0;GY;0.0;GZ;0.0;MAGX;-1.0;MAGY;60.0;MAGZ;5.0
MOT;0;1000.0;1;1000.0;2;1000.0;3;1000.0;4;0.0;5;0.0;6;0.0;7;0.0;
RC;ROLL;1500.0;PITCH;1500.0;YAW;1500.0;THROTTLE;1500.0;AUX1;1500.0;AUX2;1500.0;AUX3;1500.0;AUX4;1500.0
GPS;ALT;0;LAT;197;LON;141;SPD;0
ALTITUDE;20.0
DEBUG;DEBUG10.0;DEBUG2;0.0;DEBUG3;0.0;DEBUG4;0.0
ATTITUDE;ANGX;0.0;ANGY;0.0;HEAD;11.0
STATUS;CYCLETIME;2856;I2CERR;0;PRESENT;31;MODE;0
RAW_IMU;AX;-3.0;AY;0.0;AZ;257.0;GX;0.0;GY;0.0;GZ;0.0;MAGX;-2.0;MAGY;61.0;MAGZ;4.0
MOT;0;1000.0;1;1000.0;2;1000.0;3;1000.0;4;0.0;5;0.0;6;0.0;7;0.0;
RC;ROLL;1500.0;PITCH;1500.0;YAW;1500.0;THROTTLE;1500.0;AUX1;1500.0;AUX2;1500.0;AUX3;1500.0;AUX4;1500.0
GPS;ALT;0;LAT;197;LON;141;SPD;0
ALTITUDE;20.0
DEBUG;DEBUG10.0;DEBUG2;0.0;DEBUG3;0.0;DEBUG4;0.0
ATTITUDE;ANGX;0.0;ANGY;0.0;HEAD;11.0
STATUS;CYCLETIME;2744;I2CERR;0;PRESENT;31;MODE;0
RAW_IMU;AX;-3.0;AY;0.0;AZ;257.0;GX;0.0;GY;0.0;GZ;0.0;MAGX;-2.0;MAGY;61.0;MAGZ;4.0
MOT;0;1000.0;1;1000.0;2;1000.0;3;1000.0;4;0.0;5;0.0;6;0.0;7;0.0;
RC;ROLL;1500.0;PITCH;1500.0;YAW;1500.0;THROTTLE;1500.0;AUX1;1500.0;AUX2;1500.0;AUX3;1500.0;AUX4;1500.0
GPS;ALT;0;LAT;197;LON;141;SPD;0
ALTITUDE;20.0
DEBUG;DEBUG10.0;DEBUG2;0.0;DEBUG3;0.0;DEBUG4;0.0
ATTITUDE;ANGX;0.0;ANGY;0.0;HEAD;11.0
STATUS;CYCLETIME;2752;I2CERR;0;PRESENT;31;MODE;0
RAW_IMU;AX;-3.0;AY;0.0;AZ;257.0;GX;0.0;GY;0.0;GZ;0.0;MAGX;-1.0;MAGY;61.0;MAGZ;3.0
MOT;0;1000.0;1;1000.0;2;1000.0;3;1000.0;4;0.0;5;0.0;6;0.0;7;0.0;
RC;ROLL;1500.0;PITCH;1500.0;YAW;1500.0;THROTTLE;1500.0;AUX1;1500.0;AUX2;1500.0;AUX3;1500.0;AUX4;1500.0
GPS;ALT;0;LAT;197;LON;141;SPD;0
ALTITUDE;20.0
DEBUG;DEBUG10.0;DEBUG2;0.0;DEBUG3;0.0;DEBUG4;0.0
ATTITUDE;ANGX;0.0;ANGY;0.0;HEAD;11.0
STATUS;CYCLETIME;2748;I2CERR;0;PRESENT;31;MODE;0
RAW_IMU;AX;-3.0;AY;0.0;AZ;257.0;GX;0.0;GY;0.0;GZ;0.0;MAGX;-1.0;MAGY;61.0;MAGZ;3.0
MOT;0;1000.0;1;1000.0;2;1000.0;3;1000.0;4;0.0;5;0.0;6;0.0;7;0.0;
RC;ROLL;1500.0;PITCH;1500.0;YAW;1500.0;THROTTLE;1500.0;AUX1;1500.0;AUX2;1500.0;AUX3;1500.0;AUX4;1500.0
GPS;ALT;0;LAT;197;LON;141;SPD;0
ALTITUDE;20.0
DEBUG;DEBUG10.0;DEBUG2;0.0;DEBUG3;0.0;DEBUG4;0.0
ATTITUDE;ANGX;0.0;ANGY;0.0;HEAD;11.0
STATUS;CYCLETIME;2716;I2CERR;0;PRESENT;31;MODE;0
RAW_IMU;AX;-3.0;AY;0.0;AZ;256.0;GX;0.0;GY;0.0;GZ;0.0;MAGX;-1.0;MAGY;61.0;MAGZ;3.0
MOT;0;1000.0;1;1000.0;2;1000.0;3;1000.0;4;0.0;5;0.0;6;0.0;7;0.0;
RC;ROLL;1500.0;PITCH;1500.0;YAW;1500.0;THROTTLE;1500.0;AUX1;1500.0;AUX2;1500.0;AUX3;1500.0;AUX4;1500.0
GPS;ALT;0;LAT;197;LON;141;SPD;0
ALTITUDE;20.0
DEBUG;DEBUG10.0;DEBUG2;0.0;DEBUG3;0.0;DEBUG4;0.0
ATTITUDE;ANGX;0.0;ANGY;0.0;HEAD;11.0
STATUS;CYCLETIME;2984;I2CERR;0;PRESENT;31;MODE;0
RAW_IMU;AX;-3.0;AY;0.0;AZ;257.0;GX;0.0;GY;0.0;GZ;0.0;MAGX;-1.0;MAGY;61.0;MAGZ;3.0
MOT;0;1000.0;1;1000.0;2;1000.0;3;1000.0;4;0.0;5;0.0;6;0.0;7;0.0;
RC;ROLL;1500.0;PITCH;1500.0;YAW;1500.0;THROTTLE;1500.0;AUX1;1500.0;AUX2;1500.0;AUX3;1500.0;AUX4;1500.0
GPS;ALT;0;LAT;197;LON;141;SPD;0
ALTITUDE;20.0
DEBUG;DEBUG10.0;DEBUG2;0.0;DEBUG3;0.0;DEBUG4;0.0
ATTITUDE;ANGX;0.0;ANGY;0.0;HEAD;11.0
STATUS;CYCLETIME;2836;I2CERR;0;PRESENT;31;MODE;0
RAW_IMU;AX;-3.0;AY;0.0;AZ;257.0;GX;0.0;GY;0.0;GZ;0.0;MAGX;-2.0;MAGY;62.0;MAGZ;4.0
MOT;0;1000.0;1;1000.0;2;1000.0;3;1000.0;4;0.0;5;0.0;6;0.0;7;0.0;
RC;ROLL;1500.0;PITCH;1500.0;YAW;1500.0;THROTTLE;1500.0;AUX1;1500.0;AUX2;1500.0;AUX3;1500.0;AUX4;1500.0
GPS;ALT;0;LAT;197;LON;141;SPD;0
ALTITUDE;20.0
DEBUG;DEBUG10.0;DEBUG2;0.0;DEBUG3;0.0;DEBUG4;0.0
ATTITUDE;ANGX;0.0;ANGY;0.0;HEAD;11.0
STATUS;CYCLETIME;2776;I2CERR;0;PRESENT;31;MODE;0
RAW_IMU;AX;-3.0;AY;0.0;AZ;257.0;GX;0.0;GY;0.0;GZ;0.0;MAGX;-2.0;MAGY;62.0;MAGZ;4.0
MOT;0;1000.0;1;1000.0;2;1000.0;3;1000.0;4;0.0;5;0.0;6;0.0;7;0.0;
RC;ROLL;1500.0;PITCH;1500.0;YAW;1500.0;THROTTLE;1500.0;AUX1;1500.0;AUX2;1500.0;AUX3;1500.0;AUX4;1500.0
GPS;ALT;0;LAT;197;LON;141;SPD;0
ALTITUDE;20.0
DEBUG;DEBUG10.0;DEBUG2;0.0;DEBUG3;0.0;DEBUG4;0.0
ATTITUDE;ANGX;0.0;ANGY;0.0;HEAD;11.0
STATUS;CYCLETIME;2832;I2CERR;0;PRESENT;31;MODE;0
RAW_IMU;AX;-3.0;AY;0.0;AZ;257.0;GX;0.0;GY;0.0;GZ;0.0;MAGX;-1.0;MAGY;61.0;MAGZ;3.0
MOT;0;1000.0;1;1000.0;2;1000.0;3;1000.0;4;0.0;5;0.0;6;0.0;7;0.0;
RC;ROLL;1500.0;PITCH;1500.0;YAW;1500.0;THROTTLE;1500.0;AUX1;1500.0;AUX2;1500.0;AUX3;1500.0;AUX4;1500.0
GPS;ALT;0;LAT;197;LON;141;SPD;0
ALTITUDE;20.0
DEBUG;DEBUG10.0;DEBUG2;0.0;DEBUG3;0.0;DEBUG4;0.0
ATTITUDE;ANGX;0.0;ANGY;0.0;HEAD;11.0
STATUS;CYCLETIME;2748;I2CERR;0;PRESENT;31;MODE;0
RAW_IMU;AX;-4.0;AY;0.0;AZ;257.0;GX;0.0;GY;0.0;GZ;0.0;MAGX;-1.0;MAGY;61.0;MAGZ;3.0
MOT;0;1000.0;1;1000.0;2;1000.0;3;1000.0;4;0.0;5;0.0;6;0.0;7;0.0;
RC;ROLL;1500.0;PITCH;1500.0;YAW;1500.0;THROTTLE;1500.0;AUX1;1500.0;AUX2;1500.0;AUX3;1500.0;AUX4;1500.0
GPS;ALT;0;LAT;197;LON;141;SPD;0
ALTITUDE;20.0
DEBUG;DEBUG10.0;DEBUG2;0.0;DEBUG3;0.0;DEBUG4;0.0
ATTITUDE;ANGX;0.0;ANGY;0.0;HEAD;11.0
STATUS;CYCLETIME;2752;I2CERR;0;PRESENT;31;MODE;0
RAW_IMU;AX;-3.0;AY;0.0;AZ;257.0;GX;0.0;GY;0.0;GZ;0.0;MAGX;-1.0;MAGY;61.0;MAGZ;3.0
MOT;0;1000.0;1;1000.0;2;1000.0;3;1000.0;4;0.0;5;0.0;6;0.0;7;0.0;
RC;ROLL;1500.0;PITCH;1500.0;YAW;1500.0;THROTTLE;1500.0;AUX1;1500.0;AUX2;1500.0;AUX3;1500.0;AUX4;1500.0
GPS;ALT;0;LAT;197;LON;141;SPD;0
ALTITUDE;20.0
DEBUG;DEBUG10.0;DEBUG2;0.0;DEBUG3;0.0;DEBUG4;0.0
ATTITUDE;ANGX;0.0;ANGY;0.0;HEAD;11.0
STATUS;CYCLETIME;3008;I2CERR;0;PRESENT;31;MODE;0
RAW_IMU;AX;-3.0;AY;0.0;AZ;257.0;GX;0.0;GY;0.0;GZ;0.0;MAGX;-1.0;MAGY;61.0;MAGZ;3.0
MOT;0;1000.0;1;1000.0;2;1000.0;3;1000.0;4;0.0;5;0.0;6;0.0;7;0.0;
RC;ROLL;1500.0;PITCH;1500.0;YAW;1500.0;THROTTLE;1500.0;AUX1;1500.0;AUX2;1500.0;AUX3;1500.0;AUX4;1500.0
GPS;ALT;0;LAT;197;LON;141;SPD;0
ALTITUDE;20.0
DEBUG;DEBUG10.0;DEBUG2;0.0;DEBUG3;0.0;DEBUG4;0.0
ATTITUDE;ANGX;0.0;ANGY;0.0;HEAD;11.0
STATUS;CYCLETIME;2980;I2CERR;0;PRESENT;31;MODE;0
RAW_IMU;AX;-3.0;AY;0.0;AZ;257.0;GX;0.0;GY;0.0;GZ;0.0;MAGX;-1.0;MAGY;62.0;MAGZ;3.0
