IDENT;V;220;TYPE;3
MSP_MOTOR_PINS
STATUS;CYCLETIME;2876;I2CERR;0;PRESENT;23;MODE;11
RAW_IMU;AX;20.0;AY;22.0;AZ;253.0;GX;0.0;GY;0.0;GZ;0.0;MAGX;-1.0;MAGY;-123.0;MAGZ;100.0
MOT;0;1150.0;1;1206.0;2;1150.0;3;1150.0;4;0.0;5;0.0;6;0.0;7;0.0;
RC;ROLL;1495.0;PITCH;1516.0;YAW;1518.0;THROTTLE;1058.0;AUX1;2003.0;AUX2;1500.0;AUX3;1500.0;AUX4;1500.0
ALTITUDE;196.0
DEBUG;DEBUG10.0;DEBUG2;0.0;DEBUG3;196.0;DEBUG4;0.0
ATTITUDE;ANGX;4.0;ANGY;5.0;HEAD;186.0
STATUS;CYCLETIME;2836;I2CERR;0;PRESENT;23;MODE;11
RAW_IMU;AX;22.0;AY;24.0;AZ;254.0;GX;0.0;GY;0.0;GZ;0.0;MAGX;-1.0;MAGY;-123.0;MAGZ;100.0
MOT;0;1150.0;1;1204.0;2;1150.0;3;1150.0;4;0.0;5;0.0;6;0.0;7;0.0;
RC;ROLL;1495.0;PITCH;1516.0;YAW;1518.0;THROTTLE;1058.0;AUX1;2003.0;AUX2;1500.0;AUX3;1500.0;AUX4;1500.0
ALTITUDE;196.0
DEBUG;DEBUG10.0;DEBUG2;0.0;DEBUG3;196.0;DEBUG4;0.0
ATTITUDE;ANGX;4.0;ANGY;5.0;HEAD;186.0
STATUS;CYCLETIME;2920;I2CERR;0;PRESENT;23;MODE;11
RAW_IMU;AX;22.0;AY;24.0;AZ;251.0;GX;0.0;GY;0.0;GZ;0.0;MAGX;-1.0;MAGY;-122.0;MAGZ;100.0
MOT;0;1150.0;1;1206.0;2;1150.0;3;1150.0;4;0.0;5;0.0;6;0.0;7;0.0;
RC;ROLL;1495.0;PITCH;1516.0;YAW;1518.0;THROTTLE;1058.0;AUX1;2003.0;AUX2;1500.0;AUX3;1500.0;AUX4;1500.0
ALTITUDE;196.0
DEBUG;DEBUG10.0;DEBUG2;0.0;DEBUG3;196.0;DEBUG4;0.0
ATTITUDE;ANGX;4.0;ANGY;5.0;HEAD;186.0
STATUS;CYCLETIME;2952;I2CERR;0;PRESENT;23;MODE;11
RAW_IMU;AX;21.0;AY;23.0;AZ;251.0;GX;0.0;GY;0.0;GZ;0.0;MAGX;-1.0;MAGY;-122.0;MAGZ;100.0
MOT;0;1150.0;1;1206.0;2;1150.0;3;1150.0;4;0.0;5;0.0;6;0.0;7;0.0;
RC;ROLL;1495.0;PITCH;1516.0;YAW;1518.0;THROTTLE;1058.0;AUX1;2003.0;AUX2;1500.0;AUX3;1500.0;AUX4;1500.0
ALTITUDE;196.0
DEBUG;DEBUG10.0;DEBUG2;0.0;DEBUG3;196.0;DEBUG4;0.0
ATTITUDE;ANGX;4.0;ANGY;5.0;HEAD;186.0
STATUS;CYCLETIME;2868;I2CERR;0;PRESENT;23;MODE;11
RAW_IMU;AX;21.0;AY;22.0;AZ;250.0;GX;0.0;GY;0.0;GZ;0.0;MAGX;-1.0;MAGY;-123.0;MAGZ;100.0
MOT;0;1150.0;1;1206.0;2;1150.0;3;1150.0;4;0.0;5;0.0;6;0.0;7;0.0;
RC;ROLL;1495.0;PITCH;1516.0;YAW;1518.0;THROTTLE;1058.0;AUX1;2003.0;AUX2;1500.0;AUX3;1500.0;AUX4;1500.0
ALTITUDE;196.0
DEBUG;DEBUG10.0;DEBUG2;0.0;DEBUG3;196.0;DEBUG4;0.0
ATTITUDE;ANGX;4.0;ANGY;5.0;HEAD;186.0
STATUS;CYCLETIME;2800;I2CERR;0;PRESENT;23;MODE;11
RAW_IMU;AX;20.0;AY;22.0;AZ;251.0;GX;0.0;GY;0.0;GZ;0.0;MAGX;-1.0;MAGY;-123.0;MAGZ;100.0
MOT;0;1150.0;1;1206.0;2;1150.0;3;1150.0;4;0.0;5;0.0;6;0.0;7;0.0;
RC;ROLL;1495.0;PITCH;1516.0;YAW;1518.0;THROTTLE;1058.0;AUX1;2003.0;AUX2;1500.0;AUX3;1500.0;AUX4;1500.0
ALTITUDE;196.0
DEBUG;DEBUG10.0;DEBUG2;0.0;DEBUG3;196.0;DEBUG4;0.0
ATTITUDE;ANGX;4.0;ANGY;5.0;HEAD;186.0
STATUS;CYCLETIME;2868;I2CERR;0;PRESENT;23;MODE;11
RAW_IMU;AX;21.0;AY;21.0;AZ;252.0;GX;0.0;GY;0.0;GZ;0.0;MAGX;-1.0;MAGY;-122.0;MAGZ;101.0
MOT;0;1150.0;1;1207.0;2;1150.0;3;1150.0;4;0.0;5;0.0;6;0.0;7;0.0;
RC;ROLL;1495.0;PITCH;1514.0;YAW;1518.0;THROTTLE;1058.0;AUX1;2003.0;AUX2;1500.0;AUX3;1500.0;AUX4;1500.0
ALTITUDE;196.0
DEBUG;DEBUG10.0;DEBUG2;0.0;DEBUG3;196.0;DEBUG4;0.0
ATTITUDE;ANGX;4.0;ANGY;5.0;HEAD;186.0
STATUS;CYCLETIME;2888;I2CERR;0;PRESENT;23;MODE;11
RAW_IMU;AX;22.0;AY;22.0;AZ;249.0;GX;0.0;GY;0.0;GZ;0.0;MAGX;-1.0;MAGY;-122.0;MAGZ;101.0
MOT;0;1150.0;1;1208.0;2;1150.0;3;1150.0;4;0.0;5;0.0;6;0.0;7;0.0;
RC;ROLL;1495.0;PITCH;1514.0;YAW;1518.0;THROTTLE;1058.0;AUX1;2003.0;AUX2;1500.0;AUX3;1500.0;AUX4;1500.0
ALTITUDE;196.0
DEBUG;DEBUG10.0;DEBUG2;0.0;DEBUG3;196.0;DEBUG4;0.0
ATTITUDE;ANGX;4.0;ANGY;5.0;HEAD;186.0
STATUS;CYCLETIME;2880;I2CERR;0;PRESENT;23;MODE;11
RAW_IMU;AX;23.0;AY;22.0;AZ;252.0;GX;0.0;GY;0.0;GZ;0.0;MAGX;-1.0;MAGY;-123.0;MAGZ;99.0
MOT;0;1150.0;1;1204.0;2;1150.0;3;1150.0;4;0.0;5;0.0;6;0.0;7;0.0;
RC;ROLL;1495.0;PITCH;1514.0;YAW;1518.0;THROTTLE;1058.0;AUX1;2003.0;AUX2;1500.0;AUX3;1500.0;AUX4;1500.0
ALTITUDE;196.0
DEBUG;DEBUG10.0;DEBUG2;0.0;DEBUG3;196.0;DEBUG4;0.0
ATTITUDE;ANGX;4.0;ANGY;4.0;HEAD;186.0
STATUS;CYCLETIME;2860;I2CERR;0;PRESENT;23;MODE;11
RAW_IMU;AX;21.0;AY;23.0;AZ;252.0;GX;0.0;GY;0.0;GZ;0.0;MAGX;-1.0;MAGY;-123.0;MAGZ;99.0
MOT;0;1150.0;1;1205.0;2;1150.0;3;1150.0;4;0.0;5;0.0;6;0.0;7;0.0;
RC;ROLL;1497.0;PITCH;1514.0;YAW;1518.0;THROTTLE;1058.0;AUX1;2003.0;AUX2;1500.0;AUX3;1500.0;AUX4;1500.0
ALTITUDE;196.0
DEBUG;DEBUG10.0;DEBUG2;0.0;DEBUG3;196.0;DEBUG4;0.0
ATTITUDE;ANGX;4.0;ANGY;5.0;HEAD;186.0
STATUS;CYCLETIME;2828;I2CERR;0;PRESENT;23;MODE;11
RAW_IMU;AX;23.0;AY;22.0;AZ;250.0;GX;0.0;GY;0.0;GZ;0.0;MAGX;-1.0;MAGY;-123.0;MAGZ;99.0
MOT;0;1150.0;1;1206.0;2;1150.0;3;1150.0;4;0.0;5;0.0;6;0.0;7;0.0;
RC;ROLL;1497.0;PITCH;1514.0;YAW;1518.0;THROTTLE;1058.0;AUX1;2003.0;AUX2;1500.0;AUX3;1500.0;AUX4;1500.0
ALTITUDE;196.0
DEBUG;DEBUG10.0;DEBUG2;0.0;DEBUG3;196.0;DEBUG4;0.0
ATTITUDE;ANGX;4.0;ANGY;5.0;HEAD;186.0
STATUS;CYCLETIME;2880;I2CERR;0;PRESENT;23;MODE;11
RAW_IMU;AX;22.0;AY;22.0;AZ;249.0;GX;0.0;GY;0.0;GZ;0.0;MAGX;-1.0;MAGY;-123.0;MAGZ;99.0
MOT;0;1150.0;1;1205.0;2;1150.0;3;1150.0;4;0.0;5;0.0;6;0.0;7;0.0;
RC;ROLL;1497.0;PITCH;1514.0;YAW;1520.0;THROTTLE;1058.0;AUX1;2003.0;AUX2;1500.0;AUX3;1500.0;AUX4;1500.0
ALTITUDE;196.0
DEBUG;DEBUG10.0;DEBUG2;0.0;DEBUG3;196.0;DEBUG4;0.0
ATTITUDE;ANGX;4.0;ANGY;5.0;HEAD;186.0
STATUS;CYCLETIME;3144;I2CERR;0;PRESENT;23;MODE;11
RAW_IMU;AX;20.0;AY;22.0;AZ;250.0;GX;0.0;GY;0.0;GZ;0.0;MAGX;0.0;MAGY;-124.0;MAGZ;100.0
MOT;0;1150.0;1;1207.0;2;1150.0;3;1150.0;4;0.0;5;0.0;6;0.0;7;0.0;
RC;ROLL;1497.0;PITCH;1516.0;YAW;1520.0;THROTTLE;1058.0;AUX1;2003.0;AUX2;1500.0;AUX3;1500.0;AUX4;1500.0
ALTITUDE;196.0
DEBUG;DEBUG10.0;DEBUG2;0.0;DEBUG3;196.0;DEBUG4;0.0
ATTITUDE;ANGX;4.0;ANGY;5.0;HEAD;186.0
STATUS;CYCLETIME;2872;I2CERR;0;PRESENT;23;MODE;11
RAW_IMU;AX;22.0;AY;22.0;AZ;250.0;GX;0.0;GY;0.0;GZ;0.0;MAGX;0.0;MAGY;-124.0;MAGZ;100.0
MOT;0;1150.0;1;1205.0;2;1150.0;3;1150.0;4;0.0;5;0.0;6;0.0;7;0.0;
RC;ROLL;1497.0;PITCH;1516.0;YAW;1518.0;THROTTLE;1058.0;AUX1;2003.0;AUX2;1500.0;AUX3;1500.0;AUX4;1500.0
ALTITUDE;196.0
DEBUG;DEBUG10.0;DEBUG2;0.0;DEBUG3;196.0;DEBUG4;0.0
ATTITUDE;ANGX;4.0;ANGY;5.0;HEAD;186.0
STATUS;CYCLETIME;2904;I2CERR;0;PRESENT;23;MODE;11
RAW_IMU;AX;25.0;AY;22.0;AZ;251.0;GX;0.0;GY;0.0;GZ;0.0;MAGX;0.0;MAGY;-124.0;MAGZ;100.0
MOT;0;1150.0;1;1202.0;2;1150.0;3;1150.0;4;0.0;5;0.0;6;0.0;7;0.0;
RC;ROLL;1497.0;PITCH;1516.0;YAW;1516.0;THROTTLE;1058.0;AUX1;2003.0;AUX2;1500.0;AUX3;1500.0;AUX4;1500.0
ALTITUDE;196.0
DEBUG;DEBUG10.0;DEBUG2;0.0;DEBUG3;196.0;DEBUG4;0.0
ATTITUDE;ANGX;4.0;ANGY;4.0;HEAD;186.0
STATUS;CYCLETIME;2952;I2CERR;0;PRESENT;23;MODE;11
RAW_IMU;AX;23.0;AY;22.0;AZ;253.0;GX;0.0;GY;0.0;GZ;0.0;MAGX;-1.0;MAGY;-123.0;MAGZ;100.0
MOT;0;1150.0;1;1201.0;2;1150.0;3;1150.0;4;0.0;5;0.0;6;0.0;7;0.0;
RC;ROLL;1495.0;PITCH;1514.0;YAW;1514.0;THROTTLE;1058.0;AUX1;2003.0;AUX2;1500.0;AUX3;1500.0;AUX4;1500.0
ALTITUDE;196.0
DEBUG;DEBUG10.0;DEBUG2;0.0;DEBUG3;196.0;DEBUG4;0.0
ATTITUDE;ANGX;4.0;ANGY;5.0;HEAD;186.0
STATUS;CYCLETIME;2832;I2CERR;0;PRESENT;23;MODE;11
RAW_IMU;AX;21.0;AY;25.0;AZ;253.0;GX;0.0;GY;0.0;GZ;0.0;MAGX;-1.0;MAGY;-123.0;MAGZ;100.0
MOT;0;1150.0;1;1204.0;2;1150.0;3;1150.0;4;0.0;5;0.0;6;0.0;7;0.0;
RC;ROLL;1495.0;PITCH;1514.0;YAW;1514.0;THROTTLE;1058.0;AUX1;2003.0;AUX2;1500.0;AUX3;1500.0;AUX4;1500.0
ALTITUDE;196.0
DEBUG;DEBUG10.0;DEBUG2;0.0;DEBUG3;196.0;DEBUG4;0.0
ATTITUDE;ANGX;4.0;ANGY;5.0;HEAD;186.0
STATUS;CYCLETIME;2840;I2CERR;0;PRESENT;23;MODE;11
RAW_IMU;AX;19.0;AY;22.0;AZ;253.0;GX;0.0;GY;0.0;GZ;0.0;MAGX;0.0;MAGY;-123.0;MAGZ;99.0
MOT;0;1150.0;1;1205.0;2;1150.0;3;1150.0;4;0.0;5;0.0;6;0.0;7;0.0;
RC;ROLL;1495.0;PITCH;1514.0;YAW;1516.0;THROTTLE;1058.0;AUX1;2003.0;AUX2;1500.0;AUX3;1500.0;AUX4;1500.0
ALTITUDE;196.0
DEBUG;DEBUG10.0;DEBUG2;0.0;DEBUG3;196.0;DEBUG4;0.0
ATTITUDE;ANGX;4.0;ANGY;5.0;HEAD;186.0
STATUS;CYCLETIME;2868;I2CERR;0;PRESENT;23;MODE;11
RAW_IMU;AX;21.0;AY;23.0;AZ;254.0;GX;0.0;GY;0.0;GZ;0.0;MAGX;0.0;MAGY;-123.0;MAGZ;99.0
MOT;0;1150.0;1;1205.0;2;1150.0;3;1150.0;4;0.0;5;0.0;6;0.0;7;0.0;
RC;ROLL;1495.0;PITCH;1514.0;YAW;1516.0;THROTTLE;1058.0;AUX1;2003.0;AUX2;1500.0;AUX3;1500.0;AUX4;1500.0
ALTITUDE;196.0
DEBUG;DEBUG10.0;DEBUG2;0.0;DEBUG3;196.0;DEBUG4;0.0
ATTITUDE;ANGX;4.0;ANGY;5.0;HEAD;186.0
STATUS;CYCLETIME;2832;I2CERR;0;PRESENT;23;MODE;11
RAW_IMU;AX;21.0;AY;23.0;AZ;253.0;GX;0.0;GY;0.0;GZ;0.0;MAGX;-1.0;MAGY;-123.0;MAGZ;101.0
MOT;0;1150.0;1;1205.0;2;1150.0;3;1150.0;4;0.0;5;0.0;6;0.0;7;0.0;
RC;ROLL;1495.0;PITCH;1514.0;YAW;1516.0;THROTTLE;1058.0;AUX1;2003.0;AUX2;1500.0;AUX3;1500.0;AUX4;1500.0
ALTITUDE;195.0
DEBUG;DEBUG10.0;DEBUG2;0.0;DEBUG3;195.0;DEBUG4;0.0
ATTITUDE;ANGX;4.0;ANGY;5.0;HEAD;186.0
STATUS;CYCLETIME;3004;I2CERR;0;PRESENT;23;MODE;11
RAW_IMU;AX;22.0;AY;21.0;AZ;251.0;GX;0.0;GY;0.0;GZ;0.0;MAGX;-1.0;MAGY;-123.0;MAGZ;101.0
MOT;0;1150.0;1;1204.0;2;1150.0;3;1150.0;4;0.0;5;0.0;6;0.0;7;0.0;
RC;ROLL;1497.0;PITCH;1514.0;YAW;1518.0;THROTTLE;1058.0;AUX1;2003.0;AUX2;1500.0;AUX3;1500.0;AUX4;1500.0
ALTITUDE;195.0
DEBUG;DEBUG10.0;DEBUG2;0.0;DEBUG3;195.0;DEBUG4;0.0
ATTITUDE;ANGX;4.0;ANGY;5.0;HEAD;186.0
STATUS;CYCLETIME;2880;I2CERR;0;PRESENT;23;MODE;11
RAW_IMU;AX;23.0;AY;24.0;AZ;251.0;GX;0.0;GY;0.0;GZ;0.0;MAGX;0.0;MAGY;-123.0;MAGZ;100.0
MOT;0;1150.0;1;1206.0;2;1150.0;3;1150.0;4;0.0;5;0.0;6;0.0;7;0.0;
RC;ROLL;1497.0;PITCH;1514.0;YAW;1518.0;THROTTLE;1058.0;AUX1;2003.0;AUX2;1500.0;AUX3;1500.0;AUX4;1500.0
ALTITUDE;195.0
DEBUG;DEBUG10.0;DEBUG2;0.0;DEBUG3;195.0;DEBUG4;0.0
ATTITUDE;ANGX;4.0;ANGY;5.0;HEAD;186.0
STATUS;CYCLETIME;2896;I2CERR;0;PRESENT;23;MODE;11
RAW_IMU;AX;21.0;AY;23.0;AZ;251.0;GX;0.0;GY;0.0;GZ;0.0;MAGX;0.0;MAGY;-123.0;MAGZ;100.0
MOT;0;1150.0;1;1207.0;2;1150.0;3;1150.0;4;0.0;5;0.0;6;0.0;7;0.0;
RC;ROLL;1497.0;PITCH;1514.0;YAW;1518.0;THROTTLE;1058.0;AUX1;2001.0;AUX2;1500.0;AUX3;1500.0;AUX4;1500.0
ALTITUDE;195.0
DEBUG;DEBUG10.0;DEBUG2;0.0;DEBUG3;195.0;DEBUG4;0.0
ATTITUDE;ANGX;4.0;ANGY;5.0;HEAD;186.0
STATUS;CYCLETIME;2832;I2CERR;0;PRESENT;23;MODE;11
RAW_IMU;AX;22.0;AY;20.0;AZ;250.0;GX;0.0;GY;0.0;GZ;0.0;MAGX;0.0;MAGY;-123.0;MAGZ;100.0
MOT;0;1150.0;1;1202.0;2;1150.0;3;1150.0;4;0.0;5;0.0;6;0.0;7;0.0;
RC;ROLL;1497.0;PITCH;1514.0;YAW;1516.0;THROTTLE;1058.0;AUX1;2001.0;AUX2;1500.0;AUX3;1500.0;AUX4;1500.0
ALTITUDE;195.0
DEBUG;DEBUG10.0;DEBUG2;0.0;DEBUG3;196.0;DEBUG4;0.0
ATTITUDE;ANGX;4.0;ANGY;5.0;HEAD;186.0
STATUS;CYCLETIME;2892;I2CERR;0;PRESENT;23;MODE;11
RAW_IMU;AX;23.0;AY;23.0;AZ;251.0;GX;0.0;GY;0.0;GZ;0.0;MAGX;0.0;MAGY;-123.0;MAGZ;100.0
MOT;0;1150.0;1;1199.0;2;1150.0;3;1150.0;4;0.0;5;0.0;6;0.0;7;0.0;
RC;ROLL;1497.0;PITCH;1514.0;YAW;1516.0;THROTTLE;1058.0;AUX1;2003.0;AUX2;1500.0;AUX3;1500.0;AUX4;1500.0
ALTITUDE;196.0
DEBUG;DEBUG10.0;DEBUG2;0.0;DEBUG3;196.0;DEBUG4;0.0
ATTITUDE;ANGX;4.0;ANGY;5.0;HEAD;186.0
STATUS;CYCLETIME;3004;I2CERR;0;PRESENT;23;MODE;11
RAW_IMU;AX;23.0;AY;23.0;AZ;252.0;GX;0.0;GY;0.0;GZ;0.0;MAGX;-1.0;MAGY;-123.0;MAGZ;100.0
MOT;0;1150.0;1;1199.0;2;1150.0;3;1150.0;4;0.0;5;0.0;6;0.0;7;0.0;
RC;ROLL;1495.0;PITCH;1518.0;YAW;1516.0;THROTTLE;1056.0;AUX1;2003.0;AUX2;1500.0;AUX3;1500.0;AUX4;1500.0
ALTITUDE;196.0
DEBUG;DEBUG10.0;DEBUG2;0.0;DEBUG3;196.0;DEBUG4;0.0
ATTITUDE;ANGX;4.0;ANGY;5.0;HEAD;186.0
STATUS;CYCLETIME;2872;I2CERR;0;PRESENT;23;MODE;11
RAW_IMU;AX;22.0;AY;24.0;AZ;252.0;GX;0.0;GY;0.0;GZ;0.0;MAGX;-1.0;MAGY;-123.0;MAGZ;100.0
MOT;0;1150.0;1;1204.0;2;1150.0;3;1150.0;4;0.0;5;0.0;6;0.0;7;0.0;
RC;ROLL;1495.0;PITCH;1518.0;YAW;1516.0;THROTTLE;1056.0;AUX1;2003.0;AUX2;1500.0;AUX3;1500.0;AUX4;1500.0
ALTITUDE;196.0
DEBUG;DEBUG10.0;DEBUG2;0.0;DEBUG3;196.0;DEBUG4;0.0
ATTITUDE;ANGX;4.0;ANGY;5.0;HEAD;186.0
STATUS;CYCLETIME;2908;I2CERR;0;PRESENT;23;MODE;11
RAW_IMU;AX;22.0;AY;23.0;AZ;253.0;GX;0.0;GY;0.0;GZ;0.0;MAGX;-1.0;MAGY;-123.0;MAGZ;100.0
MOT;0;1150.0;1;1203.0;2;1150.0;3;1150.0;4;0.0;5;0.0;6;0.0;7;0.0;
RC;ROLL;1495.0;PITCH;1516.0;YAW;1516.0;THROTTLE;1058.0;AUX1;2003.0;AUX2;1500.0;AUX3;1500.0;AUX4;1500.0
ALTITUDE;196.0
DEBUG;DEBUG10.0;DEBUG2;0.0;DEBUG3;196.0;DEBUG4;0.0
ATTITUDE;ANGX;4.0;ANGY;5.0;HEAD;186.0
STATUS;CYCLETIME;2892;I2CERR;0;PRESENT;23;MODE;11
RAW_IMU;AX;20.0;AY;23.0;AZ;253.0;GX;0.0;GY;0.0;GZ;0.0;MAGX;0.0;MAGY;-123.0;MAGZ;100.0
MOT;0;1150.0;1;1202.0;2;1150.0;3;1150.0;4;0.0;5;0.0;6;0.0;7;0.0;
RC;ROLL;1495.0;PITCH;1516.0;YAW;1516.0;THROTTLE;1058.0;AUX1;2003.0;AUX2;1500.0;AUX3;1500.0;AUX4;1500.0
ALTITUDE;195.0
DEBUG;DEBUG10.0;DEBUG2;0.0;DEBUG3;195.0;DEBUG4;0.0
ATTITUDE;ANGX;4.0;ANGY;5.0;HEAD;186.0
STATUS;CYCLETIME;2868;I2CERR;0;PRESENT;23;MODE;11
RAW_IMU;AX;21.0;AY;22.0;AZ;250.0;GX;0.0;GY;0.0;GZ;0.0;MAGX;0.0;MAGY;-123.0;MAGZ;100.0
MOT;0;1150.0;1;1202.0;2;1150.0;3;1150.0;4;0.0;5;0.0;6;0.0;7;0.0;
RC;ROLL;1495.0;PITCH;1516.0;YAW;1516.0;THROTTLE;1058.0;AUX1;2003.0;AUX2;1500.0;AUX3;1500.0;AUX4;1500.0
ALTITUDE;195.0
DEBUG;DEBUG10.0;DEBUG2;0.0;DEBUG3;195.0;DEBUG4;0.0
ATTITUDE;ANGX;4.0;ANGY;5.0;HEAD;186.0
STATUS;CYCLETIME;3020;I2CERR;0;PRESENT;23;MODE;11
RAW_IMU;AX;21.0;AY;20.0;AZ;250.0;GX;0.0;GY;0.0;GZ;0.0;MAGX;-1.0;MAGY;-122.0;MAGZ;101.0
MOT;0;1150.0;1;1201.0;2;1150.0;3;1150.0;4;0.0;5;0.0;6;0.0;7;0.0;
RC;ROLL;1497.0;PITCH;1514.0;YAW;1516.0;THROTTLE;1058.0;AUX1;2003.0;AUX2;1500.0;AUX3;1500.0;AUX4;1500.0
ALTITUDE;195.0
DEBUG;DEBUG10.0;DEBUG2;0.0;DEBUG3;195.0;DEBUG4;0.0
ATTITUDE;ANGX;4.0;ANGY;5.0;HEAD;186.0
STATUS;CYCLETIME;2912;I2CERR;0;PRESENT;23;MODE;11
RAW_IMU;AX;20.0;AY;22.0;AZ;250.0;GX;0.0;GY;0.0;GZ;0.0;MAGX;-1.0;MAGY;-122.0;MAGZ;101.0
MOT;0;1150.0;1;1203.0;2;1150.0;3;1150.0;4;0.0;5;0.0;6;0.0;7;0.0;
RC;ROLL;1497.0;PITCH;1514.0;YAW;1516.0;THROTTLE;1058.0;AUX1;2003.0;AUX2;1500.0;AUX3;1500.0;AUX4;1500.0
ALTITUDE;195.0
DEBUG;DEBUG10.0;DEBUG2;0.0;DEBUG3;195.0;DEBUG4;0.0
ATTITUDE;ANGX;4.0;ANGY;5.0;HEAD;186.0
STATUS;CYCLETIME;2900;I2CERR;0;PRESENT;23;MODE;11
RAW_IMU;AX;22.0;AY;22.0;AZ;249.0;GX;0.0;GY;0.0;GZ;0.0;MAGX;-1.0;MAGY;-123.0;MAGZ;99.0
MOT;0;1150.0;1;1204.0;2;1150.0;3;1150.0;4;0.0;5;0.0;6;0.0;7;0.0;
RC;ROLL;1497.0;PITCH;1514.0;YAW;1518.0;THROTTLE;1058.0;AUX1;2003.0;AUX2;1500.0;AUX3;1500.0;AUX4;1500.0
ALTITUDE;195.0
DEBUG;DEBUG10.0;DEBUG2;0.0;DEBUG3;195.0;DEBUG4;0.0
ATTITUDE;ANGX;4.0;ANGY;5.0;HEAD;186.0
STATUS;CYCLETIME;2832;I2CERR;0;PRESENT;23;MODE;11
RAW_IMU;AX;23.0;AY;20.0;AZ;252.0;GX;0.0;GY;0.0;GZ;0.0;MAGX;-1.0;MAGY;-123.0;MAGZ;99.0
MOT;0;1150.0;1;1203.0;2;1150.0;3;1150.0;4;0.0;5;0.0;6;0.0;7;0.0;
RC;ROLL;1497.0;PITCH;1514.0;YAW;1518.0;THROTTLE;1056.0;AUX1;2003.0;AUX2;1500.0;AUX3;1500.0;AUX4;1500.0
ALTITUDE;195.0
DEBUG;DEBUG10.0;DEBUG2;0.0;DEBUG3;195.0;DEBUG4;0.0
ATTITUDE;ANGX;4.0;ANGY;5.0;HEAD;186.0
STATUS;CYCLETIME;2816;I2CERR;0;PRESENT;23;MODE;11
RAW_IMU;AX;22.0;AY;22.0;AZ;251.0;GX;0.0;GY;0.0;GZ;0.0;MAGX;-1.0;MAGY;-122.0;MAGZ;100.0
MOT;0;1150.0;1;1207.0;2;1150.0;3;1150.0;4;0.0;5;0.0;6;0.0;7;0.0;
RC;ROLL;1497.0;PITCH;1514.0;YAW;1518.0;THROTTLE;1056.0;AUX1;2003.0;AUX2;1500.0;AUX3;1500.0;AUX4;1500.0
ALTITUDE;195.0
DEBUG;DEBUG10.0;DEBUG2;0.0;DEBUG3;195.0;DEBUG4;0.0
ATTITUDE;ANGX;4.0;ANGY;5.0;HEAD;186.0
STATUS;CYCLETIME;3016;I2CERR;0;PRESENT;23;MODE;11
RAW_IMU;AX;21.0;AY;24.0;AZ;252.0;GX;0.0;GY;0.0;GZ;0.0;MAGX;-1.0;MAGY;-122.0;MAGZ;100.0
MOT;0;1150.0;1;1206.0;2;1150.0;3;1150.0;4;0.0;5;0.0;6;0.0;7;0.0;
RC;ROLL;1497.0;PITCH;1514.0;YAW;1518.0;THROTTLE;1056.0;AUX1;2003.0;AUX2;1500.0;AUX3;1500.0;AUX4;1500.0
ALTITUDE;195.0
DEBUG;DEBUG10.0;DEBUG2;0.0;DEBUG3;195.0;DEBUG4;0.0
ATTITUDE;ANGX;4.0;ANGY;5.0;HEAD;186.0
STATUS;CYCLETIME;2848;I2CERR;0;PRESENT;23;MODE;11
RAW_IMU;AX;20.0;AY;25.0;AZ;253.0;GX;0.0;GY;0.0;GZ;0.0;MAGX;0.0;MAGY;-123.0;MAGZ;101.0
MOT;0;1150.0;1;1207.0;2;1150.0;3;1150.0;4;0.0;5;0.0;6;0.0;7;0.0;
RC;ROLL;1495.0;PITCH;1514.0;YAW;1518.0;THROTTLE;1056.0;AUX1;2003.0;AUX2;1500.0;AUX3;1500.0;AUX4;1500.0
ALTITUDE;195.0
DEBUG;DEBUG10.0;DEBUG2;0.0;DEBUG3;195.0;DEBUG4;0.0
ATTITUDE;ANGX;4.0;ANGY;5.0;HEAD;186.0
STATUS;CYCLETIME;2868;I2CERR;0;PRESENT;23;MODE;11
RAW_IMU;AX;22.0;AY;24.0;AZ;253.0;GX;0.0;GY;0.0;GZ;0.0;MAGX;0.0;MAGY;-123.0;MAGZ;101.0
MOT;0;1150.0;1;1205.0;2;1150.0;3;1150.0;4;0.0;5;0.0;6;0.0;7;0.0;
RC;ROLL;1495.0;PITCH;1514.0;YAW;1518.0;THROTTLE;1056.0;AUX1;2003.0;AUX2;1500.0;AUX3;1500.0;AUX4;1500.0
ALTITUDE;195.0
DEBUG;DEBUG10.0;DEBUG2;0.0;DEBUG3;195.0;DEBUG4;0.0
ATTITUDE;ANGX;4.0;ANGY;5.0;HEAD;186.0
STATUS;CYCLETIME;2872;I2CERR;0;PRESENT;23;MODE;11
RAW_IMU;AX;20.0;AY;23.0;AZ;253.0;GX;0.0;GY;0.0;GZ;0.0;MAGX;0.0;MAGY;-122.0;MAGZ;100.0
MOT;0;1150.0;1;1209.0;2;1150.0;3;1150.0;4;0.0;5;0.0;6;0.0;7;0.0;
RC;ROLL;1495.0;PITCH;1514.0;YAW;1520.0;THROTTLE;1056.0;AUX1;2003.0;AUX2;1500.0;AUX3;1500.0;AUX4;1500.0
ALTITUDE;195.0
DEBUG;DEBUG10.0;DEBUG2;0.0;DEBUG3;195.0;DEBUG4;0.0
ATTITUDE;ANGX;4.0;ANGY;5.0;HEAD;186.0
STATUS;CYCLETIME;2872;I2CERR;0;PRESENT;23;MODE;11
RAW_IMU;AX;18.0;AY;23.0;AZ;253.0;GX;0.0;GY;0.0;GZ;0.0;MAGX;0.0;MAGY;-122.0;MAGZ;100.0
MOT;0;1150.0;1;1207.0;2;1150.0;3;1150.0;4;0.0;5;0.0;6;0.0;7;0.0;
RC;ROLL;1495.0;PITCH;1514.0;YAW;1518.0;THROTTLE;1056.0;AUX1;2003.0;AUX2;1500.0;AUX3;1500.0;AUX4;1500.0
ALTITUDE;195.0
DEBUG;DEBUG10.0;DEBUG2;0.0;DEBUG3;195.0;DEBUG4;0.0
ATTITUDE;ANGX;4.0;ANGY;5.0;HEAD;186.0
STATUS;CYCLETIME;2876;I2CERR;0;PRESENT;23;MODE;11
RAW_IMU;AX;19.0;AY;21.0;AZ;251.0;GX;0.0;GY;0.0;GZ;0.0;MAGX;-1.0;MAGY;-123.0;MAGZ;100.0
MOT;0;1150.0;1;1209.0;2;1150.0;3;1150.0;4;0.0;5;0.0;6;0.0;7;0.0;
RC;ROLL;1495.0;PITCH;1514.0;YAW;1518.0;THROTTLE;1056.0;AUX1;2003.0;AUX2;1500.0;AUX3;1500.0;AUX4;1500.0
ALTITUDE;195.0
DEBUG;DEBUG10.0;DEBUG2;0.0;DEBUG3;195.0;DEBUG4;0.0
ATTITUDE;ANGX;4.0;ANGY;5.0;HEAD;186.0
STATUS;CYCLETIME;2884;I2CERR;0;PRESENT;23;MODE;11
RAW_IMU;AX;19.0;AY;21.0;AZ;252.0;GX;0.0;GY;0.0;GZ;0.0;MAGX;-1.0;MAGY;-123.0;MAGZ;100.0
MOT;0;1150.0;1;1205.0;2;1150.0;3;1150.0;4;0.0;5;0.0;6;0.0;7;0.0;
RC;ROLL;1495.0;PITCH;1516.0;YAW;1516.0;THROTTLE;1056.0;AUX1;2003.0;AUX2;1500.0;AUX3;1500.0;AUX4;1500.0
ALTITUDE;195.0
DEBUG;DEBUG10.0;DEBUG2;0.0;DEBUG3;195.0;DEBUG4;0.0
ATTITUDE;ANGX;4.0;ANGY;5.0;HEAD;186.0
STATUS;CYCLETIME;2860;I2CERR;0;PRESENT;23;MODE;11
RAW_IMU;AX;22.0;AY;22.0;AZ;252.0;GX;0.0;GY;0.0;GZ;0.0;MAGX;-1.0;MAGY;-123.0;MAGZ;100.0
MOT;0;1150.0;1;1201.0;2;1150.0;3;1150.0;4;0.0;5;0.0;6;0.0;7;0.0;
RC;ROLL;1495.0;PITCH;1516.0;YAW;1516.0;THROTTLE;1056.0;AUX1;2003.0;AUX2;1500.0;AUX3;1500.0;AUX4;1500.0
ALTITUDE;195.0
DEBUG;DEBUG10.0;DEBUG2;0.0;DEBUG3;195.0;DEBUG4;0.0
ATTITUDE;ANGX;4.0;ANGY;5.0;HEAD;186.0
STATUS;CYCLETIME;2796;I2CERR;0;PRESENT;23;MODE;11
RAW_IMU;AX;22.0;AY;25.0;AZ;255.0;GX;0.0;GY;0.0;GZ;0.0;MAGX;0.0;MAGY;-124.0;MAGZ;100.0
MOT;0;1150.0;1;1206.0;2;1150.0;3;1150.0;4;0.0;5;0.0;6;0.0;7;0.0;
RC;ROLL;1497.0;PITCH;1516.0;YAW;1518.0;THROTTLE;1056.0;AUX1;2005.0;AUX2;1500.0;AUX3;1500.0;AUX4;1500.0
ALTITUDE;195.0
DEBUG;DEBUG10.0;DEBUG2;0.0;DEBUG3;195.0;DEBUG4;0.0
ATTITUDE;ANGX;4.0;ANGY;5.0;HEAD;186.0
STATUS;CYCLETIME;2896;I2CERR;0;PRESENT;23;MODE;11
RAW_IMU;AX;19.0;AY;25.0;AZ;253.0;GX;0.0;GY;0.0;GZ;0.0;MAGX;0.0;MAGY;-124.0;MAGZ;100.0
MOT;0;1150.0;1;1202.0;2;1150.0;3;1150.0;4;0.0;5;0.0;6;0.0;7;0.0;
RC;ROLL;1497.0;PITCH;1514.0;YAW;1518.0;THROTTLE;1056.0;AUX1;2002.0;AUX2;1500.0;AUX3;1500.0;AUX4;1500.0
ALTITUDE;195.0
DEBUG;DEBUG10.0;DEBUG2;0.0;DEBUG3;195.0;DEBUG4;0.0
ATTITUDE;ANGX;4.0;ANGY;5.0;HEAD;186.0
STATUS;CYCLETIME;2904;I2CERR;0;PRESENT;23;MODE;11
RAW_IMU;AX;19.0;AY;23.0;AZ;252.0;GX;0.0;GY;0.0;GZ;0.0;MAGX;-1.0;MAGY;-123.0;MAGZ;100.0
MOT;0;1150.0;1;1206.0;2;1150.0;3;1150.0;4;0.0;5;0.0;6;0.0;7;0.0;
RC;ROLL;1497.0;PITCH;1514.0;YAW;1518.0;THROTTLE;1056.0;AUX1;2002.0;AUX2;1500.0;AUX3;1500.0;AUX4;1500.0
ALTITUDE;195.0
DEBUG;DEBUG10.0;DEBUG2;0.0;DEBUG3;195.0;DEBUG4;0.0
ATTITUDE;ANGX;4.0;ANGY;5.0;HEAD;186.0
STATUS;CYCLETIME;2920;I2CERR;0;PRESENT;23;MODE;11
RAW_IMU;AX;22.0;AY;24.0;AZ;249.0;GX;0.0;GY;0.0;GZ;0.0;MAGX;-1.0;MAGY;-123.0;MAGZ;100.0
MOT;0;1150.0;1;1207.0;2;1150.0;3;1150.0;4;0.0;5;0.0;6;0.0;7;0.0;
RC;ROLL;1497.0;PITCH;1514.0;YAW;1518.0;THROTTLE;1056.0;AUX1;2002.0;AUX2;1500.0;AUX3;1500.0;AUX4;1500.0
ALTITUDE;195.0
DEBUG;DEBUG10.0;DEBUG2;0.0;DEBUG3;195.0;DEBUG4;0.0
ATTITUDE;ANGX;4.0;ANGY;5.0;HEAD;186.0
STATUS;CYCLETIME;2864;I2CERR;0;PRESENT;23;MODE;11
RAW_IMU;AX;22.0;AY;22.0;AZ;252.0;GX;0.0;GY;0.0;GZ;0.0;MAGX;-1.0;MAGY;-122.0;MAGZ;100.0
MOT;0;1150.0;1;1205.0;2;1150.0;3;1150.0;4;0.0;5;0.0;6;0.0;7;0.0;
RC;ROLL;1497.0;PITCH;1514.0;YAW;1518.0;THROTTLE;1056.0;AUX1;2002.0;AUX2;1500.0;AUX3;1500.0;AUX4;1500.0
ALTITUDE;195.0
DEBUG;DEBUG10.0;DEBUG2;0.0;DEBUG3;195.0;DEBUG4;0.0
ATTITUDE;ANGX;4.0;ANGY;5.0;HEAD;186.0
STATUS;CYCLETIME;2880;I2CERR;0;PRESENT;23;MODE;11
RAW_IMU;AX;22.0;AY;24.0;AZ;251.0;GX;0.0;GY;0.0;GZ;0.0;MAGX;-1.0;MAGY;-122.0;MAGZ;100.0
MOT;0;1150.0;1;1205.0;2;1150.0;3;1150.0;4;0.0;5;0.0;6;0.0;7;0.0;
RC;ROLL;1497.0;PITCH;1514.0;YAW;1518.0;THROTTLE;1056.0;AUX1;2002.0;AUX2;1500.0;AUX3;1500.0;AUX4;1500.0
ALTITUDE;195.0
DEBUG;DEBUG10.0;DEBUG2;0.0;DEBUG3;195.0;DEBUG4;0.0
ATTITUDE;ANGX;4.0;ANGY;5.0;HEAD;186.0
STATUS;CYCLETIME;2908;I2CERR;0;PRESENT;23;MODE;11
RAW_IMU;AX;20.0;AY;23.0;AZ;251.0;GX;0.0;GY;0.0;GZ;0.0;MAGX;-1.0;MAGY;-122.0;MAGZ;99.0
MOT;0;1150.0;1;1201.0;2;1150.0;3;1150.0;4;0.0;5;0.0;6;0.0;7;0.0;
RC;ROLL;1497.0;PITCH;1514.0;YAW;1518.0;THROTTLE;1058.0;AUX1;2002.0;AUX2;1500.0;AUX3;1500.0;AUX4;1500.0
ALTITUDE;195.0
DEBUG;DEBUG10.0;DEBUG2;0.0;DEBUG3;195.0;DEBUG4;0.0
ATTITUDE;ANGX;4.0;ANGY;5.0;HEAD;186.0
STATUS;CYCLETIME;2956;I2CERR;0;PRESENT;23;MODE;11
RAW_IMU;AX;20.0;AY;23.0;AZ;249.0;GX;0.0;GY;0.0;GZ;0.0;MAGX;-1.0;MAGY;-122.0;MAGZ;99.0
MOT;0;1150.0;1;1203.0;2;1150.0;3;1150.0;4;0.0;5;0.0;6;0.0;7;0.0;
RC;ROLL;1497.0;PITCH;1514.0;YAW;1518.0;THROTTLE;1058.0;AUX1;2002.0;AUX2;1500.0;AUX3;1500.0;AUX4;1500.0
ALTITUDE;195.0
DEBUG;DEBUG10.0;DEBUG2;0.0;DEBUG3;195.0;DEBUG4;0.0
ATTITUDE;ANGX;4.0;ANGY;5.0;HEAD;186.0
STATUS;CYCLETIME;2840;I2CERR;0;PRESENT;23;MODE;11
RAW_IMU;AX;20.0;AY;23.0;AZ;252.0;GX;0.0;GY;0.0;GZ;0.0;MAGX;0.0;MAGY;-122.0;MAGZ;101.0
MOT;0;1150.0;1;1203.0;2;1150.0;3;1150.0;4;0.0;5;0.0;6;0.0;7;0.0;
RC;ROLL;1497.0;PITCH;1514.0;YAW;1518.0;THROTTLE;1058.0;AUX1;2002.0;AUX2;1500.0;AUX3;1500.0;AUX4;1500.0
ALTITUDE;195.0
DEBUG;DEBUG10.0;DEBUG2;0.0;DEBUG3;195.0;DEBUG4;0.0
ATTITUDE;ANGX;4.0;ANGY;5.0;HEAD;186.0
STATUS;CYCLETIME;2908;I2CERR;0;PRESENT;23;MODE;11
RAW_IMU;AX;19.0;AY;22.0;AZ;253.0;GX;0.0;GY;0.0;GZ;0.0;MAGX;0.0;MAGY;-122.0;MAGZ;101.0
MOT;0;1150.0;1;1202.0;2;1150.0;3;1150.0;4;0.0;5;0.0;6;0.0;7;0.0;
RC;ROLL;1497.0;PITCH;1514.0;YAW;1518.0;THROTTLE;1058.0;AUX1;2002.0;AUX2;1500.0;AUX3;1500.0;AUX4;1500.0
ALTITUDE;195.0
DEBUG;DEBUG10.0;DEBUG2;0.0;DEBUG3;195.0;DEBUG4;0.0
ATTITUDE;ANGX;4.0;ANGY;5.0;HEAD;186.0
STATUS;CYCLETIME;3000;I2CERR;0;PRESENT;23;MODE;11
RAW_IMU;AX;19.0;AY;22.0;AZ;249.0;GX;0.0;GY;0.0;GZ;0.0;MAGX;0.0;MAGY;-122.0;MAGZ;100.0
MOT;0;1150.0;1;1206.0;2;1150.0;3;1150.0;4;0.0;5;0.0;6;0.0;7;0.0;
RC;ROLL;1497.0;PITCH;1514.0;YAW;1518.0;THROTTLE;1058.0;AUX1;2002.0;AUX2;1500.0;AUX3;1500.0;AUX4;1500.0
ALTITUDE;195.0
DEBUG;DEBUG10.0;DEBUG2;0.0;DEBUG3;195.0;DEBUG4;0.0
ATTITUDE;ANGX;4.0;ANGY;5.0;HEAD;186.0
STATUS;CYCLETIME;2916;I2CERR;0;PRESENT;23;MODE;11
RAW_IMU;AX;20.0;AY;23.0;AZ;251.0;GX;0.0;GY;0.0;GZ;0.0;MAGX;0.0;MAGY;-122.0;MAGZ;100.0
MOT;0;1150.0;1;1202.0;2;1150.0;3;1150.0;4;0.0;5;0.0;6;0.0;7;0.0;
RC;ROLL;1497.0;PITCH;1514.0;YAW;1515.0;THROTTLE;1058.0;AUX1;2005.0;AUX2;1500.0;AUX3;1500.0;AUX4;1500.0
ALTITUDE;195.0
DEBUG;DEBUG10.0;DEBUG2;0.0;DEBUG3;195.0;DEBUG4;0.0
ATTITUDE;ANGX;4.0;ANGY;5.0;HEAD;186.0
STATUS;CYCLETIME;2868;I2CERR;0;PRESENT;23;MODE;11
RAW_IMU;AX;20.0;AY;24.0;AZ;254.0;GX;0.0;GY;0.0;GZ;0.0;MAGX;0.0;MAGY;-122.0;MAGZ;100.0
MOT;0;1150.0;1;1198.0;2;1150.0;3;1150.0;4;0.0;5;0.0;6;0.0;7;0.0;
RC;ROLL;1497.0;PITCH;1514.0;YAW;1515.0;THROTTLE;1058.0;AUX1;2005.0;AUX2;1500.0;AUX3;1500.0;AUX4;1500.0
ALTITUDE;195.0
DEBUG;DEBUG10.0;DEBUG2;0.0;DEBUG3;195.0;DEBUG4;0.0
ATTITUDE;ANGX;4.0;ANGY;5.0;HEAD;186.0
STATUS;CYCLETIME;2904;I2CERR;0;PRESENT;23;MODE;11
RAW_IMU;AX;19.0;AY;23.0;AZ;250.0;GX;0.0;GY;0.0;GZ;0.0;MAGX;-1.0;MAGY;-122.0;MAGZ;100.0
MOT;0;1150.0;1;1200.0;2;1150.0;3;1150.0;4;0.0;5;0.0;6;0.0;7;0.0;
RC;ROLL;1497.0;PITCH;1514.0;YAW;1515.0;THROTTLE;1058.0;AUX1;2005.0;AUX2;1500.0;AUX3;1500.0;AUX4;1500.0
ALTITUDE;195.0
DEBUG;DEBUG10.0;DEBUG2;0.0;DEBUG3;195.0;DEBUG4;0.0
ATTITUDE;ANGX;4.0;ANGY;5.0;HEAD;186.0
STATUS;CYCLETIME;2872;I2CERR;0;PRESENT;23;MODE;11
RAW_IMU;AX;19.0;AY;24.0;AZ;251.0;GX;0.0;GY;0.0;GZ;0.0;MAGX;-1.0;MAGY;-122.0;MAGZ;100.0
MOT;0;1150.0;1;1203.0;2;1150.0;3;1150.0;4;0.0;5;0.0;6;0.0;7;0.0;
RC;ROLL;1497.0;PITCH;1514.0;YAW;1515.0;THROTTLE;1058.0;AUX1;2005.0;AUX2;1500.0;AUX3;1500.0;AUX4;1500.0
ALTITUDE;195.0
DEBUG;DEBUG10.0;DEBUG2;0.0;DEBUG3;195.0;DEBUG4;0.0
ATTITUDE;ANGX;4.0;ANGY;5.0;HEAD;186.0
STATUS;CYCLETIME;2992;I2CERR;0;PRESENT;23;MODE;11
RAW_IMU;AX;21.0;AY;22.0;AZ;250.0;GX;0.0;GY;0.0;GZ;0.0;MAGX;-1.0;MAGY;-123.0;MAGZ;100.0
MOT;0;1150.0;1;1200.0;2;1150.0;3;1150.0;4;0.0;5;0.0;6;0.0;7;0.0;
RC;ROLL;1497.0;PITCH;1514.0;YAW;1518.0;THROTTLE;1058.0;AUX1;2003.0;AUX2;1500.0;AUX3;1500.0;AUX4;1500.0
ALTITUDE;195.0
DEBUG;DEBUG10.0;DEBUG2;0.0;DEBUG3;195.0;DEBUG4;0.0
ATTITUDE;ANGX;4.0;ANGY;5.0;HEAD;186.0
STATUS;CYCLETIME;2920;I2CERR;0;PRESENT;23;MODE;11
RAW_IMU;AX;22.0;AY;23.0;AZ;250.0;GX;0.0;GY;0.0;GZ;0.0;MAGX;-1.0;MAGY;-123.0;MAGZ;100.0
MOT;0;1150.0;1;1205.0;2;1150.0;3;1150.0;4;0.0;5;0.0;6;0.0;7;0.0;
RC;ROLL;1497.0;PITCH;1514.0;YAW;1518.0;THROTTLE;1058.0;AUX1;2003.0;AUX2;1500.0;AUX3;1500.0;AUX4;1500.0
ALTITUDE;195.0
DEBUG;DEBUG10.0;DEBUG2;0.0;DEBUG3;195.0;DEBUG4;0.0
ATTITUDE;ANGX;4.0;ANGY;5.0;HEAD;186.0
STATUS;CYCLETIME;2900;I2CERR;0;PRESENT;23;MODE;11
RAW_IMU;AX;19.0;AY;22.0;AZ;251.0;GX;0.0;GY;0.0;GZ;0.0;MAGX;-1.0;MAGY;-123.0;MAGZ;99.0
MOT;0;1150.0;1;1202.0;2;1150.0;3;1150.0;4;0.0;5;0.0;6;0.0;7;0.0;
RC;ROLL;1497.0;PITCH;1514.0;YAW;1520.0;THROTTLE;1058.0;AUX1;2001.0;AUX2;1500.0;AUX3;1500.0;AUX4;1500.0
ALTITUDE;195.0
DEBUG;DEBUG10.0;DEBUG2;0.0;DEBUG3;195.0;DEBUG4;0.0
ATTITUDE;ANGX;4.0;ANGY;5.0;HEAD;186.0
STATUS;CYCLETIME;2860;I2CERR;0;PRESENT;23;MODE;11
RAW_IMU;AX;20.0;AY;23.0;AZ;251.0;GX;0.0;GY;0.0;GZ;0.0;MAGX;-1.0;MAGY;-123.0;MAGZ;99.0
MOT;0;1150.0;1;1204.0;2;1150.0;3;1150.0;4;0.0;5;0.0;6;0.0;7;0.0;
RC;ROLL;1494.0;PITCH;1514.0;YAW;1518.0;THROTTLE;1060.0;AUX1;2001.0;AUX2;1500.0;AUX3;1500.0;AUX4;1500.0
ALTITUDE;196.0
DEBUG;DEBUG10.0;DEBUG2;0.0;DEBUG3;196.0;DEBUG4;0.0
ATTITUDE;ANGX;4.0;ANGY;5.0;HEAD;186.0
STATUS;CYCLETIME;2832;I2CERR;0;PRESENT;23;MODE;11
RAW_IMU;AX;21.0;AY;19.0;AZ;252.0;GX;0.0;GY;0.0;GZ;0.0;MAGX;-1.0;MAGY;-123.0;MAGZ;100.0
MOT;0;1150.0;1;1206.0;2;1150.0;3;1150.0;4;0.0;5;0.0;6;0.0;7;0.0;
RC;ROLL;1494.0;PITCH;1514.0;YAW;1518.0;THROTTLE;1060.0;AUX1;2003.0;AUX2;1500.0;AUX3;1500.0;AUX4;1500.0
ALTITUDE;196.0
DEBUG;DEBUG10.0;DEBUG2;0.0;DEBUG3;196.0;DEBUG4;0.0
ATTITUDE;ANGX;4.0;ANGY;5.0;HEAD;186.0
STATUS;CYCLETIME;2860;I2CERR;0;PRESENT;23;MODE;11
RAW_IMU;AX;21.0;AY;19.0;AZ;251.0;GX;0.0;GY;0.0;GZ;0.0;MAGX;-1.0;MAGY;-123.0;MAGZ;100.0
MOT;0;1150.0;1;1204.0;2;1150.0;3;1150.0;4;0.0;5;0.0;6;0.0;7;0.0;
RC;ROLL;1496.0;PITCH;1514.0;YAW;1518.0;THROTTLE;1060.0;AUX1;2003.0;AUX2;1500.0;AUX3;1500.0;AUX4;1500.0
ALTITUDE;196.0
DEBUG;DEBUG10.0;DEBUG2;0.0;DEBUG3;196.0;DEBUG4;0.0
ATTITUDE;ANGX;4.0;ANGY;5.0;HEAD;186.0
STATUS;CYCLETIME;2948;I2CERR;0;PRESENT;23;MODE;11
RAW_IMU;AX;20.0;AY;20.0;AZ;249.0;GX;0.0;GY;0.0;GZ;0.0;MAGX;0.0;MAGY;-122.0;MAGZ;101.0
MOT;0;1150.0;1;1203.0;2;1150.0;3;1150.0;4;0.0;5;0.0;6;0.0;7;0.0;
RC;ROLL;1496.0;PITCH;1514.0;YAW;1515.0;THROTTLE;1060.0;AUX1;2003.0;AUX2;1500.0;AUX3;1500.0;AUX4;1500.0
ALTITUDE;196.0
DEBUG;DEBUG10.0;DEBUG2;0.0;DEBUG3;196.0;DEBUG4;0.0
ATTITUDE;ANGX;4.0;ANGY;4.0;HEAD;186.0
STATUS;CYCLETIME;2824;I2CERR;0;PRESENT;23;MODE;11
RAW_IMU;AX;21.0;AY;21.0;AZ;250.0;GX;0.0;GY;0.0;GZ;0.0;MAGX;0.0;MAGY;-122.0;MAGZ;101.0
MOT;0;1150.0;1;1204.0;2;1150.0;3;1150.0;4;0.0;5;0.0;6;0.0;7;0.0;
RC;ROLL;1496.0;PITCH;1514.0;YAW;1515.0;THROTTLE;1060.0;AUX1;2003.0;AUX2;1500.0;AUX3;1500.0;AUX4;1500.0
ALTITUDE;196.0
DEBUG;DEBUG10.0;DEBUG2;0.0;DEBUG3;196.0;DEBUG4;0.0
ATTITUDE;ANGX;4.0;ANGY;4.0;HEAD;186.0
STATUS;CYCLETIME;2984;I2CERR;0;PRESENT;23;MODE;11
RAW_IMU;AX;23.0;AY;21.0;AZ;250.0;GX;0.0;GY;0.0;GZ;0.0;MAGX;-2.0;MAGY;-123.0;MAGZ;100.0
MOT;0;1150.0;1;1202.0;2;1150.0;3;1150.0;4;0.0;5;0.0;6;0.0;7;0.0;
RC;ROLL;1496.0;PITCH;1514.0;YAW;1515.0;THROTTLE;1060.0;AUX1;2003.0;AUX2;1500.0;AUX3;1500.0;AUX4;1500.0
ALTITUDE;196.0
DEBUG;DEBUG10.0;DEBUG2;0.0;DEBUG3;196.0;DEBUG4;0.0
ATTITUDE;ANGX;4.0;ANGY;4.0;HEAD;186.0
STATUS;CYCLETIME;2848;I2CERR;0;PRESENT;23;MODE;11
RAW_IMU;AX;20.0;AY;22.0;AZ;252.0;GX;0.0;GY;0.0;GZ;0.0;MAGX;-2.0;MAGY;-123.0;MAGZ;100.0
MOT;0;1150.0;1;1200.0;2;1150.0;3;1150.0;4;0.0;5;0.0;6;0.0;7;0.0;
RC;ROLL;1496.0;PITCH;1514.0;YAW;1515.0;THROTTLE;1060.0;AUX1;2003.0;AUX2;1500.0;AUX3;1500.0;AUX4;1500.0
ALTITUDE;196.0
DEBUG;DEBUG10.0;DEBUG2;0.0;DEBUG3;196.0;DEBUG4;0.0
ATTITUDE;ANGX;4.0;ANGY;4.0;HEAD;186.0
STATUS;CYCLETIME;2876;I2CERR;0;PRESENT;23;MODE;11
RAW_IMU;AX;20.0;AY;21.0;AZ;253.0;GX;0.0;GY;0.0;GZ;0.0;MAGX;-1.0;MAGY;-123.0;MAGZ;101.0
MOT;0;1150.0;1;1203.0;2;1150.0;3;1150.0;4;0.0;5;0.0;6;0.0;7;0.0;
RC;ROLL;1496.0;PITCH;1514.0;YAW;1515.0;THROTTLE;1060.0;AUX1;2003.0;AUX2;1500.0;AUX3;1500.0;AUX4;1500.0
ALTITUDE;196.0
DEBUG;DEBUG10.0;DEBUG2;0.0;DEBUG3;196.0;DEBUG4;0.0
ATTITUDE;ANGX;4.0;ANGY;4.0;HEAD;186.0
STATUS;CYCLETIME;2960;I2CERR;0;PRESENT;23;MODE;11
RAW_IMU;AX;20.0;AY;22.0;AZ;250.0;GX;0.0;GY;0.0;GZ;0.0;MAGX;-1.0;MAGY;-123.0;MAGZ;101.0
MOT;0;1150.0;1;1200.0;2;1150.0;3;1150.0;4;0.0;5;0.0;6;0.0;7;0.0;
RC;ROLL;1496.0;PITCH;1514.0;YAW;1515.0;THROTTLE;1060.0;AUX1;2003.0;AUX2;1500.0;AUX3;1500.0;AUX4;1500.0
ALTITUDE;196.0
DEBUG;DEBUG10.0;DEBUG2;0.0;DEBUG3;196.0;DEBUG4;0.0
ATTITUDE;ANGX;4.0;ANGY;4.0;HEAD;186.0
STATUS;CYCLETIME;2964;I2CERR;0;PRESENT;23;MODE;11
RAW_IMU;AX;21.0;AY;22.0;AZ;250.0;GX;0.0;GY;0.0;GZ;0.0;MAGX;-1.0;MAGY;-123.0;MAGZ;101.0
MOT;0;1150.0;1;1201.0;2;1150.0;3;1150.0;4;0.0;5;0.0;6;0.0;7;0.0;
RC;ROLL;1496.0;PITCH;1514.0;YAW;1515.0;THROTTLE;1060.0;AUX1;2003.0;AUX2;1500.0;AUX3;1500.0;AUX4;1500.0
ALTITUDE;196.0
DEBUG;DEBUG10.0;DEBUG2;0.0;DEBUG3;196.0;DEBUG4;0.0
ATTITUDE;ANGX;4.0;ANGY;4.0;HEAD;186.0
STATUS;CYCLETIME;2808;I2CERR;0;PRESENT;23;MODE;11
RAW_IMU;AX;22.0;AY;24.0;AZ;252.0;GX;0.0;GY;0.0;GZ;0.0;MAGX;0.0;MAGY;-122.0;MAGZ;100.0
MOT;0;1150.0;1;1203.0;2;1150.0;3;1150.0;4;0.0;5;0.0;6;0.0;7;0.0;
RC;ROLL;1496.0;PITCH;1514.0;YAW;1515.0;THROTTLE;1060.0;AUX1;2003.0;AUX2;1500.0;AUX3;1500.0;AUX4;1500.0
ALTITUDE;196.0
DEBUG;DEBUG10.0;DEBUG2;0.0;DEBUG3;196.0;DEBUG4;0.0
ATTITUDE;ANGX;4.0;ANGY;4.0;HEAD;186.0
STATUS;CYCLETIME;2808;I2CERR;0;PRESENT;23;MODE;11
RAW_IMU;AX;21.0;AY;23.0;AZ;252.0;GX;0.0;GY;0.0;GZ;0.0;MAGX;0.0;MAGY;-122.0;MAGZ;100.0
MOT;0;1150.0;1;1203.0;2;1150.0;3;1150.0;4;0.0;5;0.0;6;0.0;7;0.0;
RC;ROLL;1496.0;PITCH;1514.0;YAW;1515.0;THROTTLE;1060.0;AUX1;2003.0;AUX2;1500.0;AUX3;1500.0;AUX4;1500.0
ALTITUDE;196.0
DEBUG;DEBUG10.0;DEBUG2;0.0;DEBUG3;196.0;DEBUG4;0.0
ATTITUDE;ANGX;4.0;ANGY;4.0;HEAD;186.0
STATUS;CYCLETIME;2896;I2CERR;0;PRESENT;23;MODE;11
RAW_IMU;AX;19.0;AY;24.0;AZ;252.0;GX;0.0;GY;0.0;GZ;0.0;MAGX;0.0;MAGY;-123.0;MAGZ;99.0
MOT;0;1150.0;1;1207.0;2;1150.0;3;1150.0;4;0.0;5;0.0;6;0.0;7;0.0;
RC;ROLL;1496.0;PITCH;1514.0;YAW;1518.0;THROTTLE;1060.0;AUX1;2003.0;AUX2;1500.0;AUX3;1500.0;AUX4;1500.0
ALTITUDE;196.0
DEBUG;DEBUG10.0;DEBUG2;0.0;DEBUG3;196.0;DEBUG4;0.0
ATTITUDE;ANGX;4.0;ANGY;4.0;HEAD;186.0
STATUS;CYCLETIME;2860;I2CERR;0;PRESENT;23;MODE;11
RAW_IMU;AX;20.0;AY;24.0;AZ;252.0;GX;0.0;GY;0.0;GZ;0.0;MAGX;0.0;MAGY;-123.0;MAGZ;99.0
MOT;0;1150.0;1;1203.0;2;1150.0;3;1150.0;4;0.0;5;0.0;6;0.0;7;0.0;
RC;ROLL;1496.0;PITCH;1514.0;YAW;1518.0;THROTTLE;1060.0;AUX1;2003.0;AUX2;1500.0;AUX3;1500.0;AUX4;1500.0
ALTITUDE;196.0
DEBUG;DEBUG10.0;DEBUG2;0.0;DEBUG3;196.0;DEBUG4;0.0
ATTITUDE;ANGX;4.0;ANGY;4.0;HEAD;186.0
STATUS;CYCLETIME;2828;I2CERR;0;PRESENT;23;MODE;11
RAW_IMU;AX;20.0;AY;25.0;AZ;252.0;GX;0.0;GY;0.0;GZ;0.0;MAGX;0.0;MAGY;-123.0;MAGZ;100.0
MOT;0;1150.0;1;1206.0;2;1150.0;3;1150.0;4;0.0;5;0.0;6;0.0;7;0.0;
RC;ROLL;1496.0;PITCH;1514.0;YAW;1518.0;THROTTLE;1060.0;AUX1;2003.0;AUX2;1500.0;AUX3;1500.0;AUX4;1500.0
ALTITUDE;196.0
DEBUG;DEBUG10.0;DEBUG2;0.0;DEBUG3;196.0;DEBUG4;0.0
ATTITUDE;ANGX;4.0;ANGY;4.0;HEAD;186.0
STATUS;CYCLETIME;2844;I2CERR;0;PRESENT;23;MODE;11
RAW_IMU;AX;19.0;AY;22.0;AZ;253.0;GX;0.0;GY;0.0;GZ;0.0;MAGX;0.0;MAGY;-123.0;MAGZ;100.0
MOT;0;1150.0;1;1206.0;2;1150.0;3;1150.0;4;0.0;5;0.0;6;0.0;7;0.0;
RC;ROLL;1496.0;PITCH;1514.0;YAW;1518.0;THROTTLE;1058.0;AUX1;2003.0;AUX2;1500.0;AUX3;1500.0;AUX4;1500.0
ALTITUDE;196.0
DEBUG;DEBUG10.0;DEBUG2;0.0;DEBUG3;196.0;DEBUG4;0.0
ATTITUDE;ANGX;4.0;ANGY;4.0;HEAD;186.0
STATUS;CYCLETIME;2948;I2CERR;0;PRESENT;23;MODE;11
RAW_IMU;AX;19.0;AY;24.0;AZ;252.0;GX;0.0;GY;0.0;GZ;0.0;MAGX;0.0;MAGY;-122.0;MAGZ;101.0
MOT;0;1150.0;1;1201.0;2;1150.0;3;1150.0;4;0.0;5;0.0;6;0.0;7;0.0;
RC;ROLL;1496.0;PITCH;1514.0;YAW;1514.0;THROTTLE;1058.0;AUX1;2003.0;AUX2;1500.0;AUX3;1500.0;AUX4;1500.0
ALTITUDE;196.0
DEBUG;DEBUG10.0;DEBUG2;0.0;DEBUG3;196.0;DEBUG4;0.0
ATTITUDE;ANGX;4.0;ANGY;5.0;HEAD;186.0
STATUS;CYCLETIME;2932;I2CERR;0;PRESENT;23;MODE;11
RAW_IMU;AX;20.0;AY;23.0;AZ;254.0;GX;0.0;GY;0.0;GZ;0.0;MAGX;0.0;MAGY;-122.0;MAGZ;101.0
MOT;0;1150.0;1;1204.0;2;1150.0;3;1150.0;4;0.0;5;0.0;6;0.0;7;0.0;
RC;ROLL;1496.0;PITCH;1514.0;YAW;1514.0;THROTTLE;1058.0;AUX1;2003.0;AUX2;1500.0;AUX3;1500.0;AUX4;1500.0
ALTITUDE;196.0
DEBUG;DEBUG10.0;DEBUG2;0.0;DEBUG3;196.0;DEBUG4;0.0
ATTITUDE;ANGX;4.0;ANGY;5.0;HEAD;186.0
STATUS;CYCLETIME;2828;I2CERR;0;PRESENT;23;MODE;11
RAW_IMU;AX;20.0;AY;25.0;AZ;252.0;GX;0.0;GY;0.0;GZ;0.0;MAGX;0.0;MAGY;-123.0;MAGZ;99.0
MOT;0;1150.0;1;1205.0;2;1150.0;3;1150.0;4;0.0;5;0.0;6;0.0;7;0.0;
RC;ROLL;1496.0;PITCH;1514.0;YAW;1514.0;THROTTLE;1062.0;AUX1;2003.0;AUX2;1500.0;AUX3;1500.0;AUX4;1500.0
ALTITUDE;196.0
DEBUG;DEBUG10.0;DEBUG2;0.0;DEBUG3;196.0;DEBUG4;0.0
ATTITUDE;ANGX;4.0;ANGY;5.0;HEAD;186.0
STATUS;CYCLETIME;2876;I2CERR;0;PRESENT;23;MODE;11
RAW_IMU;AX;21.0;AY;23.0;AZ;251.0;GX;0.0;GY;0.0;GZ;0.0;MAGX;0.0;MAGY;-123.0;MAGZ;99.0
MOT;0;1150.0;1;1201.0;2;1150.0;3;1150.0;4;0.0;5;0.0;6;0.0;7;0.0;
RC;ROLL;1496.0;PITCH;1514.0;YAW;1514.0;THROTTLE;1062.0;AUX1;2003.0;AUX2;1500.0;AUX3;1500.0;AUX4;1500.0
ALTITUDE;196.0
DEBUG;DEBUG10.0;DEBUG2;0.0;DEBUG3;196.0;DEBUG4;0.0
ATTITUDE;ANGX;4.0;ANGY;5.0;HEAD;186.0
STATUS;CYCLETIME;3148;I2CERR;0;PRESENT;23;MODE;11
RAW_IMU;AX;22.0;AY;24.0;AZ;253.0;GX;0.0;GY;0.0;GZ;0.0;MAGX;0.0;MAGY;-123.0;MAGZ;99.0
MOT;0;1150.0;1;1204.0;2;1150.0;3;1150.0;4;0.0;5;0.0;6;0.0;7;0.0;
RC;ROLL;1496.0;PITCH;1514.0;YAW;1514.0;THROTTLE;1062.0;AUX1;2003.0;AUX2;1500.0;AUX3;1500.0;AUX4;1500.0
ALTITUDE;196.0
DEBUG;DEBUG10.0;DEBUG2;0.0;DEBUG3;196.0;DEBUG4;0.0
ATTITUDE;ANGX;4.0;ANGY;5.0;HEAD;186.0
STATUS;CYCLETIME;3008;I2CERR;0;PRESENT;23;MODE;11
RAW_IMU;AX;21.0;AY;24.0;AZ;252.0;GX;0.0;GY;0.0;GZ;0.0;MAGX;0.0;MAGY;-123.0;MAGZ;99.0
MOT;0;1150.0;1;1198.0;2;1150.0;3;1150.0;4;0.0;5;0.0;6;0.0;7;0.0;
RC;ROLL;1496.0;PITCH;1514.0;YAW;1514.0;THROTTLE;1062.0;AUX1;2003.0;AUX2;1500.0;AUX3;1500.0;AUX4;1500.0
ALTITUDE;196.0
DEBUG;DEBUG10.0;DEBUG2;0.0;DEBUG3;196.0;DEBUG4;0.0
ATTITUDE;ANGX;4.0;ANGY;5.0;HEAD;186.0
STATUS;CYCLETIME;2864;I2CERR;0;PRESENT;23;MODE;11
RAW_IMU;AX;20.0;AY;20.0;AZ;250.0;GX;0.0;GY;0.0;GZ;0.0;MAGX;0.0;MAGY;-123.0;MAGZ;99.0
MOT;0;1150.0;1;1201.0;2;1150.0;3;1150.0;4;0.0;5;0.0;6;0.0;7;0.0;
RC;ROLL;1496.0;PITCH;1518.0;YAW;1514.0;THROTTLE;1056.0;AUX1;2003.0;AUX2;1500.0;AUX3;1500.0;AUX4;1500.0
ALTITUDE;196.0
DEBUG;DEBUG10.0;DEBUG2;0.0;DEBUG3;196.0;DEBUG4;0.0
ATTITUDE;ANGX;4.0;ANGY;5.0;HEAD;186.0
STATUS;CYCLETIME;2996;I2CERR;0;PRESENT;23;MODE;11
RAW_IMU;AX;20.0;AY;20.0;AZ;250.0;GX;0.0;GY;0.0;GZ;0.0;MAGX;0.0;MAGY;-123.0;MAGZ;100.0
MOT;0;1150.0;1;1203.0;2;1150.0;3;1150.0;4;0.0;5;0.0;6;0.0;7;0.0;
RC;ROLL;1496.0;PITCH;1518.0;YAW;1514.0;THROTTLE;1056.0;AUX1;2003.0;AUX2;1500.0;AUX3;1500.0;AUX4;1500.0
ALTITUDE;196.0
DEBUG;DEBUG10.0;DEBUG2;0.0;DEBUG3;196.0;DEBUG4;0.0
ATTITUDE;ANGX;4.0;ANGY;5.0;HEAD;186.0
STATUS;CYCLETIME;2876;I2CERR;0;PRESENT;23;MODE;11
RAW_IMU;AX;21.0;AY;21.0;AZ;250.0;GX;0.0;GY;0.0;GZ;0.0;MAGX;0.0;MAGY;-123.0;MAGZ;100.0
MOT;0;1150.0;1;1203.0;2;1150.0;3;1150.0;4;0.0;5;0.0;6;0.0;7;0.0;
RC;ROLL;1496.0;PITCH;1515.0;YAW;1514.0;THROTTLE;1056.0;AUX1;2003.0;AUX2;1500.0;AUX3;1500.0;AUX4;1500.0
ALTITUDE;196.0
DEBUG;DEBUG10.0;DEBUG2;0.0;DEBUG3;196.0;DEBUG4;0.0
ATTITUDE;ANGX;4.0;ANGY;4.0;HEAD;186.0
STATUS;CYCLETIME;2856;I2CERR;0;PRESENT;23;MODE;11
RAW_IMU;AX;21.0;AY;22.0;AZ;250.0;GX;0.0;GY;0.0;GZ;0.0;MAGX;0.0;MAGY;-123.0;MAGZ;100.0
MOT;0;1150.0;1;1203.0;2;1150.0;3;1150.0;4;0.0;5;0.0;6;0.0;7;0.0;
RC;ROLL;1496.0;PITCH;1515.0;YAW;1514.0;THROTTLE;1056.0;AUX1;2003.0;AUX2;1500.0;AUX3;1500.0;AUX4;1500.0
ALTITUDE;196.0
DEBUG;DEBUG10.0;DEBUG2;0.0;DEBUG3;196.0;DEBUG4;0.0
ATTITUDE;ANGX;4.0;ANGY;5.0;HEAD;186.0
STATUS;CYCLETIME;2960;I2CERR;0;PRESENT;23;MODE;11
RAW_IMU;AX;21.0;AY;23.0;AZ;250.0;GX;0.0;GY;0.0;GZ;0.0;MAGX;0.0;MAGY;-123.0;MAGZ;100.0
MOT;0;1150.0;1;1199.0;2;1150.0;3;1150.0;4;0.0;5;0.0;6;0.0;7;0.0;
RC;ROLL;1498.0;PITCH;1515.0;YAW;1514.0;THROTTLE;1056.0;AUX1;2003.0;AUX2;1500.0;AUX3;1500.0;AUX4;1500.0
ALTITUDE;196.0
DEBUG;DEBUG10.0;DEBUG2;0.0;DEBUG3;196.0;DEBUG4;0.0
ATTITUDE;ANGX;4.0;ANGY;4.0;HEAD;186.0
STATUS;CYCLETIME;2896;I2CERR;0;PRESENT;23;MODE;11
RAW_IMU;AX;18.0;AY;25.0;AZ;251.0;GX;0.0;GY;0.0;GZ;0.0;MAGX;-1.0;MAGY;-123.0;MAGZ;100.0
MOT;0;1150.0;1;1203.0;2;1150.0;3;1150.0;4;0.0;5;0.0;6;0.0;7;0.0;
RC;ROLL;1495.0;PITCH;1515.0;YAW;1514.0;THROTTLE;1056.0;AUX1;2003.0;AUX2;1500.0;AUX3;1500.0;AUX4;1500.0
ALTITUDE;196.0
DEBUG;DEBUG10.0;DEBUG2;0.0;DEBUG3;196.0;DEBUG4;0.0
ATTITUDE;ANGX;4.0;ANGY;5.0;HEAD;186.0
STATUS;CYCLETIME;2880;I2CERR;0;PRESENT;23;MODE;11
RAW_IMU;AX;20.0;AY;23.0;AZ;253.0;GX;0.0;GY;0.0;GZ;0.0;MAGX;-1.0;MAGY;-123.0;MAGZ;100.0
MOT;0;1150.0;1;1203.0;2;1150.0;3;1150.0;4;0.0;5;0.0;6;0.0;7;0.0;
RC;ROLL;1495.0;PITCH;1515.0;YAW;1514.0;THROTTLE;1056.0;AUX1;2003.0;AUX2;1500.0;AUX3;1500.0;AUX4;1500.0
ALTITUDE;196.0
DEBUG;DEBUG10.0;DEBUG2;0.0;DEBUG3;196.0;DEBUG4;0.0
ATTITUDE;ANGX;4.0;ANGY;5.0;HEAD;186.0
STATUS;CYCLETIME;2932;I2CERR;0;PRESENT;23;MODE;11
RAW_IMU;AX;21.0;AY;21.0;AZ;251.0;GX;0.0;GY;0.0;GZ;0.0;MAGX;0.0;MAGY;-123.0;MAGZ;101.0
MOT;0;1150.0;1;1202.0;2;1150.0;3;1150.0;4;0.0;5;0.0;6;0.0;7;0.0;
RC;ROLL;1495.0;PITCH;1515.0;YAW;1514.0;THROTTLE;1056.0;AUX1;2003.0;AUX2;1500.0;AUX3;1500.0;AUX4;1500.0
ALTITUDE;196.0
DEBUG;DEBUG10.0;DEBUG2;0.0;DEBUG3;196.0;DEBUG4;0.0
ATTITUDE;ANGX;4.0;ANGY;5.0;HEAD;186.0
STATUS;CYCLETIME;2808;I2CERR;0;PRESENT;23;MODE;11
RAW_IMU;AX;22.0;AY;24.0;AZ;249.0;GX;0.0;GY;0.0;GZ;0.0;MAGX;0.0;MAGY;-123.0;MAGZ;101.0
MOT;0;1150.0;1;1202.0;2;1150.0;3;1150.0;4;0.0;5;0.0;6;0.0;7;0.0;
RC;ROLL;1495.0;PITCH;1515.0;YAW;1514.0;THROTTLE;1058.0;AUX1;2003.0;AUX2;1500.0;AUX3;1500.0;AUX4;1500.0
ALTITUDE;196.0
DEBUG;DEBUG10.0;DEBUG2;0.0;DEBUG3;196.0;DEBUG4;0.0
ATTITUDE;ANGX;4.0;ANGY;5.0;HEAD;186.0
STATUS;CYCLETIME;2816;I2CERR;0;PRESENT;23;MODE;11
RAW_IMU;AX;22.0;AY;23.0;AZ;252.0;GX;0.0;GY;0.0;GZ;0.0;MAGX;0.0;MAGY;-123.0;MAGZ;101.0
MOT;0;1150.0;1;1202.0;2;1150.0;3;1150.0;4;0.0;5;0.0;6;0.0;7;0.0;
RC;ROLL;1495.0;PITCH;1515.0;YAW;1516.0;THROTTLE;1058.0;AUX1;2003.0;AUX2;1500.0;AUX3;1500.0;AUX4;1500.0
ALTITUDE;196.0
DEBUG;DEBUG10.0;DEBUG2;0.0;DEBUG3;196.0;DEBUG4;0.0
ATTITUDE;ANGX;4.0;ANGY;5.0;HEAD;186.0
STATUS;CYCLETIME;2876;I2CERR;0;PRESENT;23;MODE;11
RAW_IMU;AX;21.0;AY;23.0;AZ;247.0;GX;0.0;GY;0.0;GZ;0.0;MAGX;0.0;MAGY;-123.0;MAGZ;101.0
MOT;0;1150.0;1;1205.0;2;1150.0;3;1150.0;4;0.0;5;0.0;6;0.0;7;0.0;
RC;ROLL;1495.0;PITCH;1515.0;YAW;1516.0;THROTTLE;1058.0;AUX1;2003.0;AUX2;1500.0;AUX3;1500.0;AUX4;1500.0
ALTITUDE;196.0
DEBUG;DEBUG10.0;DEBUG2;0.0;DEBUG3;196.0;DEBUG4;0.0
ATTITUDE;ANGX;4.0;ANGY;5.0;HEAD;186.0
STATUS;CYCLETIME;2856;I2CERR;0;PRESENT;23;MODE;11
RAW_IMU;AX;20.0;AY;24.0;AZ;253.0;GX;0.0;GY;0.0;GZ;0.0;MAGX;0.0;MAGY;-124.0;MAGZ;100.0
MOT;0;1150.0;1;1205.0;2;1150.0;3;1150.0;4;0.0;5;0.0;6;0.0;7;0.0;
RC;ROLL;1495.0;PITCH;1515.0;YAW;1516.0;THROTTLE;1058.0;AUX1;2003.0;AUX2;1500.0;AUX3;1500.0;AUX4;1500.0
ALTITUDE;196.0
DEBUG;DEBUG10.0;DEBUG2;0.0;DEBUG3;196.0;DEBUG4;0.0
ATTITUDE;ANGX;4.0;ANGY;5.0;HEAD;186.0
STATUS;CYCLETIME;2976;I2CERR;0;PRESENT;23;MODE;11
RAW_IMU;AX;21.0;AY;22.0;AZ;252.0;GX;0.0;GY;0.0;GZ;0.0;MAGX;0.0;MAGY;-124.0;MAGZ;100.0
MOT;0;1150.0;1;1202.0;2;1150.0;3;1150.0;4;0.0;5;0.0;6;0.0;7;0.0;
RC;ROLL;1495.0;PITCH;1515.0;YAW;1516.0;THROTTLE;1058.0;AUX1;2003.0;AUX2;1500.0;AUX3;1500.0;AUX4;1500.0
ALTITUDE;196.0
DEBUG;DEBUG10.0;DEBUG2;0.0;DEBUG3;196.0;DEBUG4;0.0
ATTITUDE;ANGX;4.0;ANGY;5.0;HEAD;186.0
STATUS;CYCLETIME;2880;I2CERR;0;PRESENT;23;MODE;11
RAW_IMU;AX;21.0;AY;23.0;AZ;252.0;GX;0.0;GY;0.0;GZ;0.0;MAGX;0.0;MAGY;-124.0;MAGZ;100.0
MOT;0;1150.0;1;1201.0;2;1150.0;3;1150.0;4;0.0;5;0.0;6;0.0;7;0.0;
RC;ROLL;1495.0;PITCH;1515.0;YAW;1516.0;THROTTLE;1058.0;AUX1;2003.0;AUX2;1500.0;AUX3;1500.0;AUX4;1500.0
ALTITUDE;196.0
DEBUG;DEBUG10.0;DEBUG2;0.0;DEBUG3;196.0;DEBUG4;0.0
ATTITUDE;ANGX;4.0;ANGY;5.0;HEAD;186.0
STATUS;CYCLETIME;2888;I2CERR;0;PRESENT;23;MODE;11
RAW_IMU;AX;21.0;AY;20.0;AZ;252.0;GX;0.0;GY;0.0;GZ;0.0;MAGX;0.0;MAGY;-123.0;MAGZ;100.0
MOT;0;1150.0;1;1205.0;2;1150.0;3;1150.0;4;0.0;5;0.0;6;0.0;7;0.0;
RC;ROLL;1495.0;PITCH;1515.0;YAW;1516.0;THROTTLE;1058.0;AUX1;2003.0;AUX2;1500.0;AUX3;1500.0;AUX4;1500.0
ALTITUDE;196.0
DEBUG;DEBUG10.0;DEBUG2;0.0;DEBUG3;196.0;DEBUG4;0.0
ATTITUDE;ANGX;4.0;ANGY;5.0;HEAD;186.0
STATUS;CYCLETIME;3020;I2CERR;0;PRESENT;23;MODE;11
RAW_IMU;AX;21.0;AY;21.0;AZ;252.0;GX;0.0;GY;0.0;GZ;0.0;MAGX;0.0;MAGY;-123.0;MAGZ;100.0
MOT;0;1150.0;1;1202.0;2;1150.0;3;1150.0;4;0.0;5;0.0;6;0.0;7;0.0;
RC;ROLL;1495.0;PITCH;1515.0;YAW;1516.0;THROTTLE;1060.0;AUX1;2003.0;AUX2;1500.0;AUX3;1500.0;AUX4;1500.0
ALTITUDE;196.0
DEBUG;DEBUG10.0;DEBUG2;0.0;DEBUG3;196.0;DEBUG4;0.0
ATTITUDE;ANGX;4.0;ANGY;5.0;HEAD;186.0
STATUS;CYCLETIME;2888;I2CERR;0;PRESENT;23;MODE;11
RAW_IMU;AX;19.0;AY;23.0;AZ;253.0;GX;0.0;GY;0.0;GZ;0.0;MAGX;0.0;MAGY;-124.0;MAGZ;100.0
MOT;0;1150.0;1;1205.0;2;1150.0;3;1150.0;4;0.0;5;0.0;6;0.0;7;0.0;
RC;ROLL;1495.0;PITCH;1515.0;YAW;1516.0;THROTTLE;1060.0;AUX1;2003.0;AUX2;1500.0;AUX3;1500.0;AUX4;1500.0
ALTITUDE;196.0
DEBUG;DEBUG10.0;DEBUG2;0.0;DEBUG3;196.0;DEBUG4;0.0
ATTITUDE;ANGX;4.0;ANGY;5.0;HEAD;186.0
STATUS;CYCLETIME;2940;I2CERR;0;PRESENT;23;MODE;11
RAW_IMU;AX;21.0;AY;24.0;AZ;252.0;GX;0.0;GY;0.0;GZ;0.0;MAGX;0.0;MAGY;-124.0;MAGZ;100.0
MOT;0;1150.0;1;1204.0;2;1150.0;3;1150.0;4;0.0;5;0.0;6;0.0;7;0.0;
RC;ROLL;1495.0;PITCH;1515.0;YAW;1516.0;THROTTLE;1060.0;AUX1;2003.0;AUX2;1500.0;AUX3;1500.0;AUX4;1500.0
ALTITUDE;196.0
DEBUG;DEBUG10.0;DEBUG2;0.0;DEBUG3;196.0;DEBUG4;0.0
ATTITUDE;ANGX;4.0;ANGY;5.0;HEAD;187.0
STATUS;CYCLETIME;2892;I2CERR;0;PRESENT;23;MODE;11
RAW_IMU;AX;20.0;AY;24.0;AZ;252.0;GX;0.0;GY;0.0;GZ;0.0;MAGX;0.0;MAGY;-123.0;MAGZ;100.0
MOT;0;1150.0;1;1201.0;2;1150.0;3;1150.0;4;0.0;5;0.0;6;0.0;7;0.0;
RC;ROLL;1495.0;PITCH;1515.0;YAW;1516.0;THROTTLE;1060.0;AUX1;2003.0;AUX2;1500.0;AUX3;1500.0;AUX4;1500.0
ALTITUDE;196.0
DEBUG;DEBUG10.0;DEBUG2;0.0;DEBUG3;196.0;DEBUG4;0.0
ATTITUDE;ANGX;4.0;ANGY;5.0;HEAD;187.0
STATUS;CYCLETIME;2912;I2CERR;0;PRESENT;23;MODE;11
RAW_IMU;AX;21.0;AY;24.0;AZ;251.0;GX;0.0;GY;0.0;GZ;0.0;MAGX;0.0;MAGY;-123.0;MAGZ;100.0
MOT;0;1150.0;1;1204.0;2;1150.0;3;1150.0;4;0.0;5;0.0;6;0.0;7;0.0;
RC;ROLL;1499.0;PITCH;1515.0;YAW;1514.0;THROTTLE;1058.0;AUX1;2003.0;AUX2;1500.0;AUX3;1500.0;AUX4;1500.0
ALTITUDE;196.0
DEBUG;DEBUG10.0;DEBUG2;0.0;DEBUG3;196.0;DEBUG4;0.0
ATTITUDE;ANGX;4.0;ANGY;5.0;HEAD;187.0
STATUS;CYCLETIME;2948;I2CERR;0;PRESENT;23;MODE;11
RAW_IMU;AX;21.0;AY;23.0;AZ;249.0;GX;0.0;GY;0.0;GZ;0.0;MAGX;0.0;MAGY;-123.0;MAGZ;100.0
MOT;0;1150.0;1;1198.0;2;1150.0;3;1150.0;4;0.0;5;0.0;6;0.0;7;0.0;
RC;ROLL;1499.0;PITCH;1515.0;YAW;1514.0;THROTTLE;1058.0;AUX1;2003.0;AUX2;1500.0;AUX3;1500.0;AUX4;1500.0
ALTITUDE;196.0
DEBUG;DEBUG10.0;DEBUG2;0.0;DEBUG3;196.0;DEBUG4;0.0
ATTITUDE;ANGX;4.0;ANGY;5.0;HEAD;187.0
STATUS;CYCLETIME;2840;I2CERR;0;PRESENT;23;MODE;11
RAW_IMU;AX;18.0;AY;25.0;AZ;249.0;GX;0.0;GY;0.0;GZ;0.0;MAGX;0.0;MAGY;-123.0;MAGZ;100.0
MOT;0;1150.0;1;1203.0;2;1150.0;3;1150.0;4;0.0;5;0.0;6;0.0;7;0.0;
RC;ROLL;1499.0;PITCH;1515.0;YAW;1514.0;THROTTLE;1058.0;AUX1;2005.0;AUX2;1500.0;AUX3;1500.0;AUX4;1500.0
ALTITUDE;196.0
DEBUG;DEBUG10.0;DEBUG2;0.0;DEBUG3;196.0;DEBUG4;0.0
ATTITUDE;ANGX;4.0;ANGY;5.0;HEAD;187.0
STATUS;CYCLETIME;2976;I2CERR;0;PRESENT;23;MODE;11
RAW_IMU;AX;18.0;AY;24.0;AZ;249.0;GX;0.0;GY;0.0;GZ;0.0;MAGX;0.0;MAGY;-123.0;MAGZ;101.0
MOT;0;1150.0;1;1200.0;2;1150.0;3;1150.0;4;0.0;5;0.0;6;0.0;7;0.0;
RC;ROLL;1497.0;PITCH;1515.0;YAW;1514.0;THROTTLE;1060.0;AUX1;2005.0;AUX2;1500.0;AUX3;1500.0;AUX4;1500.0
ALTITUDE;196.0
DEBUG;DEBUG10.0;DEBUG2;0.0;DEBUG3;196.0;DEBUG4;0.0
ATTITUDE;ANGX;4.0;ANGY;5.0;HEAD;187.0
STATUS;CYCLETIME;2912;I2CERR;0;PRESENT;23;MODE;11
RAW_IMU;AX;19.0;AY;22.0;AZ;251.0;GX;0.0;GY;0.0;GZ;0.0;MAGX;0.0;MAGY;-123.0;MAGZ;101.0
MOT;0;1150.0;1;1201.0;2;1150.0;3;1150.0;4;0.0;5;0.0;6;0.0;7;0.0;
RC;ROLL;1497.0;PITCH;1515.0;YAW;1514.0;THROTTLE;1060.0;AUX1;2005.0;AUX2;1500.0;AUX3;1500.0;AUX4;1500.0
ALTITUDE;196.0
DEBUG;DEBUG10.0;DEBUG2;0.0;DEBUG3;196.0;DEBUG4;0.0
ATTITUDE;ANGX;4.0;ANGY;5.0;HEAD;187.0
STATUS;CYCLETIME;2908;I2CERR;0;PRESENT;23;MODE;11
RAW_IMU;AX;17.0;AY;22.0;AZ;251.0;GX;0.0;GY;0.0;GZ;0.0;MAGX;-1.0;MAGY;-123.0;MAGZ;100.0
MOT;0;1150.0;1;1201.0;2;1150.0;3;1150.0;4;0.0;5;0.0;6;0.0;7;0.0;
RC;ROLL;1497.0;PITCH;1515.0;YAW;1514.0;THROTTLE;1060.0;AUX1;2005.0;AUX2;1500.0;AUX3;1500.0;AUX4;1500.0
ALTITUDE;196.0
DEBUG;DEBUG10.0;DEBUG2;0.0;DEBUG3;196.0;DEBUG4;0.0
ATTITUDE;ANGX;4.0;ANGY;5.0;HEAD;187.0
STATUS;CYCLETIME;2868;I2CERR;0;PRESENT;23;MODE;11
RAW_IMU;AX;19.0;AY;22.0;AZ;250.0;GX;0.0;GY;0.0;GZ;0.0;MAGX;-1.0;MAGY;-123.0;MAGZ;100.0
MOT;0;1150.0;1;1201.0;2;1150.0;3;1150.0;4;0.0;5;0.0;6;0.0;7;0.0;
RC;ROLL;1497.0;PITCH;1515.0;YAW;1514.0;THROTTLE;1060.0;AUX1;2005.0;AUX2;1500.0;AUX3;1500.0;AUX4;1500.0
ALTITUDE;196.0
DEBUG;DEBUG10.0;DEBUG2;0.0;DEBUG3;196.0;DEBUG4;0.0
ATTITUDE;ANGX;4.0;ANGY;5.0;HEAD;186.0
STATUS;CYCLETIME;3112;I2CERR;0;PRESENT;23;MODE;11
RAW_IMU;AX;19.0;AY;24.0;AZ;250.0;GX;0.0;GY;0.0;GZ;0.0;MAGX;0.0;MAGY;-123.0;MAGZ;100.0
MOT;0;1150.0;1;1200.0;2;1150.0;3;1150.0;4;0.0;5;0.0;6;0.0;7;0.0;
RC;ROLL;1497.0;PITCH;1515.0;YAW;1514.0;THROTTLE;1060.0;AUX1;2005.0;AUX2;1500.0;AUX3;1500.0;AUX4;1500.0
ALTITUDE;196.0
DEBUG;DEBUG10.0;DEBUG2;0.0;DEBUG3;196.0;DEBUG4;0.0
ATTITUDE;ANGX;4.0;ANGY;5.0;HEAD;186.0
STATUS;CYCLETIME;2856;I2CERR;0;PRESENT;23;MODE;11
RAW_IMU;AX;21.0;AY;22.0;AZ;251.0;GX;0.0;GY;0.0;GZ;0.0;MAGX;0.0;MAGY;-123.0;MAGZ;100.0
MOT;0;1150.0;1;1201.0;2;1150.0;3;1150.0;4;0.0;5;0.0;6;0.0;7;0.0;
RC;ROLL;1497.0;PITCH;1515.0;YAW;1514.0;THROTTLE;1058.0;AUX1;2003.0;AUX2;1500.0;AUX3;1500.0;AUX4;1500.0
ALTITUDE;196.0
DEBUG;DEBUG10.0;DEBUG2;0.0;DEBUG3;196.0;DEBUG4;0.0
ATTITUDE;ANGX;4.0;ANGY;5.0;HEAD;186.0
STATUS;CYCLETIME;2932;I2CERR;0;PRESENT;23;MODE;11
RAW_IMU;AX;21.0;AY;22.0;AZ;253.0;GX;0.0;GY;0.0;GZ;0.0;MAGX;0.0;MAGY;-123.0;MAGZ;100.0
MOT;0;1150.0;1;1200.0;2;1150.0;3;1150.0;4;0.0;5;0.0;6;0.0;7;0.0;
RC;ROLL;1497.0;PITCH;1515.0;YAW;1516.0;THROTTLE;1058.0;AUX1;2003.0;AUX2;1500.0;AUX3;1500.0;AUX4;1500.0
ALTITUDE;196.0
DEBUG;DEBUG10.0;DEBUG2;0.0;DEBUG3;196.0;DEBUG4;0.0
ATTITUDE;ANGX;4.0;ANGY;5.0;HEAD;186.0
STATUS;CYCLETIME;2828;I2CERR;0;PRESENT;23;MODE;11
RAW_IMU;AX;22.0;AY;20.0;AZ;251.0;GX;0.0;GY;0.0;GZ;0.0;MAGX;0.0;MAGY;-124.0;MAGZ;100.0
MOT;0;1150.0;1;1203.0;2;1150.0;3;1150.0;4;0.0;5;0.0;6;0.0;7;0.0;
RC;ROLL;1497.0;PITCH;1515.0;YAW;1516.0;THROTTLE;1058.0;AUX1;2003.0;AUX2;1500.0;AUX3;1500.0;AUX4;1500.0
ALTITUDE;196.0
DEBUG;DEBUG10.0;DEBUG2;0.0;DEBUG3;196.0;DEBUG4;0.0
ATTITUDE;ANGX;4.0;ANGY;5.0;HEAD;186.0
STATUS;CYCLETIME;2856;I2CERR;0;PRESENT;23;MODE;11
RAW_IMU;AX;21.0;AY;23.0;AZ;248.0;GX;0.0;GY;0.0;GZ;0.0;MAGX;0.0;MAGY;-124.0;MAGZ;100.0
MOT;0;1150.0;1;1203.0;2;1150.0;3;1150.0;4;0.0;5;0.0;6;0.0;7;0.0;
RC;ROLL;1497.0;PITCH;1515.0;YAW;1516.0;THROTTLE;1058.0;AUX1;2003.0;AUX2;1500.0;AUX3;1500.0;AUX4;1500.0
ALTITUDE;196.0
DEBUG;DEBUG10.0;DEBUG2;0.0;DEBUG3;196.0;DEBUG4;0.0
ATTITUDE;ANGX;4.0;ANGY;5.0;HEAD;186.0
STATUS;CYCLETIME;2876;I2CERR;0;PRESENT;23;MODE;11
RAW_IMU;AX;21.0;AY;22.0;AZ;249.0;GX;0.0;GY;0.0;GZ;0.0;MAGX;-1.0;MAGY;-122.0;MAGZ;100.0
MOT;0;1150.0;1;1205.0;2;1150.0;3;1150.0;4;0.0;5;0.0;6;0.0;7;0.0;
RC;ROLL;1497.0;PITCH;1515.0;YAW;1516.0;THROTTLE;1058.0;AUX1;2003.0;AUX2;1500.0;AUX3;1500.0;AUX4;1500.0
ALTITUDE;196.0
DEBUG;DEBUG10.0;DEBUG2;0.0;DEBUG3;196.0;DEBUG4;0.0
ATTITUDE;ANGX;4.0;ANGY;5.0;HEAD;186.0
STATUS;CYCLETIME;2864;I2CERR;0;PRESENT;23;MODE;11
RAW_IMU;AX;20.0;AY;23.0;AZ;250.0;GX;0.0;GY;0.0;GZ;0.0;MAGX;-1.0;MAGY;-122.0;MAGZ;100.0
MOT;0;1150.0;1;1205.0;2;1150.0;3;1150.0;4;0.0;5;0.0;6;0.0;7;0.0;
RC;ROLL;1497.0;PITCH;1515.0;YAW;1516.0;THROTTLE;1058.0;AUX1;2003.0;AUX2;1500.0;AUX3;1500.0;AUX4;1500.0
ALTITUDE;196.0
DEBUG;DEBUG10.0;DEBUG2;0.0;DEBUG3;196.0;DEBUG4;0.0
ATTITUDE;ANGX;4.0;ANGY;5.0;HEAD;186.0
STATUS;CYCLETIME;2876;I2CERR;0;PRESENT;23;MODE;11
RAW_IMU;AX;20.0;AY;22.0;AZ;249.0;GX;0.0;GY;0.0;GZ;0.0;MAGX;-1.0;MAGY;-123.0;MAGZ;100.0
MOT;0;1150.0;1;1203.0;2;1150.0;3;1150.0;4;0.0;5;0.0;6;0.0;7;0.0;
RC;ROLL;1497.0;PITCH;1515.0;YAW;1516.0;THROTTLE;1058.0;AUX1;2003.0;AUX2;1500.0;AUX3;1500.0;AUX4;1500.0
ALTITUDE;196.0
DEBUG;DEBUG10.0;DEBUG2;0.0;DEBUG3;196.0;DEBUG4;0.0
ATTITUDE;ANGX;4.0;ANGY;5.0;HEAD;186.0
STATUS;CYCLETIME;3036;I2CERR;0;PRESENT;23;MODE;11
RAW_IMU;AX;21.0;AY;23.0;AZ;251.0;GX;0.0;GY;0.0;GZ;0.0;MAGX;-1.0;MAGY;-123.0;MAGZ;100.0
MOT;0;1150.0;1;1205.0;2;1150.0;3;1150.0;4;0.0;5;0.0;6;0.0;7;0.0;
RC;ROLL;1497.0;PITCH;1515.0;YAW;1516.0;THROTTLE;1058.0;AUX1;2003.0;AUX2;1500.0;AUX3;1500.0;AUX4;1500.0
ALTITUDE;196.0
DEBUG;DEBUG10.0;DEBUG2;0.0;DEBUG3;196.0;DEBUG4;0.0
ATTITUDE;ANGX;4.0;ANGY;5.0;HEAD;186.0
STATUS;CYCLETIME;3008;I2CERR;0;PRESENT;23;MODE;11
RAW_IMU;AX;24.0;AY;23.0;AZ;251.0;GX;0.0;GY;0.0;GZ;0.0;MAGX;0.0;MAGY;-122.0;MAGZ;99.0
MOT;0;1150.0;1;1201.0;2;1150.0;3;1150.0;4;0.0;5;0.0;6;0.0;7;0.0;
RC;ROLL;1497.0;PITCH;1515.0;YAW;1516.0;THROTTLE;1058.0;AUX1;2003.0;AUX2;1500.0;AUX3;1500.0;AUX4;1500.0
ALTITUDE;196.0
DEBUG;DEBUG10.0;DEBUG2;0.0;DEBUG3;196.0;DEBUG4;0.0
ATTITUDE;ANGX;4.0;ANGY;5.0;HEAD;186.0
STATUS;CYCLETIME;2856;I2CERR;0;PRESENT;23;MODE;11
RAW_IMU;AX;22.0;AY;24.0;AZ;251.0;GX;0.0;GY;0.0;GZ;0.0;MAGX;0.0;MAGY;-122.0;MAGZ;99.0
MOT;0;1150.0;1;1201.0;2;1150.0;3;1150.0;4;0.0;5;0.0;6;0.0;7;0.0;
RC;ROLL;1497.0;PITCH;1515.0;YAW;1516.0;THROTTLE;1058.0;AUX1;2003.0;AUX2;1500.0;AUX3;1500.0;AUX4;1500.0
ALTITUDE;196.0
DEBUG;DEBUG10.0;DEBUG2;0.0;DEBUG3;196.0;DEBUG4;0.0
ATTITUDE;ANGX;4.0;ANGY;5.0;HEAD;186.0
STATUS;CYCLETIME;2932;I2CERR;0;PRESENT;23;MODE;11
RAW_IMU;AX;20.0;AY;23.0;AZ;252.0;GX;0.0;GY;0.0;GZ;0.0;MAGX;0.0;MAGY;-123.0;MAGZ;100.0
MOT;0;1150.0;1;1198.0;2;1150.0;3;1150.0;4;0.0;5;0.0;6;0.0;7;0.0;
RC;ROLL;1497.0;PITCH;1515.0;YAW;1513.0;THROTTLE;1058.0;AUX1;2003.0;AUX2;1500.0;AUX3;1500.0;AUX4;1500.0
ALTITUDE;196.0
DEBUG;DEBUG10.0;DEBUG2;0.0;DEBUG3;196.0;DEBUG4;0.0
ATTITUDE;ANGX;4.0;ANGY;5.0;HEAD;186.0
STATUS;CYCLETIME;2836;I2CERR;0;PRESENT;23;MODE;11
RAW_IMU;AX;20.0;AY;24.0;AZ;251.0;GX;0.0;GY;0.0;GZ;0.0;MAGX;0.0;MAGY;-123.0;MAGZ;100.0
MOT;0;1150.0;1;1199.0;2;1150.0;3;1150.0;4;0.0;5;0.0;6;0.0;7;0.0;
RC;ROLL;1497.0;PITCH;1515.0;YAW;1513.0;THROTTLE;1058.0;AUX1;2003.0;AUX2;1500.0;AUX3;1500.0;AUX4;1500.0
ALTITUDE;196.0
DEBUG;DEBUG10.0;DEBUG2;0.0;DEBUG3;196.0;DEBUG4;0.0
ATTITUDE;ANGX;4.0;ANGY;5.0;HEAD;186.0
STATUS;CYCLETIME;2888;I2CERR;0;PRESENT;23;MODE;11
RAW_IMU;AX;20.0;AY;22.0;AZ;250.0;GX;0.0;GY;0.0;GZ;0.0;MAGX;-1.0;MAGY;-123.0;MAGZ;100.0
MOT;0;1150.0;1;1200.0;2;1150.0;3;1150.0;4;0.0;5;0.0;6;0.0;7;0.0;
RC;ROLL;1497.0;PITCH;1515.0;YAW;1513.0;THROTTLE;1058.0;AUX1;2003.0;AUX2;1500.0;AUX3;1500.0;AUX4;1500.0
ALTITUDE;196.0
DEBUG;DEBUG10.0;DEBUG2;0.0;DEBUG3;196.0;DEBUG4;0.0
ATTITUDE;ANGX;4.0;ANGY;5.0;HEAD;186.0
STATUS;CYCLETIME;2964;I2CERR;0;PRESENT;23;MODE;11
RAW_IMU;AX;21.0;AY;22.0;AZ;251.0;GX;0.0;GY;0.0;GZ;0.0;MAGX;-1.0;MAGY;-123.0;MAGZ;100.0
MOT;0;1150.0;1;1200.0;2;1150.0;3;1150.0;4;0.0;5;0.0;6;0.0;7;0.0;
RC;ROLL;1497.0;PITCH;1515.0;YAW;1513.0;THROTTLE;1058.0;AUX1;2003.0;AUX2;1500.0;AUX3;1500.0;AUX4;1500.0
ALTITUDE;196.0
DEBUG;DEBUG10.0;DEBUG2;0.0;DEBUG3;196.0;DEBUG4;0.0
ATTITUDE;ANGX;4.0;ANGY;5.0;HEAD;186.0
STATUS;CYCLETIME;2912;I2CERR;0;PRESENT;23;MODE;11
RAW_IMU;AX;21.0;AY;23.0;AZ;253.0;GX;0.0;GY;0.0;GZ;0.0;MAGX;-1.0;MAGY;-122.0;MAGZ;100.0
MOT;0;1150.0;1;1199.0;2;1150.0;3;1150.0;4;0.0;5;0.0;6;0.0;7;0.0;
RC;ROLL;1495.0;PITCH;1515.0;YAW;1513.0;THROTTLE;1058.0;AUX1;2003.0;AUX2;1500.0;AUX3;1500.0;AUX4;1500.0
ALTITUDE;196.0
DEBUG;DEBUG10.0;DEBUG2;0.0;DEBUG3;196.0;DEBUG4;0.0
ATTITUDE;ANGX;4.0;ANGY;5.0;HEAD;186.0
STATUS;CYCLETIME;2876;I2CERR;0;PRESENT;23;MODE;11
RAW_IMU;AX;20.0;AY;22.0;AZ;252.0;GX;0.0;GY;0.0;GZ;0.0;MAGX;-1.0;MAGY;-122.0;MAGZ;100.0
MOT;0;1150.0;1;1203.0;2;1150.0;3;1150.0;4;0.0;5;0.0;6;0.0;7;0.0;
RC;ROLL;1495.0;PITCH;1515.0;YAW;1513.0;THROTTLE;1060.0;AUX1;2003.0;AUX2;1500.0;AUX3;1500.0;AUX4;1500.0
ALTITUDE;196.0
DEBUG;DEBUG10.0;DEBUG2;0.0;DEBUG3;196.0;DEBUG4;0.0
ATTITUDE;ANGX;4.0;ANGY;5.0;HEAD;186.0
STATUS;CYCLETIME;2884;I2CERR;0;PRESENT;23;MODE;11
RAW_IMU;AX;20.0;AY;23.0;AZ;253.0;GX;0.0;GY;0.0;GZ;0.0;MAGX;-1.0;MAGY;-122.0;MAGZ;100.0
MOT;0;1150.0;1;1200.0;2;1150.0;3;1150.0;4;0.0;5;0.0;6;0.0;7;0.0;
RC;ROLL;1495.0;PITCH;1513.0;YAW;1513.0;THROTTLE;1060.0;AUX1;2003.0;AUX2;1500.0;AUX3;1500.0;AUX4;1500.0
ALTITUDE;196.0
DEBUG;DEBUG10.0;DEBUG2;0.0;DEBUG3;196.0;DEBUG4;0.0
ATTITUDE;ANGX;4.0;ANGY;5.0;HEAD;186.0
STATUS;CYCLETIME;2860;I2CERR;0;PRESENT;23;MODE;11
RAW_IMU;AX;19.0;AY;22.0;AZ;254.0;GX;0.0;GY;0.0;GZ;0.0;MAGX;0.0;MAGY;-123.0;MAGZ;100.0
MOT;0;1150.0;1;1200.0;2;1150.0;3;1150.0;4;0.0;5;0.0;6;0.0;7;0.0;
RC;ROLL;1497.0;PITCH;1513.0;YAW;1513.0;THROTTLE;1060.0;AUX1;2003.0;AUX2;1500.0;AUX3;1500.0;AUX4;1500.0
ALTITUDE;196.0
DEBUG;DEBUG10.0;DEBUG2;0.0;DEBUG3;196.0;DEBUG4;0.0
ATTITUDE;ANGX;4.0;ANGY;5.0;HEAD;186.0
STATUS;CYCLETIME;2820;I2CERR;0;PRESENT;23;MODE;11
RAW_IMU;AX;22.0;AY;23.0;AZ;252.0;GX;0.0;GY;0.0;GZ;0.0;MAGX;0.0;MAGY;-123.0;MAGZ;100.0
MOT;0;1150.0;1;1200.0;2;1150.0;3;1150.0;4;0.0;5;0.0;6;0.0;7;0.0;
RC;ROLL;1497.0;PITCH;1513.0;YAW;1513.0;THROTTLE;1060.0;AUX1;2003.0;AUX2;1500.0;AUX3;1500.0;AUX4;1500.0
ALTITUDE;196.0
DEBUG;DEBUG10.0;DEBUG2;0.0;DEBUG3;196.0;DEBUG4;0.0
ATTITUDE;ANGX;4.0;ANGY;5.0;HEAD;186.0
STATUS;CYCLETIME;2888;I2CERR;0;PRESENT;23;MODE;11
RAW_IMU;AX;21.0;AY;25.0;AZ;250.0;GX;0.0;GY;0.0;GZ;0.0;MAGX;-2.0;MAGY;-123.0;MAGZ;100.0
MOT;0;1150.0;1;1201.0;2;1150.0;3;1150.0;4;0.0;5;0.0;6;0.0;7;0.0;
RC;ROLL;1497.0;PITCH;1513.0;YAW;1513.0;THROTTLE;1060.0;AUX1;2003.0;AUX2;1500.0;AUX3;1500.0;AUX4;1500.0
ALTITUDE;196.0
DEBUG;DEBUG10.0;DEBUG2;0.0;DEBUG3;196.0;DEBUG4;0.0
ATTITUDE;ANGX;4.0;ANGY;5.0;HEAD;186.0
STATUS;CYCLETIME;2872;I2CERR;0;PRESENT;23;MODE;11
RAW_IMU;AX;19.0;AY;24.0;AZ;252.0;GX;0.0;GY;0.0;GZ;0.0;MAGX;-2.0;MAGY;-123.0;MAGZ;100.0
MOT;0;1150.0;1;1204.0;2;1150.0;3;1150.0;4;0.0;5;0.0;6;0.0;7;0.0;
RC;ROLL;1495.0;PITCH;1513.0;YAW;1515.0;THROTTLE;1058.0;AUX1;2003.0;AUX2;1500.0;AUX3;1500.0;AUX4;1500.0
ALTITUDE;196.0
DEBUG;DEBUG10.0;DEBUG2;0.0;DEBUG3;196.0;DEBUG4;0.0
ATTITUDE;ANGX;4.0;ANGY;5.0;HEAD;186.0
STATUS;CYCLETIME;2936;I2CERR;0;PRESENT;23;MODE;11
RAW_IMU;AX;19.0;AY;23.0;AZ;255.0;GX;0.0;GY;0.0;GZ;0.0;MAGX;-1.0;MAGY;-122.0;MAGZ;100.0
MOT;0;1150.0;1;1203.0;2;1150.0;3;1150.0;4;0.0;5;0.0;6;0.0;7;0.0;
RC;ROLL;1495.0;PITCH;1515.0;YAW;1515.0;THROTTLE;1058.0;AUX1;2003.0;AUX2;1500.0;AUX3;1500.0;AUX4;1500.0
ALTITUDE;196.0
DEBUG;DEBUG10.0;DEBUG2;0.0;DEBUG3;196.0;DEBUG4;0.0
ATTITUDE;ANGX;4.0;ANGY;5.0;HEAD;186.0
STATUS;CYCLETIME;2840;I2CERR;0;PRESENT;23;MODE;11
RAW_IMU;AX;21.0;AY;21.0;AZ;253.0;GX;0.0;GY;0.0;GZ;0.0;MAGX;-1.0;MAGY;-122.0;MAGZ;100.0
MOT;0;1150.0;1;1199.0;2;1150.0;3;1150.0;4;0.0;5;0.0;6;0.0;7;0.0;
RC;ROLL;1495.0;PITCH;1515.0;YAW;1515.0;THROTTLE;1058.0;AUX1;2003.0;AUX2;1500.0;AUX3;1500.0;AUX4;1500.0
ALTITUDE;196.0
DEBUG;DEBUG10.0;DEBUG2;0.0;DEBUG3;196.0;DEBUG4;0.0
ATTITUDE;ANGX;4.0;ANGY;5.0;HEAD;186.0
STATUS;CYCLETIME;2860;I2CERR;0;PRESENT;23;MODE;11
RAW_IMU;AX;18.0;AY;22.0;AZ;250.0;GX;0.0;GY;0.0;GZ;0.0;MAGX;-1.0;MAGY;-123.0;MAGZ;99.0
MOT;0;1150.0;1;1203.0;2;1150.0;3;1150.0;4;0.0;5;0.0;6;0.0;7;0.0;
RC;ROLL;1495.0;PITCH;1515.0;YAW;1515.0;THROTTLE;1060.0;AUX1;2003.0;AUX2;1500.0;AUX3;1500.0;AUX4;1500.0
ALTITUDE;196.0
DEBUG;DEBUG10.0;DEBUG2;0.0;DEBUG3;196.0;DEBUG4;0.0
ATTITUDE;ANGX;4.0;ANGY;5.0;HEAD;186.0
STATUS;CYCLETIME;3024;I2CERR;0;PRESENT;23;MODE;11
RAW_IMU;AX;18.0;AY;22.0;AZ;249.0;GX;0.0;GY;0.0;GZ;0.0;MAGX;-1.0;MAGY;-123.0;MAGZ;99.0
MOT;0;1150.0;1;1200.0;2;1150.0;3;1150.0;4;0.0;5;0.0;6;0.0;7;0.0;
RC;ROLL;1497.0;PITCH;1515.0;YAW;1515.0;THROTTLE;1060.0;AUX1;2003.0;AUX2;1500.0;AUX3;1500.0;AUX4;1500.0
ALTITUDE;196.0
DEBUG;DEBUG10.0;DEBUG2;0.0;DEBUG3;196.0;DEBUG4;0.0
ATTITUDE;ANGX;4.0;ANGY;5.0;HEAD;186.0
STATUS;CYCLETIME;2836;I2CERR;0;PRESENT;23;MODE;11
RAW_IMU;AX;21.0;AY;23.0;AZ;252.0;GX;0.0;GY;0.0;GZ;0.0;MAGX;0.0;MAGY;-124.0;MAGZ;100.0
MOT;0;1150.0;1;1202.0;2;1150.0;3;1150.0;4;0.0;5;0.0;6;0.0;7;0.0;
RC;ROLL;1497.0;PITCH;1515.0;YAW;1515.0;THROTTLE;1060.0;AUX1;2003.0;AUX2;1500.0;AUX3;1500.0;AUX4;1500.0
ALTITUDE;196.0
DEBUG;DEBUG10.0;DEBUG2;0.0;DEBUG3;196.0;DEBUG4;0.0
ATTITUDE;ANGX;4.0;ANGY;5.0;HEAD;186.0
STATUS;CYCLETIME;2856;I2CERR;0;PRESENT;23;MODE;11
RAW_IMU;AX;20.0;AY;23.0;AZ;255.0;GX;0.0;GY;0.0;GZ;0.0;MAGX;0.0;MAGY;-124.0;MAGZ;100.0
MOT;0;1150.0;1;1201.0;2;1150.0;3;1150.0;4;0.0;5;0.0;6;0.0;7;0.0;
RC;ROLL;1497.0;PITCH;1515.0;YAW;1515.0;THROTTLE;1060.0;AUX1;2003.0;AUX2;1500.0;AUX3;1500.0;AUX4;1500.0
ALTITUDE;196.0
DEBUG;DEBUG10.0;DEBUG2;0.0;DEBUG3;196.0;DEBUG4;0.0
ATTITUDE;ANGX;4.0;ANGY;5.0;HEAD;186.0
STATUS;CYCLETIME;3088;I2CERR;0;PRESENT;23;MODE;11
RAW_IMU;AX;20.0;AY;24.0;AZ;252.0;GX;0.0;GY;0.0;GZ;0.0;MAGX;-1.0;MAGY;-123.0;MAGZ;100.0
MOT;0;1150.0;1;1202.0;2;1150.0;3;1150.0;4;0.0;5;0.0;6;0.0;7;0.0;
RC;ROLL;1497.0;PITCH;1515.0;YAW;1515.0;THROTTLE;1060.0;AUX1;2003.0;AUX2;1500.0;AUX3;1500.0;AUX4;1500.0
ALTITUDE;196.0
DEBUG;DEBUG10.0;DEBUG2;0.0;DEBUG3;196.0;DEBUG4;0.0
ATTITUDE;ANGX;4.0;ANGY;5.0;HEAD;186.0
STATUS;CYCLETIME;2848;I2CERR;0;PRESENT;23;MODE;11
RAW_IMU;AX;23.0;AY;24.0;AZ;255.0;GX;0.0;GY;0.0;GZ;0.0;MAGX;-1.0;MAGY;-123.0;MAGZ;100.0
MOT;0;1150.0;1;1201.0;2;1150.0;3;1150.0;4;0.0;5;0.0;6;0.0;7;0.0;
RC;ROLL;1497.0;PITCH;1515.0;YAW;1515.0;THROTTLE;1060.0;AUX1;2003.0;AUX2;1500.0;AUX3;1500.0;AUX4;1500.0
ALTITUDE;196.0
DEBUG;DEBUG10.0;DEBUG2;0.0;DEBUG3;196.0;DEBUG4;0.0
ATTITUDE;ANGX;4.0;ANGY;5.0;HEAD;186.0
STATUS;CYCLETIME;2944;I2CERR;0;PRESENT;23;MODE;11
RAW_IMU;AX;20.0;AY;24.0;AZ;253.0;GX;0.0;GY;0.0;GZ;0.0;MAGX;-1.0;MAGY;-123.0;MAGZ;100.0
MOT;0;1150.0;1;1196.0;2;1150.0;3;1150.0;4;0.0;5;0.0;6;0.0;7;0.0;
RC;ROLL;1497.0;PITCH;1515.0;YAW;1515.0;THROTTLE;1060.0;AUX1;2003.0;AUX2;1500.0;AUX3;1500.0;AUX4;1500.0
ALTITUDE;196.0
DEBUG;DEBUG10.0;DEBUG2;0.0;DEBUG3;196.0;DEBUG4;0.0
ATTITUDE;ANGX;4.0;ANGY;5.0;HEAD;186.0
STATUS;CYCLETIME;2820;I2CERR;0;PRESENT;23;MODE;11
RAW_IMU;AX;22.0;AY;22.0;AZ;250.0;GX;0.0;GY;0.0;GZ;0.0;MAGX;-1.0;MAGY;-123.0;MAGZ;100.0
MOT;0;1150.0;1;1203.0;2;1150.0;3;1150.0;4;0.0;5;0.0;6;0.0;7;0.0;
RC;ROLL;1497.0;PITCH;1515.0;YAW;1515.0;THROTTLE;1060.0;AUX1;2003.0;AUX2;1500.0;AUX3;1500.0;AUX4;1500.0
ALTITUDE;196.0
DEBUG;DEBUG10.0;DEBUG2;0.0;DEBUG3;196.0;DEBUG4;0.0
ATTITUDE;ANGX;4.0;ANGY;5.0;HEAD;186.0
STATUS;CYCLETIME;2796;I2CERR;0;PRESENT;23;MODE;11
RAW_IMU;AX;20.0;AY;22.0;AZ;252.0;GX;0.0;GY;0.0;GZ;0.0;MAGX;-1.0;MAGY;-123.0;MAGZ;100.0
MOT;0;1150.0;1;1200.0;2;1150.0;3;1150.0;4;0.0;5;0.0;6;0.0;7;0.0;
RC;ROLL;1497.0;PITCH;1515.0;YAW;1515.0;THROTTLE;1060.0;AUX1;2003.0;AUX2;1500.0;AUX3;1500.0;AUX4;1500.0
ALTITUDE;196.0
DEBUG;DEBUG10.0;DEBUG2;0.0;DEBUG3;196.0;DEBUG4;0.0
ATTITUDE;ANGX;4.0;ANGY;5.0;HEAD;186.0
STATUS;CYCLETIME;2880;I2CERR;0;PRESENT;23;MODE;11
RAW_IMU;AX;20.0;AY;23.0;AZ;252.0;GX;0.0;GY;0.0;GZ;0.0;MAGX;-1.0;MAGY;-123.0;MAGZ;100.0
MOT;0;1150.0;1;1202.0;2;1150.0;3;1150.0;4;0.0;5;0.0;6;0.0;7;0.0;
RC;ROLL;1497.0;PITCH;1515.0;YAW;1515.0;THROTTLE;1060.0;AUX1;2003.0;AUX2;1500.0;AUX3;1500.0;AUX4;1500.0
ALTITUDE;196.0
DEBUG;DEBUG10.0;DEBUG2;0.0;DEBUG3;196.0;DEBUG4;0.0
ATTITUDE;ANGX;4.0;ANGY;5.0;HEAD;186.0
STATUS;CYCLETIME;2860;I2CERR;0;PRESENT;23;MODE;11
RAW_IMU;AX;21.0;AY;24.0;AZ;252.0;GX;0.0;GY;0.0;GZ;0.0;MAGX;-1.0;MAGY;-123.0;MAGZ;100.0
MOT;0;1150.0;1;1201.0;2;1150.0;3;1150.0;4;0.0;5;0.0;6;0.0;7;0.0;
RC;ROLL;1495.0;PITCH;1515.0;YAW;1513.0;THROTTLE;1060.0;AUX1;2003.0;AUX2;1500.0;AUX3;1500.0;AUX4;1500.0
ALTITUDE;196.0
DEBUG;DEBUG10.0;DEBUG2;0.0;DEBUG3;196.0;DEBUG4;0.0
ATTITUDE;ANGX;4.0;ANGY;5.0;HEAD;186.0
STATUS;CYCLETIME;2892;I2CERR;0;PRESENT;23;MODE;11
RAW_IMU;AX;20.0;AY;22.0;AZ;252.0;GX;0.0;GY;0.0;GZ;0.0;MAGX;0.0;MAGY;-123.0;MAGZ;100.0
MOT;0;1150.0;1;1202.0;2;1150.0;3;1150.0;4;0.0;5;0.0;6;0.0;7;0.0;
RC;ROLL;1495.0;PITCH;1515.0;YAW;1513.0;THROTTLE;1060.0;AUX1;2003.0;AUX2;1500.0;AUX3;1500.0;AUX4;1500.0
ALTITUDE;196.0
DEBUG;DEBUG10.0;DEBUG2;0.0;DEBUG3;196.0;DEBUG4;0.0
ATTITUDE;ANGX;4.0;ANGY;5.0;HEAD;186.0
STATUS;CYCLETIME;2796;I2CERR;0;PRESENT;23;MODE;11
RAW_IMU;AX;20.0;AY;23.0;AZ;251.0;GX;0.0;GY;0.0;GZ;0.0;MAGX;0.0;MAGY;-123.0;MAGZ;100.0
MOT;0;1150.0;1;1201.0;2;1150.0;3;1150.0;4;0.0;5;0.0;6;0.0;7;0.0;
RC;ROLL;1495.0;PITCH;1515.0;YAW;1513.0;THROTTLE;1060.0;AUX1;2003.0;AUX2;1500.0;AUX3;1500.0;AUX4;1500.0
ALTITUDE;196.0
DEBUG;DEBUG10.0;DEBUG2;0.0;DEBUG3;196.0;DEBUG4;0.0
ATTITUDE;ANGX;4.0;ANGY;5.0;HEAD;186.0
STATUS;CYCLETIME;3020;I2CERR;0;PRESENT;23;MODE;11
RAW_IMU;AX;20.0;AY;22.0;AZ;249.0;GX;0.0;GY;0.0;GZ;0.0;MAGX;-1.0;MAGY;-123.0;MAGZ;100.0
MOT;0;1150.0;1;1201.0;2;1150.0;3;1150.0;4;0.0;5;0.0;6;0.0;7;0.0;
RC;ROLL;1495.0;PITCH;1515.0;YAW;1515.0;THROTTLE;1060.0;AUX1;2003.0;AUX2;1500.0;AUX3;1500.0;AUX4;1500.0
ALTITUDE;196.0
