IDENT;V;220;TYPE;3
MSP_MOTOR_PINS
STATUS;CYCLETIME;2720;I2CERR;0;PRESENT;23;MODE;66
RAW_IMU;AX;2.0;AY;0.0;AZ;255.0;GX;0.0;GY;0.0;GZ;0.0;MAGX;-3.0;MAGY;-62.0;MAGZ;-11.0
MOT;0;1000.0;1;1000.0;2;1000.0;3;1000.0;4;0.0;5;0.0;6;0.0;7;0.0;
RC;ROLL;1513.0;PITCH;1492.0;YAW;1500.0;THROTTLE;1067.0;AUX1;1535.0;AUX2;1500.0;AUX3;1500.0;AUX4;1500.0
ALTITUDE;20.0
DEBUG;DEBUG120.0;DEBUG2;765.0;DEBUG3;72.0;DEBUG4;0.0
ATTITUDE;ANGX;0.0;ANGY;0.0;HEAD;-175.0
STATUS;CYCLETIME;2748;I2CERR;0;PRESENT;23;MODE;66
RAW_IMU;AX;2.0;AY;0.0;AZ;255.0;GX;0.0;GY;0.0;GZ;0.0;MAGX;-3.0;MAGY;-62.0;MAGZ;-11.0
MOT;0;1000.0;1;1000.0;2;1000.0;3;1000.0;4;0.0;5;0.0;6;0.0;7;0.0;
RC;ROLL;1513.0;PITCH;1492.0;YAW;1500.0;THROTTLE;1067.0;AUX1;1535.0;AUX2;1500.0;AUX3;1500.0;AUX4;1500.0
ALTITUDE;20.0
DEBUG;DEBUG120.0;DEBUG2;765.0;DEBUG3;72.0;DEBUG4;0.0
ATTITUDE;ANGX;0.0;ANGY;0.0;HEAD;-175.0
STATUS;CYCLETIME;2696;I2CERR;0;PRESENT;23;MODE;66
RAW_IMU;AX;2.0;AY;0.0;AZ;256.0;GX;0.0;GY;0.0;GZ;0.0;MAGX;-2.0;MAGY;-61.0;MAGZ;-10.0
MOT;0;1000.0;1;1000.0;2;1000.0;3;1000.0;4;0.0;5;0.0;6;0.0;7;0.0;
RC;ROLL;1513.0;PITCH;1494.0;YAW;1500.0;THROTTLE;1067.0;AUX1;1535.0;AUX2;1500.0;AUX3;1500.0;AUX4;1500.0
ALTITUDE;20.0
DEBUG;DEBUG120.0;DEBUG2;765.0;DEBUG3;72.0;DEBUG4;0.0
ATTITUDE;ANGX;0.0;ANGY;0.0;HEAD;-175.0
STATUS;CYCLETIME;2732;I2CERR;0;PRESENT;23;MODE;66
RAW_IMU;AX;2.0;AY;0.0;AZ;255.0;GX;0.0;GY;0.0;GZ;0.0;MAGX;-2.0;MAGY;-61.0;MAGZ;-10.0
MOT;0;1000.0;1;1000.0;2;1000.0;3;1000.0;4;0.0;5;0.0;6;0.0;7;0.0;
RC;ROLL;1513.0;PITCH;1494.0;YAW;1500.0;THROTTLE;1067.0;AUX1;1535.0;AUX2;1500.0;AUX3;1500.0;AUX4;1500.0
ALTITUDE;20.0
DEBUG;DEBUG120.0;DEBUG2;765.0;DEBUG3;72.0;DEBUG4;0.0
ATTITUDE;ANGX;0.0;ANGY;0.0;HEAD;-175.0
STATUS;CYCLETIME;2720;I2CERR;0;PRESENT;23;MODE;66
RAW_IMU;AX;3.0;AY;0.0;AZ;255.0;GX;0.0;GY;0.0;GZ;0.0;MAGX;-2.0;MAGY;-61.0;MAGZ;-11.0
MOT;0;1000.0;1;1000.0;2;1000.0;3;1000.0;4;0.0;5;0.0;6;0.0;7;0.0;
RC;ROLL;1513.0;PITCH;1494.0;YAW;1500.0;THROTTLE;1067.0;AUX1;1535.0;AUX2;1500.0;AUX3;1500.0;AUX4;1500.0
ALTITUDE;20.0
DEBUG;DEBUG120.0;DEBUG2;765.0;DEBUG3;72.0;DEBUG4;0.0
ATTITUDE;ANGX;0.0;ANGY;0.0;HEAD;-175.0
STATUS;CYCLETIME;2672;I2CERR;0;PRESENT;23;MODE;66
RAW_IMU;AX;2.0;AY;0.0;AZ;255.0;GX;0.0;GY;0.0;GZ;0.0;MAGX;-2.0;MAGY;-61.0;MAGZ;-11.0
MOT;0;1000.0;1;1000.0;2;1000.0;3;1000.0;4;0.0;5;0.0;6;0.0;7;0.0;
RC;ROLL;1513.0;PITCH;1494.0;YAW;1500.0;THROTTLE;1067.0;AUX1;1535.0;AUX2;1500.0;AUX3;1500.0;AUX4;1500.0
ALTITUDE;20.0
DEBUG;DEBUG120.0;DEBUG2;765.0;DEBUG3;72.0;DEBUG4;0.0
ATTITUDE;ANGX;0.0;ANGY;0.0;HEAD;-175.0
STATUS;CYCLETIME;2948;I2CERR;0;PRESENT;23;MODE;66
RAW_IMU;AX;2.0;AY;0.0;AZ;255.0;GX;0.0;GY;0.0;GZ;0.0;MAGX;-3.0;MAGY;-62.0;MAGZ;-10.0
MOT;0;1000.0;1;1000.0;2;1000.0;3;1000.0;4;0.0;5;0.0;6;0.0;7;0.0;
RC;ROLL;1513.0;PITCH;1494.0;YAW;1500.0;THROTTLE;1067.0;AUX1;1535.0;AUX2;1500.0;AUX3;1500.0;AUX4;1500.0
ALTITUDE;20.0
DEBUG;DEBUG120.0;DEBUG2;765.0;DEBUG3;72.0;DEBUG4;0.0
ATTITUDE;ANGX;0.0;ANGY;0.0;HEAD;-175.0
STATUS;CYCLETIME;2760;I2CERR;0;PRESENT;23;MODE;66
RAW_IMU;AX;2.0;AY;0.0;AZ;255.0;GX;0.0;GY;0.0;GZ;0.0;MAGX;-3.0;MAGY;-62.0;MAGZ;-10.0
MOT;0;1000.0;1;1000.0;2;1000.0;3;1000.0;4;0.0;5;0.0;6;0.0;7;0.0;
RC;ROLL;1513.0;PITCH;1494.0;YAW;1500.0;THROTTLE;1067.0;AUX1;1535.0;AUX2;1500.0;AUX3;1500.0;AUX4;1500.0
ALTITUDE;20.0
DEBUG;DEBUG120.0;DEBUG2;765.0;DEBUG3;72.0;DEBUG4;0.0
ATTITUDE;ANGX;0.0;ANGY;0.0;HEAD;-175.0
STATUS;CYCLETIME;2724;I2CERR;0;PRESENT;23;MODE;66
RAW_IMU;AX;2.0;AY;0.0;AZ;255.0;GX;0.0;GY;0.0;GZ;0.0;MAGX;-3.0;MAGY;-61.0;MAGZ;-11.0
MOT;0;1000.0;1;1000.0;2;1000.0;3;1000.0;4;0.0;5;0.0;6;0.0;7;0.0;
RC;ROLL;1513.0;PITCH;1494.0;YAW;1500.0;THROTTLE;1067.0;AUX1;1535.0;AUX2;1500.0;AUX3;1500.0;AUX4;1500.0
ALTITUDE;20.0
DEBUG;DEBUG120.0;DEBUG2;765.0;DEBUG3;72.0;DEBUG4;0.0
ATTITUDE;ANGX;0.0;ANGY;0.0;HEAD;-175.0
STATUS;CYCLETIME;2760;I2CERR;0;PRESENT;23;MODE;66
RAW_IMU;AX;2.0;AY;0.0;AZ;255.0;GX;0.0;GY;0.0;GZ;0.0;MAGX;-3.0;MAGY;-61.0;MAGZ;-11.0
MOT;0;1000.0;1;1000.0;2;1000.0;3;1000.0;4;0.0;5;0.0;6;0.0;7;0.0;
RC;ROLL;1513.0;PITCH;1494.0;YAW;1500.0;THROTTLE;1067.0;AUX1;1535.0;AUX2;1500.0;AUX3;1500.0;AUX4;1500.0
ALTITUDE;20.0
DEBUG;DEBUG120.0;DEBUG2;765.0;DEBUG3;72.0;DEBUG4;0.0
ATTITUDE;ANGX;0.0;ANGY;0.0;HEAD;-175.0
STATUS;CYCLETIME;2884;I2CERR;0;PRESENT;23;MODE;66
RAW_IMU;AX;2.0;AY;0.0;AZ;255.0;GX;0.0;GY;0.0;GZ;0.0;MAGX;-3.0;MAGY;-61.0;MAGZ;-10.0
MOT;0;1000.0;1;1000.0;2;1000.0;3;1000.0;4;0.0;5;0.0;6;0.0;7;0.0;
RC;ROLL;1513.0;PITCH;1494.0;YAW;1500.0;THROTTLE;1065.0;AUX1;1535.0;AUX2;1500.0;AUX3;1500.0;AUX4;1500.0
ALTITUDE;20.0
DEBUG;DEBUG120.0;DEBUG2;765.0;DEBUG3;72.0;DEBUG4;0.0
ATTITUDE;ANGX;0.0;ANGY;0.0;HEAD;-175.0
STATUS;CYCLETIME;2716;I2CERR;0;PRESENT;23;MODE;66
RAW_IMU;AX;2.0;AY;0.0;AZ;255.0;GX;0.0;GY;0.0;GZ;0.0;MAGX;-3.0;MAGY;-61.0;MAGZ;-10.0
MOT;0;1000.0;1;1000.0;2;1000.0;3;1000.0;4;0.0;5;0.0;6;0.0;7;0.0;
RC;ROLL;1511.0;PITCH;1494.0;YAW;1500.0;THROTTLE;1065.0;AUX1;1535.0;AUX2;1500.0;AUX3;1500.0;AUX4;1500.0
ALTITUDE;20.0
DEBUG;DEBUG120.0;DEBUG2;765.0;DEBUG3;72.0;DEBUG4;0.0
ATTITUDE;ANGX;0.0;ANGY;0.0;HEAD;-175.0
STATUS;CYCLETIME;2972;I2CERR;0;PRESENT;23;MODE;66
RAW_IMU;AX;2.0;AY;0.0;AZ;255.0;GX;0.0;GY;0.0;GZ;0.0;MAGX;-2.0;MAGY;-62.0;MAGZ;-11.0
MOT;0;1000.0;1;1000.0;2;1000.0;3;1000.0;4;0.0;5;0.0;6;0.0;7;0.0;
RC;ROLL;1511.0;PITCH;1494.0;YAW;1500.0;THROTTLE;1065.0;AUX1;1535.0;AUX2;1500.0;AUX3;1500.0;AUX4;1500.0
ALTITUDE;20.0
DEBUG;DEBUG120.0;DEBUG2;765.0;DEBUG3;72.0;DEBUG4;0.0
ATTITUDE;ANGX;0.0;ANGY;0.0;HEAD;-175.0
STATUS;CYCLETIME;2736;I2CERR;0;PRESENT;23;MODE;66
RAW_IMU;AX;2.0;AY;0.0;AZ;255.0;GX;0.0;GY;0.0;GZ;0.0;MAGX;-2.0;MAGY;-62.0;MAGZ;-11.0
MOT;0;1000.0;1;1000.0;2;1000.0;3;1000.0;4;0.0;5;0.0;6;0.0;7;0.0;
RC;ROLL;1511.0;PITCH;1494.0;YAW;1500.0;THROTTLE;1065.0;AUX1;1535.0;AUX2;1500.0;AUX3;1500.0;AUX4;1500.0
ALTITUDE;20.0
DEBUG;DEBUG120.0;DEBUG2;765.0;DEBUG3;72.0;DEBUG4;0.0
ATTITUDE;ANGX;0.0;ANGY;0.0;HEAD;-175.0
STATUS;CYCLETIME;2788;I2CERR;0;PRESENT;23;MODE;66
RAW_IMU;AX;2.0;AY;0.0;AZ;255.0;GX;0.0;GY;0.0;GZ;0.0;MAGX;-3.0;MAGY;-63.0;MAGZ;-11.0
MOT;0;1000.0;1;1000.0;2;1000.0;3;1000.0;4;0.0;5;0.0;6;0.0;7;0.0;
RC;ROLL;1511.0;PITCH;1494.0;YAW;1500.0;THROTTLE;1065.0;AUX1;1535.0;AUX2;1500.0;AUX3;1500.0;AUX4;1500.0
ALTITUDE;20.0
DEBUG;DEBUG120.0;DEBUG2;765.0;DEBUG3;72.0;DEBUG4;0.0
ATTITUDE;ANGX;0.0;ANGY;0.0;HEAD;-175.0
STATUS;CYCLETIME;2732;I2CERR;0;PRESENT;23;MODE;66
RAW_IMU;AX;2.0;AY;0.0;AZ;255.0;GX;0.0;GY;0.0;GZ;0.0;MAGX;-3.0;MAGY;-63.0;MAGZ;-11.0
MOT;0;1000.0;1;1000.0;2;1000.0;3;1000.0;4;0.0;5;0.0;6;0.0;7;0.0;
RC;ROLL;1511.0;PITCH;1494.0;YAW;1500.0;THROTTLE;1065.0;AUX1;1535.0;AUX2;1500.0;AUX3;1500.0;AUX4;1500.0
ALTITUDE;20.0
DEBUG;DEBUG120.0;DEBUG2;765.0;DEBUG3;72.0;DEBUG4;0.0
ATTITUDE;ANGX;0.0;ANGY;0.0;HEAD;-175.0
STATUS;CYCLETIME;2732;I2CERR;0;PRESENT;23;MODE;66
RAW_IMU;AX;2.0;AY;0.0;AZ;255.0;GX;0.0;GY;0.0;GZ;0.0;MAGX;-3.0;MAGY;-63.0;MAGZ;-11.0
MOT;0;1000.0;1;1000.0;2;1000.0;3;1000.0;4;0.0;5;0.0;6;0.0;7;0.0;
RC;ROLL;1511.0;PITCH;1494.0;YAW;1500.0;THROTTLE;1065.0;AUX1;1535.0;AUX2;1500.0;AUX3;1500.0;AUX4;1500.0
ALTITUDE;20.0
DEBUG;DEBUG120.0;DEBUG2;765.0;DEBUG3;72.0;DEBUG4;0.0
ATTITUDE;ANGX;0.0;ANGY;0.0;HEAD;-174.0
STATUS;CYCLETIME;2836;I2CERR;0;PRESENT;23;MODE;66
RAW_IMU;AX;2.0;AY;0.0;AZ;254.0;GX;0.0;GY;0.0;GZ;0.0;MAGX;-3.0;MAGY;-62.0;MAGZ;-10.0
MOT;0;1000.0;1;1000.0;2;1000.0;3;1000.0;4;0.0;5;0.0;6;0.0;7;0.0;
RC;ROLL;1511.0;PITCH;1494.0;YAW;1500.0;THROTTLE;1065.0;AUX1;1535.0;AUX2;1500.0;AUX3;1500.0;AUX4;1500.0
ALTITUDE;20.0
DEBUG;DEBUG120.0;DEBUG2;765.0;DEBUG3;72.0;DEBUG4;0.0
ATTITUDE;ANGX;0.0;ANGY;0.0;HEAD;-174.0
STATUS;CYCLETIME;2692;I2CERR;0;PRESENT;23;MODE;66
RAW_IMU;AX;2.0;AY;0.0;AZ;255.0;GX;0.0;GY;0.0;GZ;0.0;MAGX;-3.0;MAGY;-62.0;MAGZ;-10.0
MOT;0;1000.0;1;1000.0;2;1000.0;3;1000.0;4;0.0;5;0.0;6;0.0;7;0.0;
RC;ROLL;1511.0;PITCH;1494.0;YAW;1500.0;THROTTLE;1065.0;AUX1;1535.0;AUX2;1500.0;AUX3;1500.0;AUX4;1500.0
ALTITUDE;20.0
DEBUG;DEBUG120.0;DEBUG2;765.0;DEBUG3;72.0;DEBUG4;0.0
ATTITUDE;ANGX;0.0;ANGY;0.0;HEAD;-174.0
STATUS;CYCLETIME;2748;I2CERR;0;PRESENT;23;MODE;66
RAW_IMU;AX;2.0;AY;0.0;AZ;255.0;GX;0.0;GY;0.0;GZ;0.0;MAGX;-3.0;MAGY;-62.0;MAGZ;-11.0
MOT;0;1000.0;1;1000.0;2;1000.0;3;1000.0;4;0.0;5;0.0;6;0.0;7;0.0;
RC;ROLL;1511.0;PITCH;1494.0;YAW;1500.0;THROTTLE;1065.0;AUX1;1535.0;AUX2;1500.0;AUX3;1500.0;AUX4;1500.0
ALTITUDE;20.0
DEBUG;DEBUG120.0;DEBUG2;765.0;DEBUG3;72.0;DEBUG4;0.0
ATTITUDE;ANGX;0.0;ANGY;0.0;HEAD;-174.0
STATUS;CYCLETIME;2816;I2CERR;0;PRESENT;23;MODE;66
RAW_IMU;AX;2.0;AY;0.0;AZ;255.0;GX;0.0;GY;0.0;GZ;0.0;MAGX;-3.0;MAGY;-62.0;MAGZ;-11.0
MOT;0;1000.0;1;1000.0;2;1000.0;3;1000.0;4;0.0;5;0.0;6;0.0;7;0.0;
RC;ROLL;1513.0;PITCH;1494.0;YAW;1500.0;THROTTLE;1065.0;AUX1;1535.0;AUX2;1500.0;AUX3;1500.0;AUX4;1500.0
ALTITUDE;20.0
DEBUG;DEBUG120.0;DEBUG2;765.0;DEBUG3;72.0;DEBUG4;0.0
ATTITUDE;ANGX;0.0;ANGY;0.0;HEAD;-174.0
STATUS;CYCLETIME;2760;I2CERR;0;PRESENT;23;MODE;66
RAW_IMU;AX;2.0;AY;0.0;AZ;255.0;GX;0.0;GY;0.0;GZ;0.0;MAGX;-3.0;MAGY;-63.0;MAGZ;-11.0
MOT;0;1000.0;1;1000.0;2;1000.0;3;1000.0;4;0.0;5;0.0;6;0.0;7;0.0;
RC;ROLL;1513.0;PITCH;1492.0;YAW;1500.0;THROTTLE;1065.0;AUX1;1535.0;AUX2;1500.0;AUX3;1500.0;AUX4;1500.0
ALTITUDE;20.0
DEBUG;DEBUG120.0;DEBUG2;765.0;DEBUG3;72.0;DEBUG4;0.0
ATTITUDE;ANGX;0.0;ANGY;0.0;HEAD;-174.0
STATUS;CYCLETIME;2692;I2CERR;0;PRESENT;23;MODE;66
RAW_IMU;AX;1.0;AY;0.0;AZ;256.0;GX;0.0;GY;0.0;GZ;0.0;MAGX;-3.0;MAGY;-63.0;MAGZ;-11.0
MOT;0;1000.0;1;1000.0;2;1000.0;3;1000.0;4;0.0;5;0.0;6;0.0;7;0.0;
RC;ROLL;1513.0;PITCH;1492.0;YAW;1500.0;THROTTLE;1065.0;AUX1;1535.0;AUX2;1500.0;AUX3;1500.0;AUX4;1500.0
ALTITUDE;20.0
DEBUG;DEBUG120.0;DEBUG2;765.0;DEBUG3;72.0;DEBUG4;0.0
ATTITUDE;ANGX;0.0;ANGY;0.0;HEAD;-174.0
STATUS;CYCLETIME;2996;I2CERR;0;PRESENT;23;MODE;66
RAW_IMU;AX;2.0;AY;0.0;AZ;255.0;GX;0.0;GY;0.0;GZ;0.0;MAGX;-3.0;MAGY;-60.0;MAGZ;-10.0
MOT;0;1000.0;1;1000.0;2;1000.0;3;1000.0;4;0.0;5;0.0;6;0.0;7;0.0;
RC;ROLL;1513.0;PITCH;1492.0;YAW;1500.0;THROTTLE;1065.0;AUX1;1535.0;AUX2;1500.0;AUX3;1500.0;AUX4;1500.0
ALTITUDE;20.0
DEBUG;DEBUG120.0;DEBUG2;765.0;DEBUG3;72.0;DEBUG4;0.0
ATTITUDE;ANGX;0.0;ANGY;0.0;HEAD;-174.0
STATUS;CYCLETIME;2832;I2CERR;0;PRESENT;23;MODE;66
RAW_IMU;AX;2.0;AY;0.0;AZ;255.0;GX;0.0;GY;0.0;GZ;0.0;MAGX;-3.0;MAGY;-60.0;MAGZ;-10.0
MOT;0;1000.0;1;1000.0;2;1000.0;3;1000.0;4;0.0;5;0.0;6;0.0;7;0.0;
RC;ROLL;1513.0;PITCH;1492.0;YAW;1500.0;THROTTLE;1065.0;AUX1;1535.0;AUX2;1500.0;AUX3;1500.0;AUX4;1500.0
ALTITUDE;20.0
DEBUG;DEBUG120.0;DEBUG2;765.0;DEBUG3;72.0;DEBUG4;0.0
ATTITUDE;ANGX;0.0;ANGY;0.0;HEAD;-174.0
STATUS;CYCLETIME;2700;I2CERR;0;PRESENT;23;MODE;66
RAW_IMU;AX;2.0;AY;0.0;AZ;255.0;GX;0.0;GY;0.0;GZ;0.0;MAGX;-3.0;MAGY;-63.0;MAGZ;-10.0
MOT;0;1000.0;1;1000.0;2;1000.0;3;1000.0;4;0.0;5;0.0;6;0.0;7;0.0;
RC;ROLL;1513.0;PITCH;1492.0;YAW;1500.0;THROTTLE;1065.0;AUX1;1535.0;AUX2;1500.0;AUX3;1500.0;AUX4;1500.0
ALTITUDE;20.0
DEBUG;DEBUG120.0;DEBUG2;765.0;DEBUG3;72.0;DEBUG4;0.0
ATTITUDE;ANGX;0.0;ANGY;0.0;HEAD;-174.0
STATUS;CYCLETIME;2736;I2CERR;0;PRESENT;23;MODE;66
RAW_IMU;AX;2.0;AY;0.0;AZ;255.0;GX;0.0;GY;0.0;GZ;0.0;MAGX;-3.0;MAGY;-63.0;MAGZ;-10.0
MOT;0;1000.0;1;1000.0;2;1000.0;3;1000.0;4;0.0;5;0.0;6;0.0;7;0.0;
RC;ROLL;1513.0;PITCH;1492.0;YAW;1500.0;THROTTLE;1065.0;AUX1;1535.0;AUX2;1500.0;AUX3;1500.0;AUX4;1500.0
ALTITUDE;20.0
DEBUG;DEBUG120.0;DEBUG2;765.0;DEBUG3;72.0;DEBUG4;0.0
ATTITUDE;ANGX;0.0;ANGY;0.0;HEAD;-174.0
STATUS;CYCLETIME;2788;I2CERR;0;PRESENT;23;MODE;66
RAW_IMU;AX;2.0;AY;0.0;AZ;255.0;GX;0.0;GY;0.0;GZ;0.0;MAGX;-2.0;MAGY;-60.0;MAGZ;-11.0
MOT;0;1000.0;1;1000.0;2;1000.0;3;1000.0;4;0.0;5;0.0;6;0.0;7;0.0;
RC;ROLL;1513.0;PITCH;1490.0;YAW;1500.0;THROTTLE;1065.0;AUX1;1535.0;AUX2;1500.0;AUX3;1500.0;AUX4;1500.0
ALTITUDE;20.0
DEBUG;DEBUG120.0;DEBUG2;765.0;DEBUG3;72.0;DEBUG4;0.0
ATTITUDE;ANGX;0.0;ANGY;0.0;HEAD;-174.0
STATUS;CYCLETIME;2720;I2CERR;0;PRESENT;23;MODE;66
RAW_IMU;AX;2.0;AY;0.0;AZ;255.0;GX;0.0;GY;0.0;GZ;0.0;MAGX;-2.0;MAGY;-60.0;MAGZ;-11.0
MOT;0;1000.0;1;1000.0;2;1000.0;3;1000.0;4;0.0;5;0.0;6;0.0;7;0.0;
RC;ROLL;1513.0;PITCH;1490.0;YAW;1500.0;THROTTLE;1065.0;AUX1;1535.0;AUX2;1500.0;AUX3;1500.0;AUX4;1500.0
ALTITUDE;20.0
DEBUG;DEBUG120.0;DEBUG2;765.0;DEBUG3;72.0;DEBUG4;0.0
ATTITUDE;ANGX;0.0;ANGY;0.0;HEAD;-174.0
STATUS;CYCLETIME;2996;I2CERR;0;PRESENT;23;MODE;66
RAW_IMU;AX;3.0;AY;0.0;AZ;255.0;GX;0.0;GY;0.0;GZ;0.0;MAGX;-2.0;MAGY;-63.0;MAGZ;-11.0
MOT;0;1000.0;1;1000.0;2;1000.0;3;1000.0;4;0.0;5;0.0;6;0.0;7;0.0;
RC;ROLL;1513.0;PITCH;1490.0;YAW;1500.0;THROTTLE;1065.0;AUX1;1535.0;AUX2;1500.0;AUX3;1500.0;AUX4;1500.0
ALTITUDE;20.0
DEBUG;DEBUG120.0;DEBUG2;765.0;DEBUG3;72.0;DEBUG4;0.0
ATTITUDE;ANGX;0.0;ANGY;0.0;HEAD;-174.0
STATUS;CYCLETIME;2740;I2CERR;0;PRESENT;23;MODE;66
RAW_IMU;AX;3.0;AY;0.0;AZ;255.0;GX;0.0;GY;0.0;GZ;0.0;MAGX;-2.0;MAGY;-63.0;MAGZ;-11.0
MOT;0;1000.0;1;1000.0;2;1000.0;3;1000.0;4;0.0;5;0.0;6;0.0;7;0.0;
RC;ROLL;1513.0;PITCH;1492.0;YAW;1500.0;THROTTLE;1065.0;AUX1;1535.0;AUX2;1500.0;AUX3;1500.0;AUX4;1500.0
ALTITUDE;20.0
DEBUG;DEBUG120.0;DEBUG2;765.0;DEBUG3;72.0;DEBUG4;0.0
ATTITUDE;ANGX;0.0;ANGY;0.0;HEAD;-174.0
STATUS;CYCLETIME;2724;I2CERR;0;PRESENT;23;MODE;66
RAW_IMU;AX;2.0;AY;0.0;AZ;255.0;GX;0.0;GY;0.0;GZ;0.0;MAGX;-3.0;MAGY;-62.0;MAGZ;-11.0
MOT;0;1000.0;1;1000.0;2;1000.0;3;1000.0;4;0.0;5;0.0;6;0.0;7;0.0;
RC;ROLL;1513.0;PITCH;1494.0;YAW;1500.0;THROTTLE;1065.0;AUX1;1535.0;AUX2;1500.0;AUX3;1500.0;AUX4;1500.0
ALTITUDE;20.0
DEBUG;DEBUG120.0;DEBUG2;765.0;DEBUG3;72.0;DEBUG4;0.0
ATTITUDE;ANGX;0.0;ANGY;0.0;HEAD;-174.0
STATUS;CYCLETIME;2740;I2CERR;0;PRESENT;23;MODE;66
RAW_IMU;AX;2.0;AY;0.0;AZ;255.0;GX;0.0;GY;0.0;GZ;0.0;MAGX;-3.0;MAGY;-62.0;MAGZ;-11.0
MOT;0;1000.0;1;1000.0;2;1000.0;3;1000.0;4;0.0;5;0.0;6;0.0;7;0.0;
RC;ROLL;1513.0;PITCH;1494.0;YAW;1500.0;THROTTLE;1065.0;AUX1;1535.0;AUX2;1500.0;AUX3;1500.0;AUX4;1500.0
ALTITUDE;20.0
DEBUG;DEBUG120.0;DEBUG2;765.0;DEBUG3;72.0;DEBUG4;0.0
ATTITUDE;ANGX;0.0;ANGY;0.0;HEAD;-174.0
STATUS;CYCLETIME;2832;I2CERR;0;PRESENT;23;MODE;66
RAW_IMU;AX;3.0;AY;0.0;AZ;255.0;GX;0.0;GY;0.0;GZ;0.0;MAGX;-3.0;MAGY;-62.0;MAGZ;-10.0
MOT;0;1000.0;1;1000.0;2;1000.0;3;1000.0;4;0.0;5;0.0;6;0.0;7;0.0;
RC;ROLL;1513.0;PITCH;1494.0;YAW;1500.0;THROTTLE;1065.0;AUX1;1535.0;AUX2;1500.0;AUX3;1500.0;AUX4;1500.0
ALTITUDE;20.0
DEBUG;DEBUG120.0;DEBUG2;765.0;DEBUG3;72.0;DEBUG4;0.0
ATTITUDE;ANGX;0.0;ANGY;0.0;HEAD;-174.0
STATUS;CYCLETIME;2836;I2CERR;0;PRESENT;23;MODE;66
RAW_IMU;AX;3.0;AY;0.0;AZ;256.0;GX;0.0;GY;0.0;GZ;0.0;MAGX;-3.0;MAGY;-62.0;MAGZ;-10.0
MOT;0;1000.0;1;1000.0;2;1000.0;3;1000.0;4;0.0;5;0.0;6;0.0;7;0.0;
RC;ROLL;1513.0;PITCH;1494.0;YAW;1500.0;THROTTLE;1065.0;AUX1;1535.0;AUX2;1500.0;AUX3;1500.0;AUX4;1500.0
ALTITUDE;20.0
DEBUG;DEBUG120.0;DEBUG2;765.0;DEBUG3;72.0;DEBUG4;0.0
ATTITUDE;ANGX;0.0;ANGY;0.0;HEAD;-174.0
STATUS;CYCLETIME;2944;I2CERR;0;PRESENT;23;MODE;66
RAW_IMU;AX;3.0;AY;0.0;AZ;256.0;GX;0.0;GY;0.0;GZ;0.0;MAGX;-3.0;MAGY;-63.0;MAGZ;-9.0
MOT;0;1000.0;1;1000.0;2;1000.0;3;1000.0;4;0.0;5;0.0;6;0.0;7;0.0;
RC;ROLL;1513.0;PITCH;1494.0;YAW;1500.0;THROTTLE;1065.0;AUX1;1535.0;AUX2;1500.0;AUX3;1500.0;AUX4;1500.0
ALTITUDE;20.0
DEBUG;DEBUG120.0;DEBUG2;765.0;DEBUG3;72.0;DEBUG4;0.0
ATTITUDE;ANGX;0.0;ANGY;0.0;HEAD;-174.0
STATUS;CYCLETIME;3088;I2CERR;0;PRESENT;23;MODE;66
RAW_IMU;AX;2.0;AY;0.0;AZ;256.0;GX;0.0;GY;0.0;GZ;0.0;MAGX;-3.0;MAGY;-63.0;MAGZ;-9.0
MOT;0;1000.0;1;1000.0;2;1000.0;3;1000.0;4;0.0;5;0.0;6;0.0;7;0.0;
RC;ROLL;1513.0;PITCH;1494.0;YAW;1500.0;THROTTLE;1065.0;AUX1;1535.0;AUX2;1500.0;AUX3;1500.0;AUX4;1500.0
ALTITUDE;20.0
DEBUG;DEBUG120.0;DEBUG2;765.0;DEBUG3;72.0;DEBUG4;0.0
ATTITUDE;ANGX;0.0;ANGY;0.0;HEAD;-174.0
STATUS;CYCLETIME;2868;I2CERR;0;PRESENT;23;MODE;66
RAW_IMU;AX;2.0;AY;0.0;AZ;256.0;GX;0.0;GY;0.0;GZ;0.0;MAGX;-3.0;MAGY;-61.0;MAGZ;-11.0
MOT;0;1000.0;1;1000.0;2;1000.0;3;1000.0;4;0.0;5;0.0;6;0.0;7;0.0;
RC;ROLL;1513.0;PITCH;1494.0;YAW;1500.0;THROTTLE;1065.0;AUX1;1535.0;AUX2;1500.0;AUX3;1500.0;AUX4;1500.0
ALTITUDE;20.0
DEBUG;DEBUG120.0;DEBUG2;765.0;DEBUG3;72.0;DEBUG4;0.0
ATTITUDE;ANGX;0.0;ANGY;0.0;HEAD;-174.0
STATUS;CYCLETIME;2800;I2CERR;0;PRESENT;23;MODE;66
RAW_IMU;AX;2.0;AY;0.0;AZ;255.0;GX;0.0;GY;0.0;GZ;0.0;MAGX;-3.0;MAGY;-61.0;MAGZ;-11.0
MOT;0;1000.0;1;1000.0;2;1000.0;3;1000.0;4;0.0;5;0.0;6;0.0;7;0.0;
RC;ROLL;1513.0;PITCH;1494.0;YAW;1500.0;THROTTLE;1065.0;AUX1;1535.0;AUX2;1500.0;AUX3;1500.0;AUX4;1500.0
ALTITUDE;20.0
DEBUG;DEBUG120.0;DEBUG2;765.0;DEBUG3;72.0;DEBUG4;0.0
ATTITUDE;ANGX;0.0;ANGY;0.0;HEAD;-174.0
STATUS;CYCLETIME;2716;I2CERR;0;PRESENT;23;MODE;66
RAW_IMU;AX;2.0;AY;0.0;AZ;255.0;GX;0.0;GY;0.0;GZ;0.0;MAGX;-3.0;MAGY;-62.0;MAGZ;-10.0
MOT;0;1000.0;1;1000.0;2;1000.0;3;1000.0;4;0.0;5;0.0;6;0.0;7;0.0;
RC;ROLL;1513.0;PITCH;1494.0;YAW;1500.0;THROTTLE;1065.0;AUX1;1535.0;AUX2;1500.0;AUX3;1500.0;AUX4;1500.0
ALTITUDE;20.0
DEBUG;DEBUG120.0;DEBUG2;765.0;DEBUG3;72.0;DEBUG4;0.0
ATTITUDE;ANGX;0.0;ANGY;0.0;HEAD;-174.0
STATUS;CYCLETIME;2688;I2CERR;0;PRESENT;23;MODE;66
RAW_IMU;AX;2.0;AY;0.0;AZ;255.0;GX;0.0;GY;0.0;GZ;0.0;MAGX;-3.0;MAGY;-62.0;MAGZ;-10.0
MOT;0;1000.0;1;1000.0;2;1000.0;3;1000.0;4;0.0;5;0.0;6;0.0;7;0.0;
RC;ROLL;1513.0;PITCH;1492.0;YAW;1500.0;THROTTLE;1067.0;AUX1;1535.0;AUX2;1500.0;AUX3;1500.0;AUX4;1500.0
ALTITUDE;20.0
DEBUG;DEBUG120.0;DEBUG2;765.0;DEBUG3;72.0;DEBUG4;0.0
ATTITUDE;ANGX;0.0;ANGY;0.0;HEAD;-174.0
STATUS;CYCLETIME;2908;I2CERR;0;PRESENT;23;MODE;66
RAW_IMU;AX;2.0;AY;0.0;AZ;255.0;GX;0.0;GY;0.0;GZ;0.0;MAGX;-2.0;MAGY;-61.0;MAGZ;-10.0
MOT;0;1000.0;1;1000.0;2;1000.0;3;1000.0;4;0.0;5;0.0;6;0.0;7;0.0;
RC;ROLL;1513.0;PITCH;1490.0;YAW;1500.0;THROTTLE;1067.0;AUX1;1535.0;AUX2;1500.0;AUX3;1500.0;AUX4;1500.0
ALTITUDE;20.0
DEBUG;DEBUG120.0;DEBUG2;765.0;DEBUG3;72.0;DEBUG4;0.0
ATTITUDE;ANGX;0.0;ANGY;0.0;HEAD;-174.0
STATUS;CYCLETIME;2780;I2CERR;0;PRESENT;23;MODE;66
RAW_IMU;AX;2.0;AY;0.0;AZ;255.0;GX;0.0;GY;0.0;GZ;0.0;MAGX;-2.0;MAGY;-61.0;MAGZ;-10.0
MOT;0;1000.0;1;1000.0;2;1000.0;3;1000.0;4;0.0;5;0.0;6;0.0;7;0.0;
RC;ROLL;1513.0;PITCH;1490.0;YAW;1500.0;THROTTLE;1067.0;AUX1;1535.0;AUX2;1500.0;AUX3;1500.0;AUX4;1500.0
ALTITUDE;20.0
DEBUG;DEBUG120.0;DEBUG2;765.0;DEBUG3;72.0;DEBUG4;0.0
ATTITUDE;ANGX;0.0;ANGY;0.0;HEAD;-174.0
STATUS;CYCLETIME;3092;I2CERR;0;PRESENT;23;MODE;66
RAW_IMU;AX;2.0;AY;0.0;AZ;255.0;GX;0.0;GY;0.0;GZ;0.0;MAGX;-2.0;MAGY;-63.0;MAGZ;-10.0
MOT;0;1000.0;1;1000.0;2;1000.0;3;1000.0;4;0.0;5;0.0;6;0.0;7;0.0;
RC;ROLL;1513.0;PITCH;1490.0;YAW;1500.0;THROTTLE;1067.0;AUX1;1535.0;AUX2;1500.0;AUX3;1500.0;AUX4;1500.0
ALTITUDE;20.0
DEBUG;DEBUG120.0;DEBUG2;765.0;DEBUG3;72.0;DEBUG4;0.0
ATTITUDE;ANGX;0.0;ANGY;0.0;HEAD;-174.0
STATUS;CYCLETIME;2836;I2CERR;0;PRESENT;23;MODE;66
RAW_IMU;AX;2.0;AY;0.0;AZ;256.0;GX;0.0;GY;0.0;GZ;0.0;MAGX;-2.0;MAGY;-63.0;MAGZ;-10.0
MOT;0;1000.0;1;1000.0;2;1000.0;3;1000.0;4;0.0;5;0.0;6;0.0;7;0.0;
RC;ROLL;1513.0;PITCH;1490.0;YAW;1500.0;THROTTLE;1067.0;AUX1;1535.0;AUX2;1500.0;AUX3;1500.0;AUX4;1500.0
ALTITUDE;20.0
DEBUG;DEBUG120.0;DEBUG2;765.0;DEBUG3;72.0;DEBUG4;0.0
ATTITUDE;ANGX;0.0;ANGY;0.0;HEAD;-174.0
STATUS;CYCLETIME;2724;I2CERR;0;PRESENT;23;MODE;66
RAW_IMU;AX;2.0;AY;0.0;AZ;255.0;GX;0.0;GY;0.0;GZ;0.0;MAGX;-3.0;MAGY;-62.0;MAGZ;-10.0
MOT;0;1000.0;1;1000.0;2;1000.0;3;1000.0;4;0.0;5;0.0;6;0.0;7;0.0;
RC;ROLL;1513.0;PITCH;1490.0;YAW;1500.0;THROTTLE;1067.0;AUX1;1535.0;AUX2;1500.0;AUX3;1500.0;AUX4;1500.0
ALTITUDE;20.0
DEBUG;DEBUG120.0;DEBUG2;765.0;DEBUG3;72.0;DEBUG4;0.0
ATTITUDE;ANGX;0.0;ANGY;0.0;HEAD;-174.0
STATUS;CYCLETIME;2744;I2CERR;0;PRESENT;23;MODE;66
RAW_IMU;AX;2.0;AY;0.0;AZ;256.0;GX;0.0;GY;0.0;GZ;0.0;MAGX;-3.0;MAGY;-62.0;MAGZ;-10.0
MOT;0;1000.0;1;1000.0;2;1000.0;3;1000.0;4;0.0;5;0.0;6;0.0;7;0.0;
RC;ROLL;1513.0;PITCH;1490.0;YAW;1500.0;THROTTLE;1067.0;AUX1;1535.0;AUX2;1500.0;AUX3;1500.0;AUX4;1500.0
ALTITUDE;20.0
DEBUG;DEBUG120.0;DEBUG2;765.0;DEBUG3;72.0;DEBUG4;0.0
ATTITUDE;ANGX;0.0;ANGY;0.0;HEAD;-174.0
STATUS;CYCLETIME;3044;I2CERR;0;PRESENT;23;MODE;66
RAW_IMU;AX;2.0;AY;0.0;AZ;255.0;GX;0.0;GY;0.0;GZ;0.0;MAGX;-3.0;MAGY;-62.0;MAGZ;-9.0
MOT;0;1000.0;1;1000.0;2;1000.0;3;1000.0;4;0.0;5;0.0;6;0.0;7;0.0;
RC;ROLL;1513.0;PITCH;1490.0;YAW;1500.0;THROTTLE;1067.0;AUX1;1535.0;AUX2;1500.0;AUX3;1500.0;AUX4;1500.0
ALTITUDE;20.0
DEBUG;DEBUG120.0;DEBUG2;765.0;DEBUG3;72.0;DEBUG4;0.0
ATTITUDE;ANGX;0.0;ANGY;0.0;HEAD;-174.0
STATUS;CYCLETIME;2696;I2CERR;0;PRESENT;23;MODE;66
RAW_IMU;AX;2.0;AY;0.0;AZ;256.0;GX;0.0;GY;0.0;GZ;0.0;MAGX;-3.0;MAGY;-62.0;MAGZ;-9.0
MOT;0;1000.0;1;1000.0;2;1000.0;3;1000.0;4;0.0;5;0.0;6;0.0;7;0.0;
RC;ROLL;1513.0;PITCH;1490.0;YAW;1500.0;THROTTLE;1067.0;AUX1;1535.0;AUX2;1500.0;AUX3;1500.0;AUX4;1500.0
ALTITUDE;20.0
DEBUG;DEBUG120.0;DEBUG2;765.0;DEBUG3;72.0;DEBUG4;0.0
ATTITUDE;ANGX;0.0;ANGY;0.0;HEAD;-174.0
STATUS;CYCLETIME;2976;I2CERR;0;PRESENT;23;MODE;66
RAW_IMU;AX;2.0;AY;0.0;AZ;256.0;GX;0.0;GY;0.0;GZ;0.0;MAGX;-3.0;MAGY;-63.0;MAGZ;-10.0
MOT;0;1000.0;1;1000.0;2;1000.0;3;1000.0;4;0.0;5;0.0;6;0.0;7;0.0;
RC;ROLL;1513.0;PITCH;1490.0;YAW;1500.0;THROTTLE;1067.0;AUX1;1535.0;AUX2;1500.0;AUX3;1500.0;AUX4;1500.0
ALTITUDE;20.0
DEBUG;DEBUG120.0;DEBUG2;765.0;DEBUG3;72.0;DEBUG4;0.0
ATTITUDE;ANGX;0.0;ANGY;0.0;HEAD;-174.0
STATUS;CYCLETIME;2724;I2CERR;0;PRESENT;23;MODE;66
RAW_IMU;AX;2.0;AY;0.0;AZ;256.0;GX;0.0;GY;0.0;GZ;0.0;MAGX;-3.0;MAGY;-63.0;MAGZ;-10.0
MOT;0;1000.0;1;1000.0;2;1000.0;3;1000.0;4;0.0;5;0.0;6;0.0;7;0.0;
RC;ROLL;1513.0;PITCH;1490.0;YAW;1500.0;THROTTLE;1067.0;AUX1;1535.0;AUX2;1500.0;AUX3;1500.0;AUX4;1500.0
ALTITUDE;20.0
DEBUG;DEBUG120.0;DEBUG2;765.0;DEBUG3;72.0;DEBUG4;0.0
ATTITUDE;ANGX;0.0;ANGY;0.0;HEAD;-174.0
STATUS;CYCLETIME;2784;I2CERR;0;PRESENT;23;MODE;66
RAW_IMU;AX;2.0;AY;0.0;AZ;256.0;GX;0.0;GY;0.0;GZ;0.0;MAGX;-3.0;MAGY;-63.0;MAGZ;-10.0
MOT;0;1000.0;1;1000.0;2;1000.0;3;1000.0;4;0.0;5;0.0;6;0.0;7;0.0;
RC;ROLL;1513.0;PITCH;1492.0;YAW;1500.0;THROTTLE;1067.0;AUX1;1535.0;AUX2;1500.0;AUX3;1500.0;AUX4;1500.0
ALTITUDE;20.0
DEBUG;DEBUG120.0;DEBUG2;765.0;DEBUG3;72.0;DEBUG4;0.0
ATTITUDE;ANGX;0.0;ANGY;0.0;HEAD;-174.0
STATUS;CYCLETIME;2788;I2CERR;0;PRESENT;23;MODE;66
RAW_IMU;AX;2.0;AY;0.0;AZ;256.0;GX;0.0;GY;0.0;GZ;0.0;MAGX;-3.0;MAGY;-62.0;MAGZ;-10.0
MOT;0;1000.0;1;1000.0;2;1000.0;3;1000.0;4;0.0;5;0.0;6;0.0;7;0.0;
RC;ROLL;1513.0;PITCH;1492.0;YAW;1500.0;THROTTLE;1067.0;AUX1;1535.0;AUX2;1500.0;AUX3;1500.0;AUX4;1500.0
ALTITUDE;20.0
DEBUG;DEBUG120.0;DEBUG2;765.0;DEBUG3;72.0;DEBUG4;0.0
ATTITUDE;ANGX;0.0;ANGY;0.0;HEAD;-174.0
STATUS;CYCLETIME;2752;I2CERR;0;PRESENT;23;MODE;66
RAW_IMU;AX;3.0;AY;0.0;AZ;256.0;GX;0.0;GY;0.0;GZ;0.0;MAGX;-3.0;MAGY;-62.0;MAGZ;-10.0
MOT;0;1000.0;1;1000.0;2;1000.0;3;1000.0;4;0.0;5;0.0;6;0.0;7;0.0;
RC;ROLL;1513.0;PITCH;1492.0;YAW;1500.0;THROTTLE;1067.0;AUX1;1535.0;AUX2;1500.0;AUX3;1500.0;AUX4;1500.0
ALTITUDE;20.0
DEBUG;DEBUG120.0;DEBUG2;765.0;DEBUG3;72.0;DEBUG4;0.0
ATTITUDE;ANGX;0.0;ANGY;0.0;HEAD;-173.0
STATUS;CYCLETIME;2716;I2CERR;0;PRESENT;23;MODE;66
RAW_IMU;AX;2.0;AY;0.0;AZ;255.0;GX;0.0;GY;0.0;GZ;0.0;MAGX;-3.0;MAGY;-63.0;MAGZ;-11.0
MOT;0;1000.0;1;1000.0;2;1000.0;3;1000.0;4;0.0;5;0.0;6;0.0;7;0.0;
RC;ROLL;1513.0;PITCH;1492.0;YAW;1500.0;THROTTLE;1067.0;AUX1;1535.0;AUX2;1500.0;AUX3;1500.0;AUX4;1500.0
ALTITUDE;20.0
DEBUG;DEBUG120.0;DEBUG2;765.0;DEBUG3;72.0;DEBUG4;0.0
ATTITUDE;ANGX;0.0;ANGY;0.0;HEAD;-173.0
STATUS;CYCLETIME;2688;I2CERR;0;PRESENT;23;MODE;66
RAW_IMU;AX;2.0;AY;0.0;AZ;255.0;GX;0.0;GY;0.0;GZ;0.0;MAGX;-3.0;MAGY;-63.0;MAGZ;-11.0
MOT;0;1000.0;1;1000.0;2;1000.0;3;1000.0;4;0.0;5;0.0;6;0.0;7;0.0;
RC;ROLL;1513.0;PITCH;1492.0;YAW;1500.0;THROTTLE;1067.0;AUX1;1535.0;AUX2;1500.0;AUX3;1500.0;AUX4;1500.0
ALTITUDE;20.0
DEBUG;DEBUG120.0;DEBUG2;765.0;DEBUG3;72.0;DEBUG4;0.0
ATTITUDE;ANGX;0.0;ANGY;0.0;HEAD;-173.0
STATUS;CYCLETIME;2976;I2CERR;0;PRESENT;23;MODE;66
RAW_IMU;AX;2.0;AY;0.0;AZ;255.0;GX;0.0;GY;0.0;GZ;0.0;MAGX;-3.0;MAGY;-61.0;MAGZ;-9.0
MOT;0;1000.0;1;1000.0;2;1000.0;3;1000.0;4;0.0;5;0.0;6;0.0;7;0.0;
RC;ROLL;1513.0;PITCH;1492.0;YAW;1500.0;THROTTLE;1067.0;AUX1;1535.0;AUX2;1500.0;AUX3;1500.0;AUX4;1500.0
ALTITUDE;20.0
DEBUG;DEBUG120.0;DEBUG2;765.0;DEBUG3;72.0;DEBUG4;0.0
ATTITUDE;ANGX;0.0;ANGY;0.0;HEAD;-173.0
STATUS;CYCLETIME;2712;I2CERR;0;PRESENT;23;MODE;66
RAW_IMU;AX;3.0;AY;0.0;AZ;255.0;GX;0.0;GY;0.0;GZ;0.0;MAGX;-3.0;MAGY;-61.0;MAGZ;-9.0
MOT;0;1000.0;1;1000.0;2;1000.0;3;1000.0;4;0.0;5;0.0;6;0.0;7;0.0;
RC;ROLL;1513.0;PITCH;1492.0;YAW;1500.0;THROTTLE;1067.0;AUX1;1535.0;AUX2;1500.0;AUX3;1500.0;AUX4;1500.0
ALTITUDE;20.0
DEBUG;DEBUG120.0;DEBUG2;765.0;DEBUG3;72.0;DEBUG4;0.0
ATTITUDE;ANGX;0.0;ANGY;0.0;HEAD;-173.0
STATUS;CYCLETIME;2736;I2CERR;0;PRESENT;23;MODE;66
RAW_IMU;AX;3.0;AY;0.0;AZ;255.0;GX;0.0;GY;0.0;GZ;0.0;MAGX;-3.0;MAGY;-62.0;MAGZ;-10.0
MOT;0;1000.0;1;1000.0;2;1000.0;3;1000.0;4;0.0;5;0.0;6;0.0;7;0.0;
RC;ROLL;1513.0;PITCH;1492.0;YAW;1500.0;THROTTLE;1067.0;AUX1;1535.0;AUX2;1500.0;AUX3;1500.0;AUX4;1500.0
ALTITUDE;20.0
DEBUG;DEBUG120.0;DEBUG2;765.0;DEBUG3;72.0;DEBUG4;0.0
ATTITUDE;ANGX;0.0;ANGY;0.0;HEAD;-173.0
STATUS;CYCLETIME;2836;I2CERR;0;PRESENT;23;MODE;66
RAW_IMU;AX;3.0;AY;0.0;AZ;255.0;GX;0.0;GY;0.0;GZ;0.0;MAGX;-3.0;MAGY;-62.0;MAGZ;-10.0
MOT;0;1000.0;1;1000.0;2;1000.0;3;1000.0;4;0.0;5;0.0;6;0.0;7;0.0;
RC;ROLL;1513.0;PITCH;1492.0;YAW;1500.0;THROTTLE;1067.0;AUX1;1535.0;AUX2;1500.0;AUX3;1500.0;AUX4;1500.0
ALTITUDE;20.0
DEBUG;DEBUG120.0;DEBUG2;765.0;DEBUG3;72.0;DEBUG4;0.0
ATTITUDE;ANGX;0.0;ANGY;0.0;HEAD;-173.0
STATUS;CYCLETIME;2684;I2CERR;0;PRESENT;23;MODE;66
RAW_IMU;AX;3.0;AY;0.0;AZ;255.0;GX;0.0;GY;0.0;GZ;0.0;MAGX;-3.0;MAGY;-61.0;MAGZ;-11.0
MOT;0;1000.0;1;1000.0;2;1000.0;3;1000.0;4;0.0;5;0.0;6;0.0;7;0.0;
RC;ROLL;1513.0;PITCH;1492.0;YAW;1500.0;THROTTLE;1067.0;AUX1;1535.0;AUX2;1500.0;AUX3;1500.0;AUX4;1500.0
ALTITUDE;20.0
DEBUG;DEBUG120.0;DEBUG2;765.0;DEBUG3;72.0;DEBUG4;0.0
ATTITUDE;ANGX;0.0;ANGY;0.0;HEAD;-173.0
STATUS;CYCLETIME;2760;I2CERR;0;PRESENT;23;MODE;66
RAW_IMU;AX;3.0;AY;0.0;AZ;255.0;GX;0.0;GY;0.0;GZ;0.0;MAGX;-3.0;MAGY;-61.0;MAGZ;-11.0
MOT;0;1000.0;1;1000.0;2;1000.0;3;1000.0;4;0.0;5;0.0;6;0.0;7;0.0;
RC;ROLL;1513.0;PITCH;1492.0;YAW;1500.0;THROTTLE;1067.0;AUX1;1535.0;AUX2;1500.0;AUX3;1500.0;AUX4;1500.0
ALTITUDE;20.0
DEBUG;DEBUG120.0;DEBUG2;765.0;DEBUG3;72.0;DEBUG4;0.0
ATTITUDE;ANGX;0.0;ANGY;0.0;HEAD;-173.0
STATUS;CYCLETIME;2684;I2CERR;0;PRESENT;23;MODE;66
RAW_IMU;AX;2.0;AY;0.0;AZ;255.0;GX;0.0;GY;0.0;GZ;0.0;MAGX;-3.0;MAGY;-62.0;MAGZ;-10.0
MOT;0;1000.0;1;1000.0;2;1000.0;3;1000.0;4;0.0;5;0.0;6;0.0;7;0.0;
RC;ROLL;1513.0;PITCH;1492.0;YAW;1500.0;THROTTLE;1067.0;AUX1;1535.0;AUX2;1500.0;AUX3;1500.0;AUX4;1500.0
ALTITUDE;20.0
DEBUG;DEBUG120.0;DEBUG2;765.0;DEBUG3;72.0;DEBUG4;0.0
ATTITUDE;ANGX;0.0;ANGY;0.0;HEAD;-173.0
STATUS;CYCLETIME;2780;I2CERR;0;PRESENT;23;MODE;66
RAW_IMU;AX;2.0;AY;0.0;AZ;255.0;GX;0.0;GY;0.0;GZ;0.0;MAGX;-3.0;MAGY;-62.0;MAGZ;-10.0
MOT;0;1000.0;1;1000.0;2;1000.0;3;1000.0;4;0.0;5;0.0;6;0.0;7;0.0;
RC;ROLL;1513.0;PITCH;1492.0;YAW;1500.0;THROTTLE;1067.0;AUX1;1535.0;AUX2;1500.0;AUX3;1500.0;AUX4;1500.0
ALTITUDE;20.0
DEBUG;DEBUG120.0;DEBUG2;765.0;DEBUG3;72.0;DEBUG4;0.0
ATTITUDE;ANGX;0.0;ANGY;0.0;HEAD;-173.0
STATUS;CYCLETIME;2792;I2CERR;0;PRESENT;23;MODE;66
RAW_IMU;AX;2.0;AY;0.0;AZ;255.0;GX;0.0;GY;0.0;GZ;0.0;MAGX;-3.0;MAGY;-61.0;MAGZ;-10.0
MOT;0;1000.0;1;1000.0;2;1000.0;3;1000.0;4;0.0;5;0.0;6;0.0;7;0.0;
RC;ROLL;1513.0;PITCH;1492.0;YAW;1500.0;THROTTLE;1067.0;AUX1;1535.0;AUX2;1500.0;AUX3;1500.0;AUX4;1500.0
ALTITUDE;20.0
DEBUG;DEBUG120.0;DEBUG2;765.0;DEBUG3;72.0;DEBUG4;0.0
ATTITUDE;ANGX;0.0;ANGY;0.0;HEAD;-173.0
STATUS;CYCLETIME;2780;I2CERR;0;PRESENT;23;MODE;66
RAW_IMU;AX;2.0;AY;0.0;AZ;256.0;GX;0.0;GY;0.0;GZ;0.0;MAGX;-3.0;MAGY;-61.0;MAGZ;-10.0
MOT;0;1000.0;1;1000.0;2;1000.0;3;1000.0;4;0.0;5;0.0;6;0.0;7;0.0;
RC;ROLL;1538.0;PITCH;1494.0;YAW;1500.0;THROTTLE;1067.0;AUX1;1535.0;AUX2;1500.0;AUX3;1500.0;AUX4;1500.0
ALTITUDE;20.0
DEBUG;DEBUG120.0;DEBUG2;765.0;DEBUG3;72.0;DEBUG4;0.0
ATTITUDE;ANGX;0.0;ANGY;0.0;HEAD;-173.0
STATUS;CYCLETIME;2856;I2CERR;0;PRESENT;23;MODE;66
RAW_IMU;AX;2.0;AY;0.0;AZ;256.0;GX;0.0;GY;0.0;GZ;0.0;MAGX;-3.0;MAGY;-62.0;MAGZ;-11.0
MOT;0;1000.0;1;1000.0;2;1000.0;3;1000.0;4;0.0;5;0.0;6;0.0;7;0.0;
RC;ROLL;1595.0;PITCH;1498.0;YAW;1500.0;THROTTLE;1067.0;AUX1;1535.0;AUX2;1500.0;AUX3;1500.0;AUX4;1500.0
ALTITUDE;20.0
DEBUG;DEBUG120.0;DEBUG2;765.0;DEBUG3;72.0;DEBUG4;0.0
ATTITUDE;ANGX;0.0;ANGY;0.0;HEAD;-173.0
STATUS;CYCLETIME;2776;I2CERR;0;PRESENT;23;MODE;66
RAW_IMU;AX;3.0;AY;0.0;AZ;256.0;GX;0.0;GY;0.0;GZ;0.0;MAGX;-3.0;MAGY;-62.0;MAGZ;-11.0
MOT;0;1000.0;1;1000.0;2;1000.0;3;1000.0;4;0.0;5;0.0;6;0.0;7;0.0;
RC;ROLL;1620.0;PITCH;1498.0;YAW;1500.0;THROTTLE;1067.0;AUX1;1535.0;AUX2;1500.0;AUX3;1500.0;AUX4;1500.0
ALTITUDE;20.0
DEBUG;DEBUG120.0;DEBUG2;765.0;DEBUG3;72.0;DEBUG4;0.0
ATTITUDE;ANGX;0.0;ANGY;0.0;HEAD;-173.0
STATUS;CYCLETIME;2700;I2CERR;0;PRESENT;23;MODE;66
RAW_IMU;AX;2.0;AY;0.0;AZ;256.0;GX;0.0;GY;0.0;GZ;0.0;MAGX;-2.0;MAGY;-60.0;MAGZ;-10.0
MOT;0;1000.0;1;1000.0;2;1000.0;3;1000.0;4;0.0;5;0.0;6;0.0;7;0.0;
RC;ROLL;1567.0;PITCH;1493.0;YAW;1500.0;THROTTLE;1067.0;AUX1;1535.0;AUX2;1500.0;AUX3;1500.0;AUX4;1500.0
ALTITUDE;20.0
DEBUG;DEBUG120.0;DEBUG2;765.0;DEBUG3;72.0;DEBUG4;0.0
ATTITUDE;ANGX;0.0;ANGY;0.0;HEAD;-173.0
STATUS;CYCLETIME;2860;I2CERR;0;PRESENT;23;MODE;66
RAW_IMU;AX;2.0;AY;0.0;AZ;256.0;GX;0.0;GY;0.0;GZ;0.0;MAGX;-2.0;MAGY;-60.0;MAGZ;-10.0
MOT;0;1000.0;1;1000.0;2;1000.0;3;1000.0;4;0.0;5;0.0;6;0.0;7;0.0;
RC;ROLL;1514.0;PITCH;1489.0;YAW;1500.0;THROTTLE;1067.0;AUX1;1535.0;AUX2;1500.0;AUX3;1500.0;AUX4;1500.0
ALTITUDE;20.0
DEBUG;DEBUG120.0;DEBUG2;765.0;DEBUG3;72.0;DEBUG4;0.0
ATTITUDE;ANGX;0.0;ANGY;0.0;HEAD;-173.0
STATUS;CYCLETIME;2696;I2CERR;0;PRESENT;23;MODE;66
RAW_IMU;AX;2.0;AY;0.0;AZ;255.0;GX;0.0;GY;0.0;GZ;0.0;MAGX;-3.0;MAGY;-61.0;MAGZ;-12.0
MOT;0;1000.0;1;1000.0;2;1000.0;3;1000.0;4;0.0;5;0.0;6;0.0;7;0.0;
RC;ROLL;1514.0;PITCH;1489.0;YAW;1500.0;THROTTLE;1067.0;AUX1;1535.0;AUX2;1500.0;AUX3;1500.0;AUX4;1500.0
ALTITUDE;20.0
DEBUG;DEBUG120.0;DEBUG2;765.0;DEBUG3;72.0;DEBUG4;0.0
ATTITUDE;ANGX;0.0;ANGY;0.0;HEAD;-173.0
STATUS;CYCLETIME;2756;I2CERR;0;PRESENT;23;MODE;66
RAW_IMU;AX;2.0;AY;0.0;AZ;255.0;GX;0.0;GY;0.0;GZ;0.0;MAGX;-3.0;MAGY;-61.0;MAGZ;-12.0
MOT;0;1000.0;1;1000.0;2;1000.0;3;1000.0;4;0.0;5;0.0;6;0.0;7;0.0;
RC;ROLL;1514.0;PITCH;1500.0;YAW;1500.0;THROTTLE;1067.0;AUX1;1535.0;AUX2;1500.0;AUX3;1500.0;AUX4;1500.0
ALTITUDE;20.0
DEBUG;DEBUG120.0;DEBUG2;765.0;DEBUG3;72.0;DEBUG4;0.0
ATTITUDE;ANGX;0.0;ANGY;0.0;HEAD;-173.0
STATUS;CYCLETIME;2960;I2CERR;0;PRESENT;23;MODE;66
RAW_IMU;AX;2.0;AY;0.0;AZ;256.0;GX;0.0;GY;0.0;GZ;0.0;MAGX;-2.0;MAGY;-62.0;MAGZ;-10.0
MOT;0;1000.0;1;1000.0;2;1000.0;3;1000.0;4;0.0;5;0.0;6;0.0;7;0.0;
RC;ROLL;1514.0;PITCH;1522.0;YAW;1500.0;THROTTLE;1067.0;AUX1;1535.0;AUX2;1500.0;AUX3;1500.0;AUX4;1500.0
ALTITUDE;20.0
DEBUG;DEBUG120.0;DEBUG2;765.0;DEBUG3;72.0;DEBUG4;0.0
ATTITUDE;ANGX;0.0;ANGY;0.0;HEAD;-173.0
STATUS;CYCLETIME;2732;I2CERR;0;PRESENT;23;MODE;66
RAW_IMU;AX;2.0;AY;0.0;AZ;256.0;GX;0.0;GY;0.0;GZ;0.0;MAGX;-2.0;MAGY;-62.0;MAGZ;-10.0
MOT;0;1000.0;1;1000.0;2;1000.0;3;1000.0;4;0.0;5;0.0;6;0.0;7;0.0;
RC;ROLL;1514.0;PITCH;1527.0;YAW;1500.0;THROTTLE;1067.0;AUX1;1535.0;AUX2;1500.0;AUX3;1500.0;AUX4;1500.0
ALTITUDE;20.0
DEBUG;DEBUG120.0;DEBUG2;765.0;DEBUG3;72.0;DEBUG4;0.0
ATTITUDE;ANGX;0.0;ANGY;0.0;HEAD;-173.0
STATUS;CYCLETIME;2996;I2CERR;0;PRESENT;23;MODE;66
RAW_IMU;AX;2.0;AY;0.0;AZ;256.0;GX;0.0;GY;0.0;GZ;0.0;MAGX;-3.0;MAGY;-60.0;MAGZ;-11.0
MOT;0;1000.0;1;1000.0;2;1000.0;3;1000.0;4;0.0;5;0.0;6;0.0;7;0.0;
RC;ROLL;1514.0;PITCH;1539.0;YAW;1500.0;THROTTLE;1067.0;AUX1;1530.0;AUX2;1500.0;AUX3;1500.0;AUX4;1500.0
ALTITUDE;20.0
DEBUG;DEBUG120.0;DEBUG2;765.0;DEBUG3;72.0;DEBUG4;0.0
ATTITUDE;ANGX;0.0;ANGY;0.0;HEAD;-173.0
STATUS;CYCLETIME;2776;I2CERR;0;PRESENT;23;MODE;66
RAW_IMU;AX;2.0;AY;0.0;AZ;256.0;GX;0.0;GY;0.0;GZ;0.0;MAGX;-3.0;MAGY;-60.0;MAGZ;-11.0
MOT;0;1000.0;1;1000.0;2;1000.0;3;1000.0;4;0.0;5;0.0;6;0.0;7;0.0;
RC;ROLL;1514.0;PITCH;1504.0;YAW;1500.0;THROTTLE;1067.0;AUX1;1530.0;AUX2;1500.0;AUX3;1500.0;AUX4;1500.0
ALTITUDE;20.0
DEBUG;DEBUG120.0;DEBUG2;765.0;DEBUG3;72.0;DEBUG4;0.0
ATTITUDE;ANGX;0.0;ANGY;0.0;HEAD;-173.0
STATUS;CYCLETIME;2816;I2CERR;0;PRESENT;23;MODE;66
RAW_IMU;AX;2.0;AY;0.0;AZ;255.0;GX;0.0;GY;0.0;GZ;0.0;MAGX;-3.0;MAGY;-63.0;MAGZ;-9.0
MOT;0;1000.0;1;1000.0;2;1000.0;3;1000.0;4;0.0;5;0.0;6;0.0;7;0.0;
RC;ROLL;1514.0;PITCH;1490.0;YAW;1500.0;THROTTLE;1067.0;AUX1;1533.0;AUX2;1500.0;AUX3;1500.0;AUX4;1500.0
ALTITUDE;20.0
DEBUG;DEBUG120.0;DEBUG2;765.0;DEBUG3;72.0;DEBUG4;0.0
ATTITUDE;ANGX;0.0;ANGY;0.0;HEAD;-173.0
STATUS;CYCLETIME;2732;I2CERR;0;PRESENT;23;MODE;66
RAW_IMU;AX;2.0;AY;0.0;AZ;255.0;GX;0.0;GY;0.0;GZ;0.0;MAGX;-3.0;MAGY;-63.0;MAGZ;-9.0
MOT;0;1000.0;1;1000.0;2;1000.0;3;1000.0;4;0.0;5;0.0;6;0.0;7;0.0;
RC;ROLL;1514.0;PITCH;1490.0;YAW;1500.0;THROTTLE;1067.0;AUX1;1535.0;AUX2;1500.0;AUX3;1500.0;AUX4;1500.0
ALTITUDE;20.0
DEBUG;DEBUG120.0;DEBUG2;765.0;DEBUG3;72.0;DEBUG4;0.0
ATTITUDE;ANGX;0.0;ANGY;0.0;HEAD;-173.0
STATUS;CYCLETIME;2756;I2CERR;0;PRESENT;23;MODE;66
RAW_IMU;AX;2.0;AY;0.0;AZ;255.0;GX;0.0;GY;0.0;GZ;0.0;MAGX;-3.0;MAGY;-63.0;MAGZ;-9.0
MOT;0;1000.0;1;1000.0;2;1000.0;3;1000.0;4;0.0;5;0.0;6;0.0;7;0.0;
RC;ROLL;1514.0;PITCH;1490.0;YAW;1500.0;THROTTLE;1067.0;AUX1;1535.0;AUX2;1500.0;AUX3;1500.0;AUX4;1500.0
ALTITUDE;20.0
DEBUG;DEBUG120.0;DEBUG2;765.0;DEBUG3;72.0;DEBUG4;0.0
ATTITUDE;ANGX;0.0;ANGY;0.0;HEAD;-173.0
STATUS;CYCLETIME;2752;I2CERR;0;PRESENT;23;MODE;66
RAW_IMU;AX;2.0;AY;0.0;AZ;255.0;GX;0.0;GY;0.0;GZ;0.0;MAGX;-3.0;MAGY;-61.0;MAGZ;-10.0
MOT;0;1000.0;1;1000.0;2;1000.0;3;1000.0;4;0.0;5;0.0;6;0.0;7;0.0;
RC;ROLL;1514.0;PITCH;1490.0;YAW;1500.0;THROTTLE;1067.0;AUX1;1535.0;AUX2;1500.0;AUX3;1500.0;AUX4;1500.0
ALTITUDE;20.0
DEBUG;DEBUG120.0;DEBUG2;765.0;DEBUG3;72.0;DEBUG4;0.0
ATTITUDE;ANGX;0.0;ANGY;0.0;HEAD;-173.0
STATUS;CYCLETIME;2748;I2CERR;0;PRESENT;23;MODE;66
RAW_IMU;AX;2.0;AY;0.0;AZ;255.0;GX;0.0;GY;0.0;GZ;0.0;MAGX;-3.0;MAGY;-61.0;MAGZ;-10.0
MOT;0;1000.0;1;1000.0;2;1000.0;3;1000.0;4;0.0;5;0.0;6;0.0;7;0.0;
RC;ROLL;1514.0;PITCH;1490.0;YAW;1500.0;THROTTLE;1067.0;AUX1;1535.0;AUX2;1500.0;AUX3;1500.0;AUX4;1500.0
ALTITUDE;20.0
DEBUG;DEBUG120.0;DEBUG2;765.0;DEBUG3;72.0;DEBUG4;0.0
ATTITUDE;ANGX;0.0;ANGY;0.0;HEAD;-173.0
STATUS;CYCLETIME;2804;I2CERR;0;PRESENT;23;MODE;66
RAW_IMU;AX;2.0;AY;0.0;AZ;255.0;GX;0.0;GY;0.0;GZ;0.0;MAGX;-2.0;MAGY;-63.0;MAGZ;-10.0
MOT;0;1000.0;1;1000.0;2;1000.0;3;1000.0;4;0.0;5;0.0;6;0.0;7;0.0;
RC;ROLL;1514.0;PITCH;1490.0;YAW;1500.0;THROTTLE;1067.0;AUX1;1535.0;AUX2;1500.0;AUX3;1500.0;AUX4;1500.0
ALTITUDE;20.0
DEBUG;DEBUG120.0;DEBUG2;765.0;DEBUG3;72.0;DEBUG4;0.0
ATTITUDE;ANGX;0.0;ANGY;0.0;HEAD;-173.0
STATUS;CYCLETIME;2736;I2CERR;0;PRESENT;23;MODE;66
RAW_IMU;AX;2.0;AY;0.0;AZ;255.0;GX;0.0;GY;0.0;GZ;0.0;MAGX;-2.0;MAGY;-63.0;MAGZ;-10.0
MOT;0;1000.0;1;1000.0;2;1000.0;3;1000.0;4;0.0;5;0.0;6;0.0;7;0.0;
RC;ROLL;1514.0;PITCH;1490.0;YAW;1500.0;THROTTLE;1067.0;AUX1;1535.0;AUX2;1500.0;AUX3;1500.0;AUX4;1500.0
ALTITUDE;20.0
DEBUG;DEBUG120.0;DEBUG2;765.0;DEBUG3;72.0;DEBUG4;0.0
ATTITUDE;ANGX;0.0;ANGY;0.0;HEAD;-173.0
STATUS;CYCLETIME;2732;I2CERR;0;PRESENT;23;MODE;66
RAW_IMU;AX;2.0;AY;0.0;AZ;255.0;GX;0.0;GY;0.0;GZ;0.0;MAGX;-2.0;MAGY;-61.0;MAGZ;-10.0
MOT;0;1000.0;1;1000.0;2;1000.0;3;1000.0;4;0.0;5;0.0;6;0.0;7;0.0;
RC;ROLL;1514.0;PITCH;1490.0;YAW;1500.0;THROTTLE;1067.0;AUX1;1535.0;AUX2;1500.0;AUX3;1500.0;AUX4;1500.0
ALTITUDE;20.0
DEBUG;DEBUG120.0;DEBUG2;765.0;DEBUG3;72.0;DEBUG4;0.0
ATTITUDE;ANGX;0.0;ANGY;0.0;HEAD;-173.0
STATUS;CYCLETIME;3004;I2CERR;0;PRESENT;23;MODE;66
RAW_IMU;AX;2.0;AY;0.0;AZ;255.0;GX;0.0;GY;0.0;GZ;0.0;MAGX;-2.0;MAGY;-61.0;MAGZ;-10.0
MOT;0;1000.0;1;1000.0;2;1000.0;3;1000.0;4;0.0;5;0.0;6;0.0;7;0.0;
RC;ROLL;1514.0;PITCH;1490.0;YAW;1500.0;THROTTLE;1067.0;AUX1;1535.0;AUX2;1500.0;AUX3;1500.0;AUX4;1500.0
ALTITUDE;20.0
DEBUG;DEBUG120.0;DEBUG2;765.0;DEBUG3;72.0;DEBUG4;0.0
ATTITUDE;ANGX;0.0;ANGY;0.0;HEAD;-173.0
STATUS;CYCLETIME;2744;I2CERR;0;PRESENT;23;MODE;66
RAW_IMU;AX;2.0;AY;0.0;AZ;255.0;GX;0.0;GY;0.0;GZ;0.0;MAGX;-2.0;MAGY;-61.0;MAGZ;-11.0
MOT;0;1000.0;1;1000.0;2;1000.0;3;1000.0;4;0.0;5;0.0;6;0.0;7;0.0;
RC;ROLL;1514.0;PITCH;1490.0;YAW;1500.0;THROTTLE;1067.0;AUX1;1535.0;AUX2;1500.0;AUX3;1500.0;AUX4;1500.0
ALTITUDE;20.0
DEBUG;DEBUG120.0;DEBUG2;765.0;DEBUG3;72.0;DEBUG4;0.0
ATTITUDE;ANGX;0.0;ANGY;0.0;HEAD;-173.0
STATUS;CYCLETIME;2784;I2CERR;0;PRESENT;23;MODE;66
RAW_IMU;AX;2.0;AY;0.0;AZ;255.0;GX;0.0;GY;0.0;GZ;0.0;MAGX;-2.0;MAGY;-61.0;MAGZ;-11.0
MOT;0;1000.0;1;1000.0;2;1000.0;3;1000.0;4;0.0;5;0.0;6;0.0;7;0.0;
RC;ROLL;1514.0;PITCH;1490.0;YAW;1500.0;THROTTLE;1067.0;AUX1;1535.0;AUX2;1500.0;AUX3;1500.0;AUX4;1500.0
ALTITUDE;20.0
DEBUG;DEBUG120.0;DEBUG2;765.0;DEBUG3;72.0;DEBUG4;0.0
ATTITUDE;ANGX;0.0;ANGY;0.0;HEAD;-173.0
STATUS;CYCLETIME;2852;I2CERR;0;PRESENT;23;MODE;66
RAW_IMU;AX;2.0;AY;0.0;AZ;255.0;GX;0.0;GY;0.0;GZ;0.0;MAGX;-2.0;MAGY;-61.0;MAGZ;-10.0
MOT;0;1000.0;1;1000.0;2;1000.0;3;1000.0;4;0.0;5;0.0;6;0.0;7;0.0;
RC;ROLL;1514.0;PITCH;1490.0;YAW;1500.0;THROTTLE;1067.0;AUX1;1535.0;AUX2;1500.0;AUX3;1500.0;AUX4;1500.0
ALTITUDE;20.0
DEBUG;DEBUG120.0;DEBUG2;765.0;DEBUG3;72.0;DEBUG4;0.0
ATTITUDE;ANGX;0.0;ANGY;0.0;HEAD;-173.0
STATUS;CYCLETIME;2744;I2CERR;0;PRESENT;23;MODE;66
RAW_IMU;AX;3.0;AY;0.0;AZ;255.0;GX;0.0;GY;0.0;GZ;0.0;MAGX;-2.0;MAGY;-61.0;MAGZ;-10.0
MOT;0;1000.0;1;1000.0;2;1000.0;3;1000.0;4;0.0;5;0.0;6;0.0;7;0.0;
RC;ROLL;1512.0;PITCH;1488.0;YAW;1500.0;THROTTLE;1067.0;AUX1;1535.0;AUX2;1500.0;AUX3;1500.0;AUX4;1500.0
ALTITUDE;20.0
DEBUG;DEBUG120.0;DEBUG2;765.0;DEBUG3;72.0;DEBUG4;0.0
ATTITUDE;ANGX;0.0;ANGY;0.0;HEAD;-173.0
STATUS;CYCLETIME;2792;I2CERR;0;PRESENT;23;MODE;66
RAW_IMU;AX;3.0;AY;0.0;AZ;255.0;GX;0.0;GY;0.0;GZ;0.0;MAGX;-2.0;MAGY;-61.0;MAGZ;-11.0
MOT;0;1000.0;1;1000.0;2;1000.0;3;1000.0;4;0.0;5;0.0;6;0.0;7;0.0;
RC;ROLL;1512.0;PITCH;1488.0;YAW;1500.0;THROTTLE;1067.0;AUX1;1535.0;AUX2;1500.0;AUX3;1500.0;AUX4;1500.0
ALTITUDE;20.0
DEBUG;DEBUG120.0;DEBUG2;765.0;DEBUG3;72.0;DEBUG4;0.0
ATTITUDE;ANGX;0.0;ANGY;0.0;HEAD;-173.0
STATUS;CYCLETIME;2856;I2CERR;0;PRESENT;23;MODE;66
RAW_IMU;AX;3.0;AY;0.0;AZ;255.0;GX;0.0;GY;0.0;GZ;0.0;MAGX;-2.0;MAGY;-61.0;MAGZ;-11.0
MOT;0;1000.0;1;1000.0;2;1000.0;3;1000.0;4;0.0;5;0.0;6;0.0;7;0.0;
RC;ROLL;1512.0;PITCH;1488.0;YAW;1500.0;THROTTLE;1067.0;AUX1;1535.0;AUX2;1500.0;AUX3;1500.0;AUX4;1500.0
ALTITUDE;20.0
DEBUG;DEBUG120.0;DEBUG2;765.0;DEBUG3;72.0;DEBUG4;0.0
ATTITUDE;ANGX;0.0;ANGY;0.0;HEAD;-173.0
STATUS;CYCLETIME;2972;I2CERR;0;PRESENT;23;MODE;66
RAW_IMU;AX;3.0;AY;0.0;AZ;255.0;GX;0.0;GY;0.0;GZ;0.0;MAGX;-2.0;MAGY;-63.0;MAGZ;-10.0
MOT;0;1000.0;1;1000.0;2;1000.0;3;1000.0;4;0.0;5;0.0;6;0.0;7;0.0;
RC;ROLL;1512.0;PITCH;1488.0;YAW;1500.0;THROTTLE;1067.0;AUX1;1535.0;AUX2;1500.0;AUX3;1500.0;AUX4;1500.0
ALTITUDE;20.0
DEBUG;DEBUG120.0;DEBUG2;765.0;DEBUG3;72.0;DEBUG4;0.0
ATTITUDE;ANGX;0.0;ANGY;0.0;HEAD;-173.0
STATUS;CYCLETIME;2732;I2CERR;0;PRESENT;23;MODE;66
RAW_IMU;AX;2.0;AY;0.0;AZ;255.0;GX;0.0;GY;0.0;GZ;0.0;MAGX;-2.0;MAGY;-63.0;MAGZ;-10.0
MOT;0;1000.0;1;1000.0;2;1000.0;3;1000.0;4;0.0;5;0.0;6;0.0;7;0.0;
RC;ROLL;1512.0;PITCH;1488.0;YAW;1500.0;THROTTLE;1067.0;AUX1;1535.0;AUX2;1500.0;AUX3;1500.0;AUX4;1500.0
ALTITUDE;20.0
DEBUG;DEBUG120.0;DEBUG2;765.0;DEBUG3;72.0;DEBUG4;0.0
ATTITUDE;ANGX;0.0;ANGY;0.0;HEAD;-173.0
STATUS;CYCLETIME;2856;I2CERR;0;PRESENT;23;MODE;66
RAW_IMU;AX;3.0;AY;0.0;AZ;255.0;GX;0.0;GY;0.0;GZ;0.0;MAGX;-3.0;MAGY;-61.0;MAGZ;-11.0
MOT;0;1000.0;1;1000.0;2;1000.0;3;1000.0;4;0.0;5;0.0;6;0.0;7;0.0;
RC;ROLL;1512.0;PITCH;1488.0;YAW;1500.0;THROTTLE;1067.0;AUX1;1535.0;AUX2;1500.0;AUX3;1500.0;AUX4;1500.0
ALTITUDE;20.0
DEBUG;DEBUG120.0;DEBUG2;765.0;DEBUG3;72.0;DEBUG4;0.0
ATTITUDE;ANGX;0.0;ANGY;0.0;HEAD;-173.0
STATUS;CYCLETIME;2716;I2CERR;0;PRESENT;23;MODE;66
RAW_IMU;AX;3.0;AY;0.0;AZ;255.0;GX;0.0;GY;0.0;GZ;0.0;MAGX;-3.0;MAGY;-61.0;MAGZ;-11.0
MOT;0;1000.0;1;1000.0;2;1000.0;3;1000.0;4;0.0;5;0.0;6;0.0;7;0.0;
RC;ROLL;1512.0;PITCH;1488.0;YAW;1500.0;THROTTLE;1067.0;AUX1;1535.0;AUX2;1500.0;AUX3;1500.0;AUX4;1500.0
ALTITUDE;20.0
DEBUG;DEBUG120.0;DEBUG2;765.0;DEBUG3;72.0;DEBUG4;0.0
ATTITUDE;ANGX;0.0;ANGY;0.0;HEAD;-173.0
STATUS;CYCLETIME;2720;I2CERR;0;PRESENT;23;MODE;66
RAW_IMU;AX;3.0;AY;0.0;AZ;254.0;GX;0.0;GY;0.0;GZ;0.0;MAGX;-3.0;MAGY;-63.0;MAGZ;-10.0
MOT;0;1000.0;1;1000.0;2;1000.0;3;1000.0;4;0.0;5;0.0;6;0.0;7;0.0;
RC;ROLL;1512.0;PITCH;1488.0;YAW;1500.0;THROTTLE;1067.0;AUX1;1535.0;AUX2;1500.0;AUX3;1500.0;AUX4;1500.0
ALTITUDE;20.0
DEBUG;DEBUG120.0;DEBUG2;765.0;DEBUG3;72.0;DEBUG4;0.0
ATTITUDE;ANGX;0.0;ANGY;0.0;HEAD;-173.0
STATUS;CYCLETIME;2716;I2CERR;0;PRESENT;23;MODE;66
RAW_IMU;AX;3.0;AY;0.0;AZ;254.0;GX;0.0;GY;0.0;GZ;0.0;MAGX;-3.0;MAGY;-63.0;MAGZ;-10.0
MOT;0;1000.0;1;1000.0;2;1000.0;3;1000.0;4;0.0;5;0.0;6;0.0;7;0.0;
RC;ROLL;1512.0;PITCH;1488.0;YAW;1500.0;THROTTLE;1067.0;AUX1;1535.0;AUX2;1500.0;AUX3;1500.0;AUX4;1500.0
ALTITUDE;20.0
DEBUG;DEBUG120.0;DEBUG2;765.0;DEBUG3;72.0;DEBUG4;0.0
ATTITUDE;ANGX;0.0;ANGY;0.0;HEAD;-173.0
STATUS;CYCLETIME;2976;I2CERR;0;PRESENT;23;MODE;66
RAW_IMU;AX;3.0;AY;0.0;AZ;254.0;GX;0.0;GY;0.0;GZ;0.0;MAGX;-4.0;MAGY;-60.0;MAGZ;-11.0
MOT;0;1000.0;1;1000.0;2;1000.0;3;1000.0;4;0.0;5;0.0;6;0.0;7;0.0;
RC;ROLL;1512.0;PITCH;1488.0;YAW;1500.0;THROTTLE;1067.0;AUX1;1535.0;AUX2;1500.0;AUX3;1500.0;AUX4;1500.0
ALTITUDE;20.0
DEBUG;DEBUG120.0;DEBUG2;765.0;DEBUG3;72.0;DEBUG4;0.0
ATTITUDE;ANGX;0.0;ANGY;0.0;HEAD;-173.0
STATUS;CYCLETIME;2788;I2CERR;0;PRESENT;23;MODE;66
RAW_IMU;AX;3.0;AY;0.0;AZ;254.0;GX;0.0;GY;0.0;GZ;0.0;MAGX;-4.0;MAGY;-60.0;MAGZ;-11.0
MOT;0;1000.0;1;1000.0;2;1000.0;3;1000.0;4;0.0;5;0.0;6;0.0;7;0.0;
RC;ROLL;1512.0;PITCH;1488.0;YAW;1500.0;THROTTLE;1067.0;AUX1;1535.0;AUX2;1500.0;AUX3;1500.0;AUX4;1500.0
ALTITUDE;20.0
DEBUG;DEBUG120.0;DEBUG2;765.0;DEBUG3;72.0;DEBUG4;0.0
ATTITUDE;ANGX;0.0;ANGY;0.0;HEAD;-173.0
STATUS;CYCLETIME;2712;I2CERR;0;PRESENT;23;MODE;66
RAW_IMU;AX;3.0;AY;0.0;AZ;255.0;GX;0.0;GY;0.0;GZ;0.0;MAGX;-2.0;MAGY;-63.0;MAGZ;-10.0
MOT;0;1000.0;1;1000.0;2;1000.0;3;1000.0;4;0.0;5;0.0;6;0.0;7;0.0;
RC;ROLL;1512.0;PITCH;1488.0;YAW;1500.0;THROTTLE;1067.0;AUX1;1535.0;AUX2;1500.0;AUX3;1500.0;AUX4;1500.0
ALTITUDE;20.0
DEBUG;DEBUG120.0;DEBUG2;765.0;DEBUG3;72.0;DEBUG4;0.0
ATTITUDE;ANGX;0.0;ANGY;0.0;HEAD;-173.0
STATUS;CYCLETIME;2768;I2CERR;0;PRESENT;23;MODE;66
RAW_IMU;AX;2.0;AY;0.0;AZ;255.0;GX;0.0;GY;0.0;GZ;0.0;MAGX;-2.0;MAGY;-63.0;MAGZ;-10.0
MOT;0;1000.0;1;1000.0;2;1000.0;3;1000.0;4;0.0;5;0.0;6;0.0;7;0.0;
RC;ROLL;1512.0;PITCH;1488.0;YAW;1500.0;THROTTLE;1067.0;AUX1;1535.0;AUX2;1500.0;AUX3;1500.0;AUX4;1500.0
ALTITUDE;20.0
DEBUG;DEBUG120.0;DEBUG2;765.0;DEBUG3;72.0;DEBUG4;0.0
ATTITUDE;ANGX;0.0;ANGY;0.0;HEAD;-173.0
STATUS;CYCLETIME;2740;I2CERR;0;PRESENT;23;MODE;66
RAW_IMU;AX;2.0;AY;0.0;AZ;255.0;GX;0.0;GY;0.0;GZ;0.0;MAGX;-2.0;MAGY;-62.0;MAGZ;-11.0
MOT;0;1000.0;1;1000.0;2;1000.0;3;1000.0;4;0.0;5;0.0;6;0.0;7;0.0;
RC;ROLL;1512.0;PITCH;1488.0;YAW;1500.0;THROTTLE;1067.0;AUX1;1535.0;AUX2;1500.0;AUX3;1500.0;AUX4;1500.0
ALTITUDE;20.0
DEBUG;DEBUG120.0;DEBUG2;765.0;DEBUG3;72.0;DEBUG4;0.0
ATTITUDE;ANGX;0.0;ANGY;0.0;HEAD;-173.0
STATUS;CYCLETIME;2976;I2CERR;0;PRESENT;23;MODE;66
RAW_IMU;AX;3.0;AY;0.0;AZ;255.0;GX;0.0;GY;0.0;GZ;0.0;MAGX;-2.0;MAGY;-62.0;MAGZ;-11.0
MOT;0;1000.0;1;1000.0;2;1000.0;3;1000.0;4;0.0;5;0.0;6;0.0;7;0.0;
RC;ROLL;1512.0;PITCH;1488.0;YAW;1500.0;THROTTLE;1067.0;AUX1;1535.0;AUX2;1500.0;AUX3;1500.0;AUX4;1500.0
ALTITUDE;20.0
DEBUG;DEBUG120.0;DEBUG2;765.0;DEBUG3;72.0;DEBUG4;0.0
ATTITUDE;ANGX;0.0;ANGY;0.0;HEAD;-173.0
STATUS;CYCLETIME;2872;I2CERR;0;PRESENT;23;MODE;66
RAW_IMU;AX;2.0;AY;0.0;AZ;255.0;GX;0.0;GY;0.0;GZ;0.0;MAGX;-2.0;MAGY;-62.0;MAGZ;-11.0
MOT;0;1000.0;1;1000.0;2;1000.0;3;1000.0;4;0.0;5;0.0;6;0.0;7;0.0;
RC;ROLL;1512.0;PITCH;1488.0;YAW;1500.0;THROTTLE;1067.0;AUX1;1535.0;AUX2;1500.0;AUX3;1500.0;AUX4;1500.0
ALTITUDE;20.0
DEBUG;DEBUG120.0;DEBUG2;765.0;DEBUG3;72.0;DEBUG4;0.0
ATTITUDE;ANGX;0.0;ANGY;0.0;HEAD;-173.0
STATUS;CYCLETIME;2800;I2CERR;0;PRESENT;23;MODE;66
RAW_IMU;AX;2.0;AY;0.0;AZ;255.0;GX;0.0;GY;0.0;GZ;0.0;MAGX;-3.0;MAGY;-62.0;MAGZ;-11.0
MOT;0;1000.0;1;1000.0;2;1000.0;3;1000.0;4;0.0;5;0.0;6;0.0;7;0.0;
RC;ROLL;1512.0;PITCH;1488.0;YAW;1500.0;THROTTLE;1067.0;AUX1;1535.0;AUX2;1500.0;AUX3;1500.0;AUX4;1500.0
ALTITUDE;20.0
DEBUG;DEBUG120.0;DEBUG2;765.0;DEBUG3;72.0;DEBUG4;0.0
ATTITUDE;ANGX;0.0;ANGY;0.0;HEAD;-173.0
STATUS;CYCLETIME;2824;I2CERR;0;PRESENT;23;MODE;66
RAW_IMU;AX;2.0;AY;0.0;AZ;255.0;GX;0.0;GY;0.0;GZ;0.0;MAGX;-3.0;MAGY;-62.0;MAGZ;-11.0
MOT;0;1000.0;1;1000.0;2;1000.0;3;1000.0;4;0.0;5;0.0;6;0.0;7;0.0;
RC;ROLL;1512.0;PITCH;1488.0;YAW;1500.0;THROTTLE;1067.0;AUX1;1535.0;AUX2;1500.0;AUX3;1500.0;AUX4;1500.0
ALTITUDE;20.0
DEBUG;DEBUG120.0;DEBUG2;765.0;DEBUG3;72.0;DEBUG4;0.0
ATTITUDE;ANGX;0.0;ANGY;0.0;HEAD;-173.0
STATUS;CYCLETIME;2736;I2CERR;0;PRESENT;23;MODE;66
RAW_IMU;AX;2.0;AY;0.0;AZ;255.0;GX;0.0;GY;0.0;GZ;0.0;MAGX;-3.0;MAGY;-62.0;MAGZ;-11.0
MOT;0;1000.0;1;1000.0;2;1000.0;3;1000.0;4;0.0;5;0.0;6;0.0;7;0.0;
RC;ROLL;1512.0;PITCH;1488.0;YAW;1500.0;THROTTLE;1067.0;AUX1;1535.0;AUX2;1500.0;AUX3;1500.0;AUX4;1500.0
ALTITUDE;20.0
DEBUG;DEBUG120.0;DEBUG2;765.0;DEBUG3;72.0;DEBUG4;0.0
ATTITUDE;ANGX;0.0;ANGY;0.0;HEAD;-173.0
STATUS;CYCLETIME;2672;I2CERR;0;PRESENT;23;MODE;66
RAW_IMU;AX;2.0;AY;0.0;AZ;255.0;GX;0.0;GY;0.0;GZ;0.0;MAGX;-3.0;MAGY;-62.0;MAGZ;-11.0
MOT;0;1000.0;1;1000.0;2;1000.0;3;1000.0;4;0.0;5;0.0;6;0.0;7;0.0;
RC;ROLL;1512.0;PITCH;1488.0;YAW;1500.0;THROTTLE;1065.0;AUX1;1535.0;AUX2;1500.0;AUX3;1500.0;AUX4;1500.0
ALTITUDE;20.0
DEBUG;DEBUG120.0;DEBUG2;765.0;DEBUG3;72.0;DEBUG4;0.0
ATTITUDE;ANGX;0.0;ANGY;0.0;HEAD;-173.0
STATUS;CYCLETIME;2748;I2CERR;0;PRESENT;23;MODE;66
RAW_IMU;AX;2.0;AY;0.0;AZ;255.0;GX;0.0;GY;0.0;GZ;0.0;MAGX;-2.0;MAGY;-62.0;MAGZ;-11.0
MOT;0;1000.0;1;1000.0;2;1000.0;3;1000.0;4;0.0;5;0.0;6;0.0;7;0.0;
RC;ROLL;1512.0;PITCH;1488.0;YAW;1500.0;THROTTLE;1065.0;AUX1;1535.0;AUX2;1500.0;AUX3;1500.0;AUX4;1500.0
ALTITUDE;20.0
DEBUG;DEBUG120.0;DEBUG2;765.0;DEBUG3;72.0;DEBUG4;0.0
ATTITUDE;ANGX;0.0;ANGY;0.0;HEAD;-173.0
STATUS;CYCLETIME;3004;I2CERR;0;PRESENT;23;MODE;66
RAW_IMU;AX;2.0;AY;0.0;AZ;255.0;GX;0.0;GY;0.0;GZ;0.0;MAGX;-2.0;MAGY;-62.0;MAGZ;-11.0
MOT;0;1000.0;1;1000.0;2;1000.0;3;1000.0;4;0.0;5;0.0;6;0.0;7;0.0;
RC;ROLL;1512.0;PITCH;1488.0;YAW;1500.0;THROTTLE;1065.0;AUX1;1535.0;AUX2;1500.0;AUX3;1500.0;AUX4;1500.0
ALTITUDE;20.0
DEBUG;DEBUG120.0;DEBUG2;765.0;DEBUG3;72.0;DEBUG4;0.0
ATTITUDE;ANGX;0.0;ANGY;0.0;HEAD;-173.0
STATUS;CYCLETIME;2828;I2CERR;0;PRESENT;23;MODE;66
RAW_IMU;AX;3.0;AY;0.0;AZ;255.0;GX;0.0;GY;0.0;GZ;0.0;MAGX;-2.0;MAGY;-62.0;MAGZ;-10.0
MOT;0;1000.0;1;1000.0;2;1000.0;3;1000.0;4;0.0;5;0.0;6;0.0;7;0.0;
RC;ROLL;1512.0;PITCH;1488.0;YAW;1500.0;THROTTLE;1065.0;AUX1;1535.0;AUX2;1500.0;AUX3;1500.0;AUX4;1500.0
ALTITUDE;20.0
DEBUG;DEBUG120.0;DEBUG2;765.0;DEBUG3;72.0;DEBUG4;0.0
ATTITUDE;ANGX;0.0;ANGY;0.0;HEAD;-173.0
STATUS;CYCLETIME;2724;I2CERR;0;PRESENT;23;MODE;66
RAW_IMU;AX;3.0;AY;0.0;AZ;255.0;GX;0.0;GY;0.0;GZ;0.0;MAGX;-2.0;MAGY;-62.0;MAGZ;-10.0
MOT;0;1000.0;1;1000.0;2;1000.0;3;1000.0;4;0.0;5;0.0;6;0.0;7;0.0;
RC;ROLL;1512.0;PITCH;1488.0;YAW;1500.0;THROTTLE;1065.0;AUX1;1535.0;AUX2;1500.0;AUX3;1500.0;AUX4;1500.0
ALTITUDE;20.0
DEBUG;DEBUG120.0;DEBUG2;765.0;DEBUG3;72.0;DEBUG4;0.0
ATTITUDE;ANGX;0.0;ANGY;0.0;HEAD;-173.0
STATUS;CYCLETIME;2724;I2CERR;0;PRESENT;23;MODE;66
RAW_IMU;AX;2.0;AY;0.0;AZ;255.0;GX;0.0;GY;0.0;GZ;0.0;MAGX;-2.0;MAGY;-62.0;MAGZ;-10.0
MOT;0;1000.0;1;1000.0;2;1000.0;3;1000.0;4;0.0;5;0.0;6;0.0;7;0.0;
RC;ROLL;1512.0;PITCH;1488.0;YAW;1500.0;THROTTLE;1065.0;AUX1;1535.0;AUX2;1500.0;AUX3;1500.0;AUX4;1500.0
ALTITUDE;20.0
DEBUG;DEBUG120.0;DEBUG2;765.0;DEBUG3;72.0;DEBUG4;0.0
ATTITUDE;ANGX;0.0;ANGY;0.0;HEAD;-173.0
STATUS;CYCLETIME;2760;I2CERR;0;PRESENT;23;MODE;66
RAW_IMU;AX;2.0;AY;0.0;AZ;255.0;GX;0.0;GY;0.0;GZ;0.0;MAGX;-2.0;MAGY;-62.0;MAGZ;-10.0
MOT;0;1000.0;1;1000.0;2;1000.0;3;1000.0;4;0.0;5;0.0;6;0.0;7;0.0;
RC;ROLL;1512.0;PITCH;1488.0;YAW;1500.0;THROTTLE;1065.0;AUX1;1535.0;AUX2;1500.0;AUX3;1500.0;AUX4;1500.0
ALTITUDE;20.0
DEBUG;DEBUG120.0;DEBUG2;765.0;DEBUG3;72.0;DEBUG4;0.0
ATTITUDE;ANGX;0.0;ANGY;0.0;HEAD;-173.0
STATUS;CYCLETIME;2828;I2CERR;0;PRESENT;23;MODE;66
RAW_IMU;AX;2.0;AY;0.0;AZ;255.0;GX;0.0;GY;0.0;GZ;0.0;MAGX;-2.0;MAGY;-63.0;MAGZ;-10.0
MOT;0;1000.0;1;1000.0;2;1000.0;3;1000.0;4;0.0;5;0.0;6;0.0;7;0.0;
RC;ROLL;1512.0;PITCH;1488.0;YAW;1500.0;THROTTLE;1065.0;AUX1;1535.0;AUX2;1500.0;AUX3;1500.0;AUX4;1500.0
ALTITUDE;20.0
DEBUG;DEBUG120.0;DEBUG2;765.0;DEBUG3;72.0;DEBUG4;0.0
ATTITUDE;ANGX;0.0;ANGY;0.0;HEAD;-173.0
STATUS;CYCLETIME;2808;I2CERR;0;PRESENT;23;MODE;66
RAW_IMU;AX;2.0;AY;0.0;AZ;255.0;GX;0.0;GY;0.0;GZ;0.0;MAGX;-2.0;MAGY;-63.0;MAGZ;-10.0
MOT;0;1000.0;1;1000.0;2;1000.0;3;1000.0;4;0.0;5;0.0;6;0.0;7;0.0;
RC;ROLL;1512.0;PITCH;1488.0;YAW;1500.0;THROTTLE;1068.0;AUX1;1535.0;AUX2;1500.0;AUX3;1500.0;AUX4;1500.0
ALTITUDE;20.0
DEBUG;DEBUG120.0;DEBUG2;765.0;DEBUG3;72.0;DEBUG4;0.0
ATTITUDE;ANGX;0.0;ANGY;0.0;HEAD;-173.0
STATUS;CYCLETIME;2712;I2CERR;0;PRESENT;23;MODE;66
RAW_IMU;AX;2.0;AY;0.0;AZ;255.0;GX;0.0;GY;0.0;GZ;0.0;MAGX;-2.0;MAGY;-60.0;MAGZ;-10.0
MOT;0;1000.0;1;1000.0;2;1000.0;3;1000.0;4;0.0;5;0.0;6;0.0;7;0.0;
RC;ROLL;1512.0;PITCH;1488.0;YAW;1500.0;THROTTLE;1068.0;AUX1;1535.0;AUX2;1500.0;AUX3;1500.0;AUX4;1500.0
ALTITUDE;20.0
DEBUG;DEBUG120.0;DEBUG2;765.0;DEBUG3;72.0;DEBUG4;0.0
ATTITUDE;ANGX;0.0;ANGY;0.0;HEAD;-173.0
STATUS;CYCLETIME;2716;I2CERR;0;PRESENT;23;MODE;66
RAW_IMU;AX;3.0;AY;0.0;AZ;256.0;GX;0.0;GY;0.0;GZ;0.0;MAGX;-2.0;MAGY;-60.0;MAGZ;-10.0
MOT;0;1000.0;1;1000.0;2;1000.0;3;1000.0;4;0.0;5;0.0;6;0.0;7;0.0;
RC;ROLL;1512.0;PITCH;1488.0;YAW;1500.0;THROTTLE;1068.0;AUX1;1535.0;AUX2;1500.0;AUX3;1500.0;AUX4;1500.0
ALTITUDE;20.0
DEBUG;DEBUG120.0;DEBUG2;765.0;DEBUG3;72.0;DEBUG4;0.0
ATTITUDE;ANGX;0.0;ANGY;0.0;HEAD;-173.0
STATUS;CYCLETIME;3016;I2CERR;0;PRESENT;23;MODE;66
RAW_IMU;AX;2.0;AY;0.0;AZ;255.0;GX;0.0;GY;0.0;GZ;0.0;MAGX;-3.0;MAGY;-63.0;MAGZ;-11.0
MOT;0;1000.0;1;1000.0;2;1000.0;3;1000.0;4;0.0;5;0.0;6;0.0;7;0.0;
RC;ROLL;1512.0;PITCH;1488.0;YAW;1500.0;THROTTLE;1068.0;AUX1;1535.0;AUX2;1500.0;AUX3;1500.0;AUX4;1500.0
ALTITUDE;20.0
DEBUG;DEBUG120.0;DEBUG2;765.0;DEBUG3;72.0;DEBUG4;0.0
ATTITUDE;ANGX;0.0;ANGY;0.0;HEAD;-173.0
STATUS;CYCLETIME;2740;I2CERR;0;PRESENT;23;MODE;66
RAW_IMU;AX;2.0;AY;0.0;AZ;255.0;GX;0.0;GY;0.0;GZ;0.0;MAGX;-3.0;MAGY;-63.0;MAGZ;-11.0
MOT;0;1000.0;1;1000.0;2;1000.0;3;1000.0;4;0.0;5;0.0;6;0.0;7;0.0;
RC;ROLL;1512.0;PITCH;1488.0;YAW;1500.0;THROTTLE;1068.0;AUX1;1535.0;AUX2;1500.0;AUX3;1500.0;AUX4;1500.0
ALTITUDE;20.0
DEBUG;DEBUG120.0;DEBUG2;765.0;DEBUG3;72.0;DEBUG4;0.0
ATTITUDE;ANGX;0.0;ANGY;0.0;HEAD;-173.0
STATUS;CYCLETIME;2792;I2CERR;0;PRESENT;23;MODE;66
RAW_IMU;AX;2.0;AY;0.0;AZ;255.0;GX;0.0;GY;0.0;GZ;0.0;MAGX;-3.0;MAGY;-61.0;MAGZ;-11.0
MOT;0;1000.0;1;1000.0;2;1000.0;3;1000.0;4;0.0;5;0.0;6;0.0;7;0.0;
RC;ROLL;1512.0;PITCH;1488.0;YAW;1500.0;THROTTLE;1068.0;AUX1;1535.0;AUX2;1500.0;AUX3;1500.0;AUX4;1500.0
ALTITUDE;20.0
DEBUG;DEBUG120.0;DEBUG2;765.0;DEBUG3;72.0;DEBUG4;0.0
ATTITUDE;ANGX;0.0;ANGY;0.0;HEAD;-173.0
STATUS;CYCLETIME;2756;I2CERR;0;PRESENT;23;MODE;66
RAW_IMU;AX;2.0;AY;0.0;AZ;255.0;GX;0.0;GY;0.0;GZ;0.0;MAGX;-3.0;MAGY;-61.0;MAGZ;-11.0
MOT;0;1000.0;1;1000.0;2;1000.0;3;1000.0;4;0.0;5;0.0;6;0.0;7;0.0;
RC;ROLL;1512.0;PITCH;1488.0;YAW;1500.0;THROTTLE;1068.0;AUX1;1535.0;AUX2;1500.0;AUX3;1500.0;AUX4;1500.0
ALTITUDE;20.0
DEBUG;DEBUG120.0;DEBUG2;765.0;DEBUG3;72.0;DEBUG4;0.0
ATTITUDE;ANGX;0.0;ANGY;0.0;HEAD;-173.0
STATUS;CYCLETIME;2740;I2CERR;0;PRESENT;23;MODE;66
RAW_IMU;AX;2.0;AY;0.0;AZ;255.0;GX;0.0;GY;0.0;GZ;0.0;MAGX;-2.0;MAGY;-63.0;MAGZ;-10.0
MOT;0;1000.0;1;1000.0;2;1000.0;3;1000.0;4;0.0;5;0.0;6;0.0;7;0.0;
RC;ROLL;1512.0;PITCH;1488.0;YAW;1500.0;THROTTLE;1068.0;AUX1;1535.0;AUX2;1500.0;AUX3;1500.0;AUX4;1500.0
ALTITUDE;20.0
DEBUG;DEBUG120.0;DEBUG2;765.0;DEBUG3;72.0;DEBUG4;0.0
ATTITUDE;ANGX;0.0;ANGY;0.0;HEAD;-173.0
STATUS;CYCLETIME;2972;I2CERR;0;PRESENT;23;MODE;66
RAW_IMU;AX;2.0;AY;0.0;AZ;255.0;GX;0.0;GY;0.0;GZ;0.0;MAGX;-2.0;MAGY;-63.0;MAGZ;-10.0
MOT;0;1000.0;1;1000.0;2;1000.0;3;1000.0;4;0.0;5;0.0;6;0.0;7;0.0;
RC;ROLL;1512.0;PITCH;1488.0;YAW;1500.0;THROTTLE;1068.0;AUX1;1535.0;AUX2;1500.0;AUX3;1500.0;AUX4;1500.0
ALTITUDE;20.0
DEBUG;DEBUG120.0;DEBUG2;765.0;DEBUG3;72.0;DEBUG4;0.0
ATTITUDE;ANGX;0.0;ANGY;0.0;HEAD;-173.0
STATUS;CYCLETIME;2740;I2CERR;0;PRESENT;23;MODE;66
RAW_IMU;AX;2.0;AY;0.0;AZ;255.0;GX;0.0;GY;0.0;GZ;0.0;MAGX;-2.0;MAGY;-63.0;MAGZ;-10.0
MOT;0;1000.0;1;1000.0;2;1000.0;3;1000.0;4;0.0;5;0.0;6;0.0;7;0.0;
RC;ROLL;1512.0;PITCH;1488.0;YAW;1500.0;THROTTLE;1068.0;AUX1;1535.0;AUX2;1500.0;AUX3;1500.0;AUX4;1500.0
ALTITUDE;20.0
DEBUG;DEBUG120.0;DEBUG2;765.0;DEBUG3;72.0;DEBUG4;0.0
ATTITUDE;ANGX;0.0;ANGY;0.0;HEAD;-173.0
STATUS;CYCLETIME;2800;I2CERR;0;PRESENT;23;MODE;66
RAW_IMU;AX;2.0;AY;0.0;AZ;255.0;GX;0.0;GY;0.0;GZ;0.0;MAGX;-3.0;MAGY;-61.0;MAGZ;-10.0
MOT;0;1000.0;1;1000.0;2;1000.0;3;1000.0;4;0.0;5;0.0;6;0.0;7;0.0;
RC;ROLL;1512.0;PITCH;1488.0;YAW;1500.0;THROTTLE;1066.0;AUX1;1535.0;AUX2;1500.0;AUX3;1500.0;AUX4;1500.0
ALTITUDE;20.0
DEBUG;DEBUG120.0;DEBUG2;765.0;DEBUG3;72.0;DEBUG4;0.0
ATTITUDE;ANGX;0.0;ANGY;0.0;HEAD;-173.0
STATUS;CYCLETIME;2720;I2CERR;0;PRESENT;23;MODE;66
RAW_IMU;AX;2.0;AY;0.0;AZ;255.0;GX;0.0;GY;0.0;GZ;0.0;MAGX;-3.0;MAGY;-61.0;MAGZ;-10.0
MOT;0;1000.0;1;1000.0;2;1000.0;3;1000.0;4;0.0;5;0.0;6;0.0;7;0.0;
RC;ROLL;1512.0;PITCH;1488.0;YAW;1500.0;THROTTLE;1066.0;AUX1;1535.0;AUX2;1500.0;AUX3;1500.0;AUX4;1500.0
ALTITUDE;20.0
DEBUG;DEBUG120.0;DEBUG2;765.0;DEBUG3;72.0;DEBUG4;0.0
ATTITUDE;ANGX;0.0;ANGY;0.0;HEAD;-173.0
STATUS;CYCLETIME;2908;I2CERR;0;PRESENT;23;MODE;66
RAW_IMU;AX;2.0;AY;0.0;AZ;255.0;GX;0.0;GY;0.0;GZ;0.0;MAGX;-2.0;MAGY;-61.0;MAGZ;-10.0
MOT;0;1000.0;1;1000.0;2;1000.0;3;1000.0;4;0.0;5;0.0;6;0.0;7;0.0;
RC;ROLL;1512.0;PITCH;1488.0;YAW;1500.0;THROTTLE;1066.0;AUX1;1535.0;AUX2;1500.0;AUX3;1500.0;AUX4;1500.0
ALTITUDE;20.0
DEBUG;DEBUG120.0;DEBUG2;765.0;DEBUG3;72.0;DEBUG4;0.0
ATTITUDE;ANGX;0.0;ANGY;0.0;HEAD;-173.0
STATUS;CYCLETIME;2704;I2CERR;0;PRESENT;23;MODE;66
RAW_IMU;AX;2.0;AY;0.0;AZ;255.0;GX;0.0;GY;0.0;GZ;0.0;MAGX;-2.0;MAGY;-61.0;MAGZ;-10.0
MOT;0;1000.0;1;1000.0;2;1000.0;3;1000.0;4;0.0;5;0.0;6;0.0;7;0.0;
RC;ROLL;1512.0;PITCH;1488.0;YAW;1500.0;THROTTLE;1066.0;AUX1;1535.0;AUX2;1500.0;AUX3;1500.0;AUX4;1500.0
ALTITUDE;20.0
DEBUG;DEBUG120.0;DEBUG2;765.0;DEBUG3;72.0;DEBUG4;0.0
ATTITUDE;ANGX;0.0;ANGY;0.0;HEAD;-173.0
STATUS;CYCLETIME;2740;I2CERR;0;PRESENT;23;MODE;66
RAW_IMU;AX;1.0;AY;0.0;AZ;255.0;GX;0.0;GY;0.0;GZ;0.0;MAGX;-2.0;MAGY;-62.0;MAGZ;-9.0
MOT;0;1000.0;1;1000.0;2;1000.0;3;1000.0;4;0.0;5;0.0;6;0.0;7;0.0;
RC;ROLL;1512.0;PITCH;1488.0;YAW;1500.0;THROTTLE;1066.0;AUX1;1535.0;AUX2;1500.0;AUX3;1500.0;AUX4;1500.0
ALTITUDE;20.0
DEBUG;DEBUG120.0;DEBUG2;765.0;DEBUG3;72.0;DEBUG4;0.0
ATTITUDE;ANGX;0.0;ANGY;0.0;HEAD;-173.0
STATUS;CYCLETIME;2736;I2CERR;0;PRESENT;23;MODE;66
RAW_IMU;AX;2.0;AY;0.0;AZ;255.0;GX;0.0;GY;0.0;GZ;0.0;MAGX;-2.0;MAGY;-62.0;MAGZ;-9.0
MOT;0;1000.0;1;1000.0;2;1000.0;3;1000.0;4;0.0;5;0.0;6;0.0;7;0.0;
RC;ROLL;1512.0;PITCH;1488.0;YAW;1500.0;THROTTLE;1066.0;AUX1;1535.0;AUX2;1500.0;AUX3;1500.0;AUX4;1500.0
ALTITUDE;20.0
DEBUG;DEBUG120.0;DEBUG2;765.0;DEBUG3;72.0;DEBUG4;0.0
ATTITUDE;ANGX;0.0;ANGY;0.0;HEAD;-173.0
STATUS;CYCLETIME;2772;I2CERR;0;PRESENT;23;MODE;66
RAW_IMU;AX;2.0;AY;0.0;AZ;255.0;GX;0.0;GY;0.0;GZ;0.0;MAGX;-3.0;MAGY;-61.0;MAGZ;-11.0
MOT;0;1000.0;1;1000.0;2;1000.0;3;1000.0;4;0.0;5;0.0;6;0.0;7;0.0;
RC;ROLL;1512.0;PITCH;1488.0;YAW;1500.0;THROTTLE;1066.0;AUX1;1535.0;AUX2;1500.0;AUX3;1500.0;AUX4;1500.0
ALTITUDE;20.0
DEBUG;DEBUG120.0;DEBUG2;765.0;DEBUG3;72.0;DEBUG4;0.0
ATTITUDE;ANGX;0.0;ANGY;0.0;HEAD;-173.0
STATUS;CYCLETIME;2740;I2CERR;0;PRESENT;23;MODE;66
RAW_IMU;AX;2.0;AY;0.0;AZ;256.0;GX;0.0;GY;0.0;GZ;0.0;MAGX;-3.0;MAGY;-61.0;MAGZ;-11.0
MOT;0;1000.0;1;1000.0;2;1000.0;3;1000.0;4;0.0;5;0.0;6;0.0;7;0.0;
RC;ROLL;1512.0;PITCH;1488.0;YAW;1500.0;THROTTLE;1066.0;AUX1;1535.0;AUX2;1500.0;AUX3;1500.0;AUX4;1500.0
ALTITUDE;20.0
DEBUG;DEBUG120.0;DEBUG2;765.0;DEBUG3;72.0;DEBUG4;0.0
ATTITUDE;ANGX;0.0;ANGY;0.0;HEAD;-173.0
STATUS;CYCLETIME;2728;I2CERR;0;PRESENT;23;MODE;66
RAW_IMU;AX;2.0;AY;0.0;AZ;256.0;GX;0.0;GY;0.0;GZ;0.0;MAGX;-2.0;MAGY;-62.0;MAGZ;-11.0
MOT;0;1000.0;1;1000.0;2;1000.0;3;1000.0;4;0.0;5;0.0;6;0.0;7;0.0;
RC;ROLL;1512.0;PITCH;1488.0;YAW;1500.0;THROTTLE;1066.0;AUX1;1535.0;AUX2;1500.0;AUX3;1500.0;AUX4;1500.0
ALTITUDE;20.0
DEBUG;DEBUG120.0;DEBUG2;765.0;DEBUG3;72.0;DEBUG4;0.0
ATTITUDE;ANGX;0.0;ANGY;0.0;HEAD;-173.0
STATUS;CYCLETIME;2824;I2CERR;0;PRESENT;23;MODE;66
RAW_IMU;AX;2.0;AY;0.0;AZ;256.0;GX;0.0;GY;0.0;GZ;0.0;MAGX;-2.0;MAGY;-62.0;MAGZ;-11.0
MOT;0;1000.0;1;1000.0;2;1000.0;3;1000.0;4;0.0;5;0.0;6;0.0;7;0.0;
RC;ROLL;1512.0;PITCH;1488.0;YAW;1500.0;THROTTLE;1066.0;AUX1;1535.0;AUX2;1500.0;AUX3;1500.0;AUX4;1500.0
ALTITUDE;20.0
DEBUG;DEBUG120.0;DEBUG2;765.0;DEBUG3;72.0;DEBUG4;0.0
ATTITUDE;ANGX;0.0;ANGY;0.0;HEAD;-173.0
STATUS;CYCLETIME;3004;I2CERR;0;PRESENT;23;MODE;66
RAW_IMU;AX;2.0;AY;0.0;AZ;256.0;GX;0.0;GY;0.0;GZ;0.0;MAGX;-3.0;MAGY;-62.0;MAGZ;-11.0
MOT;0;1000.0;1;1000.0;2;1000.0;3;1000.0;4;0.0;5;0.0;6;0.0;7;0.0;
RC;ROLL;1512.0;PITCH;1488.0;YAW;1500.0;THROTTLE;1066.0;AUX1;1535.0;AUX2;1500.0;AUX3;1500.0;AUX4;1500.0
ALTITUDE;20.0
DEBUG;DEBUG120.0;DEBUG2;765.0;DEBUG3;72.0;DEBUG4;0.0
ATTITUDE;ANGX;0.0;ANGY;0.0;HEAD;-173.0
STATUS;CYCLETIME;2696;I2CERR;0;PRESENT;23;MODE;66
RAW_IMU;AX;2.0;AY;0.0;AZ;255.0;GX;0.0;GY;0.0;GZ;0.0;MAGX;-3.0;MAGY;-62.0;MAGZ;-11.0
MOT;0;1000.0;1;1000.0;2;1000.0;3;1000.0;4;0.0;5;0.0;6;0.0;7;0.0;
RC;ROLL;1512.0;PITCH;1488.0;YAW;1500.0;THROTTLE;1066.0;AUX1;1535.0;AUX2;1500.0;AUX3;1500.0;AUX4;1500.0
ALTITUDE;20.0
DEBUG;DEBUG120.0;DEBUG2;765.0;DEBUG3;72.0;DEBUG4;0.0
ATTITUDE;ANGX;0.0;ANGY;0.0;HEAD;-173.0
STATUS;CYCLETIME;2708;I2CERR;0;PRESENT;23;MODE;66
RAW_IMU;AX;2.0;AY;0.0;AZ;255.0;GX;0.0;GY;0.0;GZ;0.0;MAGX;-4.0;MAGY;-63.0;MAGZ;-10.0
MOT;0;1000.0;1;1000.0;2;1000.0;3;1000.0;4;0.0;5;0.0;6;0.0;7;0.0;
RC;ROLL;1512.0;PITCH;1488.0;YAW;1500.0;THROTTLE;1066.0;AUX1;1535.0;AUX2;1500.0;AUX3;1500.0;AUX4;1500.0
ALTITUDE;20.0
DEBUG;DEBUG120.0;DEBUG2;765.0;DEBUG3;72.0;DEBUG4;0.0
ATTITUDE;ANGX;0.0;ANGY;0.0;HEAD;-173.0
STATUS;CYCLETIME;2792;I2CERR;0;PRESENT;23;MODE;66
RAW_IMU;AX;2.0;AY;0.0;AZ;255.0;GX;0.0;GY;0.0;GZ;0.0;MAGX;-4.0;MAGY;-63.0;MAGZ;-10.0
MOT;0;1000.0;1;1000.0;2;1000.0;3;1000.0;4;0.0;5;0.0;6;0.0;7;0.0;
RC;ROLL;1512.0;PITCH;1488.0;YAW;1500.0;THROTTLE;1066.0;AUX1;1535.0;AUX2;1500.0;AUX3;1500.0;AUX4;1500.0
ALTITUDE;20.0
DEBUG;DEBUG120.0;DEBUG2;765.0;DEBUG3;72.0;DEBUG4;0.0
ATTITUDE;ANGX;0.0;ANGY;0.0;HEAD;-173.0
STATUS;CYCLETIME;2776;I2CERR;0;PRESENT;23;MODE;66
RAW_IMU;AX;2.0;AY;0.0;AZ;255.0;GX;0.0;GY;0.0;GZ;0.0;MAGX;-2.0;MAGY;-61.0;MAGZ;-11.0
MOT;0;1000.0;1;1000.0;2;1000.0;3;1000.0;4;0.0;5;0.0;6;0.0;7;0.0;
RC;ROLL;1512.0;PITCH;1488.0;YAW;1500.0;THROTTLE;1066.0;AUX1;1535.0;AUX2;1500.0;AUX3;1500.0;AUX4;1500.0
ALTITUDE;20.0
DEBUG;DEBUG120.0;DEBUG2;765.0;DEBUG3;72.0;DEBUG4;0.0
ATTITUDE;ANGX;0.0;ANGY;0.0;HEAD;-173.0
STATUS;CYCLETIME;2744;I2CERR;0;PRESENT;23;MODE;66
RAW_IMU;AX;2.0;AY;0.0;AZ;255.0;GX;0.0;GY;0.0;GZ;0.0;MAGX;-2.0;MAGY;-61.0;MAGZ;-11.0
MOT;0;1000.0;1;1000.0;2;1000.0;3;1000.0;4;0.0;5;0.0;6;0.0;7;0.0;
RC;ROLL;1512.0;PITCH;1488.0;YAW;1500.0;THROTTLE;1066.0;AUX1;1535.0;AUX2;1500.0;AUX3;1500.0;AUX4;1500.0
ALTITUDE;20.0
DEBUG;DEBUG120.0;DEBUG2;765.0;DEBUG3;72.0;DEBUG4;0.0
ATTITUDE;ANGX;0.0;ANGY;0.0;HEAD;-173.0
STATUS;CYCLETIME;2856;I2CERR;0;PRESENT;23;MODE;66
RAW_IMU;AX;2.0;AY;0.0;AZ;255.0;GX;0.0;GY;0.0;GZ;0.0;MAGX;-3.0;MAGY;-63.0;MAGZ;-10.0
MOT;0;1000.0;1;1000.0;2;1000.0;3;1000.0;4;0.0;5;0.0;6;0.0;7;0.0;
RC;ROLL;1512.0;PITCH;1488.0;YAW;1500.0;THROTTLE;1066.0;AUX1;1535.0;AUX2;1500.0;AUX3;1500.0;AUX4;1500.0
ALTITUDE;20.0
DEBUG;DEBUG120.0;DEBUG2;765.0;DEBUG3;72.0;DEBUG4;0.0
ATTITUDE;ANGX;0.0;ANGY;0.0;HEAD;-173.0
STATUS;CYCLETIME;2748;I2CERR;0;PRESENT;23;MODE;66
RAW_IMU;AX;2.0;AY;0.0;AZ;255.0;GX;0.0;GY;0.0;GZ;0.0;MAGX;-3.0;MAGY;-63.0;MAGZ;-10.0
MOT;0;1000.0;1;1000.0;2;1000.0;3;1000.0;4;0.0;5;0.0;6;0.0;7;0.0;
RC;ROLL;1512.0;PITCH;1488.0;YAW;1500.0;THROTTLE;1066.0;AUX1;1535.0;AUX2;1500.0;AUX3;1500.0;AUX4;1500.0
ALTITUDE;20.0
DEBUG;DEBUG120.0;DEBUG2;765.0;DEBUG3;72.0;DEBUG4;0.0
ATTITUDE;ANGX;0.0;ANGY;0.0;HEAD;-173.0
STATUS;CYCLETIME;2668;I2CERR;0;PRESENT;23;MODE;66
RAW_IMU;AX;2.0;AY;0.0;AZ;255.0;GX;0.0;GY;0.0;GZ;0.0;MAGX;-3.0;MAGY;-61.0;MAGZ;-11.0
MOT;0;1000.0;1;1000.0;2;1000.0;3;1000.0;4;0.0;5;0.0;6;0.0;7;0.0;
RC;ROLL;1512.0;PITCH;1488.0;YAW;1500.0;THROTTLE;1066.0;AUX1;1535.0;AUX2;1500.0;AUX3;1500.0;AUX4;1500.0
ALTITUDE;20.0
DEBUG;DEBUG120.0;DEBUG2;765.0;DEBUG3;72.0;DEBUG4;0.0
ATTITUDE;ANGX;0.0;ANGY;0.0;HEAD;-173.0
STATUS;CYCLETIME;2856;I2CERR;0;PRESENT;23;MODE;66
RAW_IMU;AX;3.0;AY;0.0;AZ;255.0;GX;0.0;GY;0.0;GZ;0.0;MAGX;-3.0;MAGY;-61.0;MAGZ;-11.0
MOT;0;1000.0;1;1000.0;2;1000.0;3;1000.0;4;0.0;5;0.0;6;0.0;7;0.0;
RC;ROLL;1512.0;PITCH;1488.0;YAW;1500.0;THROTTLE;1066.0;AUX1;1535.0;AUX2;1500.0;AUX3;1500.0;AUX4;1500.0
ALTITUDE;20.0
DEBUG;DEBUG120.0;DEBUG2;765.0;DEBUG3;72.0;DEBUG4;0.0
ATTITUDE;ANGX;0.0;ANGY;0.0;HEAD;-173.0
STATUS;CYCLETIME;3108;I2CERR;0;PRESENT;23;MODE;66
RAW_IMU;AX;3.0;AY;0.0;AZ;255.0;GX;0.0;GY;0.0;GZ;0.0;MAGX;-3.0;MAGY;-61.0;MAGZ;-10.0
MOT;0;1000.0;1;1000.0;2;1000.0;3;1000.0;4;0.0;5;0.0;6;0.0;7;0.0;
RC;ROLL;1512.0;PITCH;1488.0;YAW;1500.0;THROTTLE;1066.0;AUX1;1535.0;AUX2;1500.0;AUX3;1500.0;AUX4;1500.0
ALTITUDE;20.0
DEBUG;DEBUG120.0;DEBUG2;765.0;DEBUG3;72.0;DEBUG4;0.0
ATTITUDE;ANGX;0.0;ANGY;0.0;HEAD;-173.0
STATUS;CYCLETIME;2704;I2CERR;0;PRESENT;23;MODE;66
RAW_IMU;AX;2.0;AY;0.0;AZ;255.0;GX;0.0;GY;0.0;GZ;0.0;MAGX;-3.0;MAGY;-61.0;MAGZ;-10.0
MOT;0;1000.0;1;1000.0;2;1000.0;3;1000.0;4;0.0;5;0.0;6;0.0;7;0.0;
RC;ROLL;1512.0;PITCH;1488.0;YAW;1500.0;THROTTLE;1066.0;AUX1;1535.0;AUX2;1500.0;AUX3;1500.0;AUX4;1500.0
ALTITUDE;20.0
DEBUG;DEBUG120.0;DEBUG2;765.0;DEBUG3;72.0;DEBUG4;0.0
ATTITUDE;ANGX;0.0;ANGY;0.0;HEAD;-173.0
