IDENT;V;220;TYPE;3
MSP_MOTOR_PINS
STATUS;CYCLETIME;3056;I2CERR;0;PRESENT;23;MODE;0
RAW_IMU;AX;89.0;AY;-15.0;AZ;240.0;GX;2.0;GY;0.0;GZ;-3.0;MAGX;0.0;MAGY;-19.0;MAGZ;-7.0
MOT;0;1000.0;1;1000.0;2;1000.0;3;1000.0;4;0.0;5;0.0;6;0.0;7;0.0;
RC;ROLL;1502.0;PITCH;1520.0;YAW;1514.0;THROTTLE;1061.0;AUX1;1539.0;AUX2;1500.0;AUX3;1500.0;AUX4;1500.0
ALTITUDE;87.0
DEBUG;DEBUG1-102.0;DEBUG2;0.0;DEBUG3;87.0;DEBUG4;0.0
ATTITUDE;ANGX;20.0;ANGY;-3.0;HEAD;-163.0
STATUS;CYCLETIME;2916;I2CERR;0;PRESENT;23;MODE;0
RAW_IMU;AX;92.0;AY;-16.0;AZ;238.0;GX;0.0;GY;0.0;GZ;2.0;MAGX;0.0;MAGY;-18.0;MAGZ;-8.0
MOT;0;1000.0;1;1000.0;2;1000.0;3;1000.0;4;0.0;5;0.0;6;0.0;7;0.0;
RC;ROLL;1502.0;PITCH;1520.0;YAW;1514.0;THROTTLE;1061.0;AUX1;1541.0;AUX2;1500.0;AUX3;1500.0;AUX4;1500.0
ALTITUDE;87.0
DEBUG;DEBUG1-102.0;DEBUG2;0.0;DEBUG3;87.0;DEBUG4;0.0
ATTITUDE;ANGX;20.0;ANGY;-3.0;HEAD;-163.0
STATUS;CYCLETIME;2904;I2CERR;0;PRESENT;23;MODE;0
RAW_IMU;AX;96.0;AY;-15.0;AZ;237.0;GX;0.0;GY;1.0;GZ;1.0;MAGX;0.0;MAGY;-18.0;MAGZ;-8.0
MOT;0;1000.0;1;1000.0;2;1000.0;3;1000.0;4;0.0;5;0.0;6;0.0;7;0.0;
RC;ROLL;1502.0;PITCH;1520.0;YAW;1514.0;THROTTLE;1059.0;AUX1;1541.0;AUX2;1500.0;AUX3;1500.0;AUX4;1500.0
ALTITUDE;87.0
DEBUG;DEBUG1-102.0;DEBUG2;0.0;DEBUG3;87.0;DEBUG4;0.0
ATTITUDE;ANGX;20.0;ANGY;-2.0;HEAD;-163.0
STATUS;CYCLETIME;3000;I2CERR;0;PRESENT;23;MODE;0
RAW_IMU;AX;95.0;AY;-14.0;AZ;239.0;GX;-1.0;GY;1.0;GZ;0.0;MAGX;0.0;MAGY;-18.0;MAGZ;-8.0
MOT;0;1000.0;1;1000.0;2;1000.0;3;1000.0;4;0.0;5;0.0;6;0.0;7;0.0;
RC;ROLL;1500.0;PITCH;1520.0;YAW;1514.0;THROTTLE;1059.0;AUX1;1541.0;AUX2;1500.0;AUX3;1500.0;AUX4;1500.0
ALTITUDE;87.0
DEBUG;DEBUG1-102.0;DEBUG2;0.0;DEBUG3;87.0;DEBUG4;0.0
ATTITUDE;ANGX;20.0;ANGY;-2.0;HEAD;-163.0
STATUS;CYCLETIME;2916;I2CERR;0;PRESENT;23;MODE;0
RAW_IMU;AX;92.0;AY;-14.0;AZ;239.0;GX;-1.0;GY;0.0;GZ;1.0;MAGX;0.0;MAGY;-18.0;MAGZ;-8.0
MOT;0;1000.0;1;1000.0;2;1000.0;3;1000.0;4;0.0;5;0.0;6;0.0;7;0.0;
RC;ROLL;1500.0;PITCH;1520.0;YAW;1514.0;THROTTLE;1059.0;AUX1;1541.0;AUX2;1500.0;AUX3;1500.0;AUX4;1500.0
ALTITUDE;87.0
DEBUG;DEBUG1-102.0;DEBUG2;0.0;DEBUG3;87.0;DEBUG4;0.0
ATTITUDE;ANGX;20.0;ANGY;-2.0;HEAD;-163.0
STATUS;CYCLETIME;2920;I2CERR;0;PRESENT;23;MODE;0
RAW_IMU;AX;91.0;AY;-12.0;AZ;239.0;GX;0.0;GY;-1.0;GZ;0.0;MAGX;0.0;MAGY;-18.0;MAGZ;-7.0
MOT;0;1000.0;1;1000.0;2;1000.0;3;1000.0;4;0.0;5;0.0;6;0.0;7;0.0;
RC;ROLL;1500.0;PITCH;1520.0;YAW;1516.0;THROTTLE;1059.0;AUX1;1539.0;AUX2;1500.0;AUX3;1500.0;AUX4;1500.0
ALTITUDE;87.0
DEBUG;DEBUG1-102.0;DEBUG2;0.0;DEBUG3;87.0;DEBUG4;0.0
ATTITUDE;ANGX;20.0;ANGY;-2.0;HEAD;-163.0
STATUS;CYCLETIME;3040;I2CERR;0;PRESENT;23;MODE;0
RAW_IMU;AX;89.0;AY;-15.0;AZ;239.0;GX;0.0;GY;0.0;GZ;-3.0;MAGX;0.0;MAGY;-18.0;MAGZ;-7.0
MOT;0;1000.0;1;1000.0;2;1000.0;3;1000.0;4;0.0;5;0.0;6;0.0;7;0.0;
RC;ROLL;1500.0;PITCH;1520.0;YAW;1516.0;THROTTLE;1059.0;AUX1;1539.0;AUX2;1500.0;AUX3;1500.0;AUX4;1500.0
ALTITUDE;87.0
DEBUG;DEBUG1-102.0;DEBUG2;0.0;DEBUG3;87.0;DEBUG4;0.0
ATTITUDE;ANGX;20.0;ANGY;-3.0;HEAD;-163.0
STATUS;CYCLETIME;2868;I2CERR;0;PRESENT;23;MODE;0
RAW_IMU;AX;87.0;AY;-14.0;AZ;240.0;GX;0.0;GY;0.0;GZ;0.0;MAGX;0.0;MAGY;-18.0;MAGZ;-7.0
MOT;0;1000.0;1;1000.0;2;1000.0;3;1000.0;4;0.0;5;0.0;6;0.0;7;0.0;
RC;ROLL;1500.0;PITCH;1520.0;YAW;1516.0;THROTTLE;1059.0;AUX1;1539.0;AUX2;1500.0;AUX3;1500.0;AUX4;1500.0
ALTITUDE;87.0
DEBUG;DEBUG1-102.0;DEBUG2;0.0;DEBUG3;87.0;DEBUG4;0.0
ATTITUDE;ANGX;20.0;ANGY;-3.0;HEAD;-162.0
STATUS;CYCLETIME;2900;I2CERR;0;PRESENT;23;MODE;0
RAW_IMU;AX;89.0;AY;-17.0;AZ;246.0;GX;0.0;GY;0.0;GZ;1.0;MAGX;0.0;MAGY;-18.0;MAGZ;-7.0
MOT;0;1000.0;1;1000.0;2;1000.0;3;1000.0;4;0.0;5;0.0;6;0.0;7;0.0;
RC;ROLL;1500.0;PITCH;1520.0;YAW;1514.0;THROTTLE;1063.0;AUX1;1539.0;AUX2;1500.0;AUX3;1500.0;AUX4;1500.0
ALTITUDE;87.0
DEBUG;DEBUG1-102.0;DEBUG2;0.0;DEBUG3;87.0;DEBUG4;0.0
ATTITUDE;ANGX;20.0;ANGY;-3.0;HEAD;-162.0
STATUS;CYCLETIME;2872;I2CERR;0;PRESENT;23;MODE;0
RAW_IMU;AX;90.0;AY;-16.0;AZ;249.0;GX;0.0;GY;1.0;GZ;0.0;MAGX;0.0;MAGY;-18.0;MAGZ;-7.0
MOT;0;1000.0;1;1000.0;2;1000.0;3;1000.0;4;0.0;5;0.0;6;0.0;7;0.0;
RC;ROLL;1500.0;PITCH;1520.0;YAW;1514.0;THROTTLE;1063.0;AUX1;1539.0;AUX2;1500.0;AUX3;1500.0;AUX4;1500.0
ALTITUDE;87.0
DEBUG;DEBUG1-102.0;DEBUG2;0.0;DEBUG3;87.0;DEBUG4;0.0
ATTITUDE;ANGX;20.0;ANGY;-3.0;HEAD;-162.0
STATUS;CYCLETIME;2932;I2CERR;0;PRESENT;23;MODE;0
RAW_IMU;AX;91.0;AY;-12.0;AZ;245.0;GX;2.0;GY;1.0;GZ;0.0;MAGX;0.0;MAGY;-18.0;MAGZ;-7.0
MOT;0;1000.0;1;1000.0;2;1000.0;3;1000.0;4;0.0;5;0.0;6;0.0;7;0.0;
RC;ROLL;1502.0;PITCH;1520.0;YAW;1514.0;THROTTLE;1063.0;AUX1;1539.0;AUX2;1500.0;AUX3;1500.0;AUX4;1500.0
ALTITUDE;87.0
DEBUG;DEBUG1-102.0;DEBUG2;0.0;DEBUG3;87.0;DEBUG4;0.0
ATTITUDE;ANGX;20.0;ANGY;-2.0;HEAD;-162.0
STATUS;CYCLETIME;2884;I2CERR;0;PRESENT;23;MODE;0
RAW_IMU;AX;92.0;AY;-12.0;AZ;241.0;GX;1.0;GY;0.0;GZ;-3.0;MAGX;0.0;MAGY;-18.0;MAGZ;-7.0
MOT;0;1000.0;1;1000.0;2;1000.0;3;1000.0;4;0.0;5;0.0;6;0.0;7;0.0;
RC;ROLL;1502.0;PITCH;1516.0;YAW;1514.0;THROTTLE;1063.0;AUX1;1539.0;AUX2;1500.0;AUX3;1500.0;AUX4;1500.0
ALTITUDE;87.0
DEBUG;DEBUG1-102.0;DEBUG2;0.0;DEBUG3;87.0;DEBUG4;0.0
ATTITUDE;ANGX;20.0;ANGY;-2.0;HEAD;-162.0
STATUS;CYCLETIME;2916;I2CERR;0;PRESENT;23;MODE;0
RAW_IMU;AX;93.0;AY;-10.0;AZ;239.0;GX;0.0;GY;-2.0;GZ;3.0;MAGX;-1.0;MAGY;-17.0;MAGZ;-6.0
MOT;0;1000.0;1;1000.0;2;1000.0;3;1000.0;4;0.0;5;0.0;6;0.0;7;0.0;
RC;ROLL;1502.0;PITCH;1516.0;YAW;1514.0;THROTTLE;1063.0;AUX1;1539.0;AUX2;1500.0;AUX3;1500.0;AUX4;1500.0
ALTITUDE;87.0
DEBUG;DEBUG1-102.0;DEBUG2;0.0;DEBUG3;87.0;DEBUG4;0.0
ATTITUDE;ANGX;20.0;ANGY;-3.0;HEAD;-162.0
STATUS;CYCLETIME;2896;I2CERR;0;PRESENT;23;MODE;0
RAW_IMU;AX;95.0;AY;-15.0;AZ;235.0;GX;1.0;GY;1.0;GZ;1.0;MAGX;-1.0;MAGY;-17.0;MAGZ;-6.0
MOT;0;1000.0;1;1000.0;2;1000.0;3;1000.0;4;0.0;5;0.0;6;0.0;7;0.0;
RC;ROLL;1502.0;PITCH;1516.0;YAW;1514.0;THROTTLE;1063.0;AUX1;1539.0;AUX2;1500.0;AUX3;1500.0;AUX4;1500.0
ALTITUDE;87.0
DEBUG;DEBUG1-102.0;DEBUG2;0.0;DEBUG3;87.0;DEBUG4;0.0
ATTITUDE;ANGX;21.0;ANGY;-2.0;HEAD;-162.0
STATUS;CYCLETIME;3020;I2CERR;0;PRESENT;23;MODE;0
RAW_IMU;AX;94.0;AY;-8.0;AZ;238.0;GX;2.0;GY;2.0;GZ;-1.0;MAGX;0.0;MAGY;-18.0;MAGZ;-7.0
MOT;0;1000.0;1;1000.0;2;1000.0;3;1000.0;4;0.0;5;0.0;6;0.0;7;0.0;
RC;ROLL;1502.0;PITCH;1516.0;YAW;1514.0;THROTTLE;1063.0;AUX1;1539.0;AUX2;1500.0;AUX3;1500.0;AUX4;1500.0
ALTITUDE;87.0
DEBUG;DEBUG1-102.0;DEBUG2;0.0;DEBUG3;87.0;DEBUG4;0.0
ATTITUDE;ANGX;21.0;ANGY;-2.0;HEAD;-162.0
STATUS;CYCLETIME;2948;I2CERR;0;PRESENT;23;MODE;0
RAW_IMU;AX;92.0;AY;-8.0;AZ;239.0;GX;4.0;GY;-1.0;GZ;1.0;MAGX;0.0;MAGY;-18.0;MAGZ;-7.0
MOT;0;1000.0;1;1000.0;2;1000.0;3;1000.0;4;0.0;5;0.0;6;0.0;7;0.0;
RC;ROLL;1504.0;PITCH;1516.0;YAW;1514.0;THROTTLE;1063.0;AUX1;1539.0;AUX2;1500.0;AUX3;1500.0;AUX4;1500.0
ALTITUDE;87.0
DEBUG;DEBUG1-102.0;DEBUG2;0.0;DEBUG3;87.0;DEBUG4;0.0
ATTITUDE;ANGX;21.0;ANGY;-2.0;HEAD;-162.0
STATUS;CYCLETIME;2904;I2CERR;0;PRESENT;23;MODE;0
RAW_IMU;AX;93.0;AY;-12.0;AZ;234.0;GX;4.0;GY;-3.0;GZ;-1.0;MAGX;-1.0;MAGY;-18.0;MAGZ;-7.0
MOT;0;1000.0;1;1000.0;2;1000.0;3;1000.0;4;0.0;5;0.0;6;0.0;7;0.0;
RC;ROLL;1504.0;PITCH;1516.0;YAW;1514.0;THROTTLE;1063.0;AUX1;1539.0;AUX2;1500.0;AUX3;1500.0;AUX4;1500.0
ALTITUDE;87.0
DEBUG;DEBUG1-102.0;DEBUG2;0.0;DEBUG3;87.0;DEBUG4;0.0
ATTITUDE;ANGX;22.0;ANGY;-2.0;HEAD;-162.0
STATUS;CYCLETIME;2888;I2CERR;0;PRESENT;23;MODE;0
RAW_IMU;AX;96.0;AY;-13.0;AZ;234.0;GX;4.0;GY;0.0;GZ;1.0;MAGX;-1.0;MAGY;-18.0;MAGZ;-7.0
MOT;0;1000.0;1;1000.0;2;1000.0;3;1000.0;4;0.0;5;0.0;6;0.0;7;0.0;
RC;ROLL;1504.0;PITCH;1516.0;YAW;1514.0;THROTTLE;1063.0;AUX1;1539.0;AUX2;1500.0;AUX3;1500.0;AUX4;1500.0
ALTITUDE;87.0
DEBUG;DEBUG1-102.0;DEBUG2;0.0;DEBUG3;87.0;DEBUG4;0.0
ATTITUDE;ANGX;22.0;ANGY;-3.0;HEAD;-162.0
STATUS;CYCLETIME;2900;I2CERR;0;PRESENT;23;MODE;0
RAW_IMU;AX;102.0;AY;-18.0;AZ;232.0;GX;3.0;GY;1.0;GZ;-2.0;MAGX;0.0;MAGY;-18.0;MAGZ;-7.0
MOT;0;1000.0;1;1000.0;2;1000.0;3;1000.0;4;0.0;5;0.0;6;0.0;7;0.0;
RC;ROLL;1504.0;PITCH;1514.0;YAW;1514.0;THROTTLE;1063.0;AUX1;1539.0;AUX2;1500.0;AUX3;1500.0;AUX4;1500.0
ALTITUDE;87.0
DEBUG;DEBUG1-102.0;DEBUG2;0.0;DEBUG3;87.0;DEBUG4;0.0
ATTITUDE;ANGX;23.0;ANGY;-3.0;HEAD;-162.0
STATUS;CYCLETIME;2900;I2CERR;0;PRESENT;23;MODE;0
RAW_IMU;AX;102.0;AY;-14.0;AZ;234.0;GX;0.0;GY;0.0;GZ;0.0;MAGX;0.0;MAGY;-18.0;MAGZ;-7.0
MOT;0;1000.0;1;1000.0;2;1000.0;3;1000.0;4;0.0;5;0.0;6;0.0;7;0.0;
RC;ROLL;1504.0;PITCH;1514.0;YAW;1514.0;THROTTLE;1061.0;AUX1;1539.0;AUX2;1500.0;AUX3;1500.0;AUX4;1500.0
ALTITUDE;87.0
DEBUG;DEBUG1-102.0;DEBUG2;0.0;DEBUG3;87.0;DEBUG4;0.0
ATTITUDE;ANGX;23.0;ANGY;-3.0;HEAD;-162.0
STATUS;CYCLETIME;3044;I2CERR;0;PRESENT;23;MODE;0
RAW_IMU;AX;104.0;AY;-15.0;AZ;231.0;GX;-3.0;GY;-1.0;GZ;1.0;MAGX;0.0;MAGY;-18.0;MAGZ;-7.0
MOT;0;1000.0;1;1000.0;2;1000.0;3;1000.0;4;0.0;5;0.0;6;0.0;7;0.0;
RC;ROLL;1504.0;PITCH;1514.0;YAW;1516.0;THROTTLE;1061.0;AUX1;1536.0;AUX2;1500.0;AUX3;1500.0;AUX4;1500.0
ALTITUDE;87.0
DEBUG;DEBUG1-102.0;DEBUG2;0.0;DEBUG3;87.0;DEBUG4;0.0
ATTITUDE;ANGX;22.0;ANGY;-3.0;HEAD;-162.0
STATUS;CYCLETIME;2884;I2CERR;0;PRESENT;23;MODE;0
RAW_IMU;AX;102.0;AY;-17.0;AZ;232.0;GX;-5.0;GY;0.0;GZ;-1.0;MAGX;0.0;MAGY;-18.0;MAGZ;-7.0
MOT;0;1000.0;1;1000.0;2;1000.0;3;1000.0;4;0.0;5;0.0;6;0.0;7;0.0;
RC;ROLL;1504.0;PITCH;1517.0;YAW;1516.0;THROTTLE;1061.0;AUX1;1536.0;AUX2;1500.0;AUX3;1500.0;AUX4;1500.0
ALTITUDE;87.0
DEBUG;DEBUG1-102.0;DEBUG2;0.0;DEBUG3;87.0;DEBUG4;0.0
ATTITUDE;ANGX;22.0;ANGY;-3.0;HEAD;-162.0
STATUS;CYCLETIME;2904;I2CERR;0;PRESENT;23;MODE;0
RAW_IMU;AX;95.0;AY;-16.0;AZ;236.0;GX;-5.0;GY;2.0;GZ;1.0;MAGX;0.0;MAGY;-18.0;MAGZ;-7.0
MOT;0;1000.0;1;1000.0;2;1000.0;3;1000.0;4;0.0;5;0.0;6;0.0;7;0.0;
RC;ROLL;1504.0;PITCH;1522.0;YAW;1516.0;THROTTLE;1061.0;AUX1;1536.0;AUX2;1500.0;AUX3;1500.0;AUX4;1500.0
ALTITUDE;87.0
DEBUG;DEBUG1-102.0;DEBUG2;0.0;DEBUG3;87.0;DEBUG4;0.0
ATTITUDE;ANGX;21.0;ANGY;-3.0;HEAD;-162.0
STATUS;CYCLETIME;3008;I2CERR;0;PRESENT;23;MODE;0
RAW_IMU;AX;91.0;AY;-14.0;AZ;239.0;GX;-3.0;GY;1.0;GZ;3.0;MAGX;0.0;MAGY;-18.0;MAGZ;-7.0
MOT;0;1000.0;1;1000.0;2;1000.0;3;1000.0;4;0.0;5;0.0;6;0.0;7;0.0;
RC;ROLL;1504.0;PITCH;1520.0;YAW;1516.0;THROTTLE;1061.0;AUX1;1536.0;AUX2;1500.0;AUX3;1500.0;AUX4;1500.0
ALTITUDE;87.0
DEBUG;DEBUG1-102.0;DEBUG2;0.0;DEBUG3;87.0;DEBUG4;0.0
ATTITUDE;ANGX;21.0;ANGY;-2.0;HEAD;-162.0
STATUS;CYCLETIME;2968;I2CERR;0;PRESENT;23;MODE;0
RAW_IMU;AX;90.0;AY;-11.0;AZ;241.0;GX;0.0;GY;1.0;GZ;-5.0;MAGX;0.0;MAGY;-18.0;MAGZ;-8.0
MOT;0;1000.0;1;1000.0;2;1000.0;3;1000.0;4;0.0;5;0.0;6;0.0;7;0.0;
RC;ROLL;1506.0;PITCH;1517.0;YAW;1516.0;THROTTLE;1061.0;AUX1;1536.0;AUX2;1500.0;AUX3;1500.0;AUX4;1500.0
ALTITUDE;87.0
DEBUG;DEBUG1-102.0;DEBUG2;0.0;DEBUG3;87.0;DEBUG4;0.0
ATTITUDE;ANGX;21.0;ANGY;-2.0;HEAD;-162.0
STATUS;CYCLETIME;3016;I2CERR;0;PRESENT;23;MODE;0
RAW_IMU;AX;89.0;AY;-10.0;AZ;238.0;GX;0.0;GY;-2.0;GZ;-2.0;MAGX;0.0;MAGY;-18.0;MAGZ;-8.0
MOT;0;1000.0;1;1000.0;2;1000.0;3;1000.0;4;0.0;5;0.0;6;0.0;7;0.0;
RC;ROLL;1506.0;PITCH;1517.0;YAW;1516.0;THROTTLE;1061.0;AUX1;1539.0;AUX2;1500.0;AUX3;1500.0;AUX4;1500.0
ALTITUDE;87.0
DEBUG;DEBUG1-102.0;DEBUG2;0.0;DEBUG3;87.0;DEBUG4;0.0
ATTITUDE;ANGX;21.0;ANGY;-3.0;HEAD;-162.0
STATUS;CYCLETIME;2900;I2CERR;0;PRESENT;23;MODE;0
RAW_IMU;AX;93.0;AY;-15.0;AZ;236.0;GX;0.0;GY;-2.0;GZ;3.0;MAGX;0.0;MAGY;-17.0;MAGZ;-8.0
MOT;0;1000.0;1;1000.0;2;1000.0;3;1000.0;4;0.0;5;0.0;6;0.0;7;0.0;
RC;ROLL;1503.0;PITCH;1519.0;YAW;1516.0;THROTTLE;1059.0;AUX1;1539.0;AUX2;1500.0;AUX3;1500.0;AUX4;1500.0
ALTITUDE;87.0
DEBUG;DEBUG1-102.0;DEBUG2;0.0;DEBUG3;87.0;DEBUG4;0.0
ATTITUDE;ANGX;21.0;ANGY;-3.0;HEAD;-161.0
STATUS;CYCLETIME;2976;I2CERR;0;PRESENT;23;MODE;0
RAW_IMU;AX;93.0;AY;-15.0;AZ;243.0;GX;0.0;GY;4.0;GZ;0.0;MAGX;0.0;MAGY;-17.0;MAGZ;-8.0
MOT;0;1000.0;1;1000.0;2;1000.0;3;1000.0;4;0.0;5;0.0;6;0.0;7;0.0;
RC;ROLL;1503.0;PITCH;1519.0;YAW;1516.0;THROTTLE;1059.0;AUX1;1539.0;AUX2;1500.0;AUX3;1500.0;AUX4;1500.0
ALTITUDE;87.0
DEBUG;DEBUG1-102.0;DEBUG2;0.0;DEBUG3;87.0;DEBUG4;0.0
ATTITUDE;ANGX;21.0;ANGY;-2.0;HEAD;-162.0
STATUS;CYCLETIME;3004;I2CERR;0;PRESENT;23;MODE;0
RAW_IMU;AX;92.0;AY;-15.0;AZ;238.0;GX;0.0;GY;5.0;GZ;-1.0;MAGX;-1.0;MAGY;-17.0;MAGZ;-7.0
MOT;0;1000.0;1;1000.0;2;1000.0;3;1000.0;4;0.0;5;0.0;6;0.0;7;0.0;
RC;ROLL;1506.0;PITCH;1514.0;YAW;1516.0;THROTTLE;1061.0;AUX1;1533.0;AUX2;1500.0;AUX3;1500.0;AUX4;1500.0
ALTITUDE;87.0
DEBUG;DEBUG1-102.0;DEBUG2;0.0;DEBUG3;87.0;DEBUG4;0.0
ATTITUDE;ANGX;21.0;ANGY;-2.0;HEAD;-162.0
STATUS;CYCLETIME;2912;I2CERR;0;PRESENT;23;MODE;0
RAW_IMU;AX;92.0;AY;-8.0;AZ;239.0;GX;0.0;GY;-2.0;GZ;4.0;MAGX;-1.0;MAGY;-17.0;MAGZ;-7.0
MOT;0;1000.0;1;1000.0;2;1000.0;3;1000.0;4;0.0;5;0.0;6;0.0;7;0.0;
RC;ROLL;1506.0;PITCH;1514.0;YAW;1516.0;THROTTLE;1061.0;AUX1;1535.0;AUX2;1500.0;AUX3;1500.0;AUX4;1500.0
ALTITUDE;87.0
DEBUG;DEBUG1-102.0;DEBUG2;0.0;DEBUG3;87.0;DEBUG4;0.0
ATTITUDE;ANGX;21.0;ANGY;-2.0;HEAD;-162.0
STATUS;CYCLETIME;2904;I2CERR;0;PRESENT;23;MODE;0
RAW_IMU;AX;97.0;AY;-11.0;AZ;239.0;GX;0.0;GY;-3.0;GZ;0.0;MAGX;0.0;MAGY;-18.0;MAGZ;-7.0
MOT;0;1000.0;1;1000.0;2;1000.0;3;1000.0;4;0.0;5;0.0;6;0.0;7;0.0;
RC;ROLL;1506.0;PITCH;1514.0;YAW;1516.0;THROTTLE;1061.0;AUX1;1535.0;AUX2;1500.0;AUX3;1500.0;AUX4;1500.0
ALTITUDE;87.0
DEBUG;DEBUG1-102.0;DEBUG2;0.0;DEBUG3;87.0;DEBUG4;0.0
ATTITUDE;ANGX;21.0;ANGY;-2.0;HEAD;-162.0
STATUS;CYCLETIME;2968;I2CERR;0;PRESENT;23;MODE;0
RAW_IMU;AX;97.0;AY;-14.0;AZ;244.0;GX;0.0;GY;0.0;GZ;-2.0;MAGX;0.0;MAGY;-18.0;MAGZ;-7.0
MOT;0;1000.0;1;1000.0;2;1000.0;3;1000.0;4;0.0;5;0.0;6;0.0;7;0.0;
RC;ROLL;1504.0;PITCH;1516.0;YAW;1518.0;THROTTLE;1055.0;AUX1;1538.0;AUX2;1500.0;AUX3;1500.0;AUX4;1500.0
ALTITUDE;87.0
DEBUG;DEBUG1-102.0;DEBUG2;0.0;DEBUG3;87.0;DEBUG4;0.0
ATTITUDE;ANGX;21.0;ANGY;-2.0;HEAD;-162.0
STATUS;CYCLETIME;2880;I2CERR;0;PRESENT;23;MODE;0
RAW_IMU;AX;97.0;AY;-15.0;AZ;237.0;GX;0.0;GY;1.0;GZ;1.0;MAGX;-1.0;MAGY;-18.0;MAGZ;-7.0
MOT;0;1000.0;1;1000.0;2;1000.0;3;1000.0;4;0.0;5;0.0;6;0.0;7;0.0;
RC;ROLL;1506.0;PITCH;1516.0;YAW;1518.0;THROTTLE;1057.0;AUX1;1538.0;AUX2;1500.0;AUX3;1500.0;AUX4;1500.0
ALTITUDE;87.0
DEBUG;DEBUG1-102.0;DEBUG2;0.0;DEBUG3;87.0;DEBUG4;0.0
ATTITUDE;ANGX;21.0;ANGY;-2.0;HEAD;-162.0
STATUS;CYCLETIME;2944;I2CERR;0;PRESENT;23;MODE;0
RAW_IMU;AX;98.0;AY;-12.0;AZ;237.0;GX;-3.0;GY;-1.0;GZ;0.0;MAGX;-1.0;MAGY;-18.0;MAGZ;-7.0
MOT;0;1000.0;1;1000.0;2;1000.0;3;1000.0;4;0.0;5;0.0;6;0.0;7;0.0;
RC;ROLL;1508.0;PITCH;1516.0;YAW;1516.0;THROTTLE;1061.0;AUX1;1538.0;AUX2;1500.0;AUX3;1500.0;AUX4;1500.0
ALTITUDE;87.0
DEBUG;DEBUG1-102.0;DEBUG2;0.0;DEBUG3;87.0;DEBUG4;0.0
ATTITUDE;ANGX;21.0;ANGY;-2.0;HEAD;-162.0
STATUS;CYCLETIME;2920;I2CERR;0;PRESENT;23;MODE;0
RAW_IMU;AX;96.0;AY;-16.0;AZ;240.0;GX;-4.0;GY;-2.0;GZ;1.0;MAGX;0.0;MAGY;-18.0;MAGZ;-8.0
MOT;0;1000.0;1;1000.0;2;1000.0;3;1000.0;4;0.0;5;0.0;6;0.0;7;0.0;
RC;ROLL;1506.0;PITCH;1516.0;YAW;1516.0;THROTTLE;1061.0;AUX1;1538.0;AUX2;1500.0;AUX3;1500.0;AUX4;1500.0
ALTITUDE;87.0
DEBUG;DEBUG1-102.0;DEBUG2;0.0;DEBUG3;87.0;DEBUG4;0.0
ATTITUDE;ANGX;20.0;ANGY;-2.0;HEAD;-161.0
STATUS;CYCLETIME;2896;I2CERR;0;PRESENT;23;MODE;0
RAW_IMU;AX;92.0;AY;-14.0;AZ;240.0;GX;-5.0;GY;-1.0;GZ;0.0;MAGX;0.0;MAGY;-18.0;MAGZ;-8.0
MOT;0;1000.0;1;1000.0;2;1000.0;3;1000.0;4;0.0;5;0.0;6;0.0;7;0.0;
RC;ROLL;1506.0;PITCH;1516.0;YAW;1518.0;THROTTLE;1058.0;AUX1;1538.0;AUX2;1500.0;AUX3;1500.0;AUX4;1500.0
ALTITUDE;87.0
DEBUG;DEBUG1-102.0;DEBUG2;0.0;DEBUG3;87.0;DEBUG4;0.0
ATTITUDE;ANGX;20.0;ANGY;-3.0;HEAD;-161.0
STATUS;CYCLETIME;2904;I2CERR;0;PRESENT;23;MODE;0
RAW_IMU;AX;86.0;AY;-17.0;AZ;243.0;GX;-4.0;GY;0.0;GZ;2.0;MAGX;-1.0;MAGY;-18.0;MAGZ;-6.0
MOT;0;1000.0;1;1000.0;2;1000.0;3;1000.0;4;0.0;5;0.0;6;0.0;7;0.0;
RC;ROLL;1504.0;PITCH;1519.0;YAW;1520.0;THROTTLE;1058.0;AUX1;1538.0;AUX2;1500.0;AUX3;1500.0;AUX4;1500.0
ALTITUDE;87.0
DEBUG;DEBUG1-102.0;DEBUG2;0.0;DEBUG3;87.0;DEBUG4;0.0
ATTITUDE;ANGX;19.0;ANGY;-3.0;HEAD;-161.0
STATUS;CYCLETIME;2916;I2CERR;0;PRESENT;23;MODE;0
RAW_IMU;AX;87.0;AY;-17.0;AZ;242.0;GX;-1.0;GY;0.0;GZ;0.0;MAGX;-1.0;MAGY;-18.0;MAGZ;-6.0
MOT;0;1000.0;1;1000.0;2;1000.0;3;1000.0;4;0.0;5;0.0;6;0.0;7;0.0;
RC;ROLL;1504.0;PITCH;1523.0;YAW;1520.0;THROTTLE;1056.0;AUX1;1535.0;AUX2;1500.0;AUX3;1500.0;AUX4;1500.0
ALTITUDE;87.0
DEBUG;DEBUG1-102.0;DEBUG2;0.0;DEBUG3;87.0;DEBUG4;0.0
ATTITUDE;ANGX;19.0;ANGY;-3.0;HEAD;-161.0
STATUS;CYCLETIME;2904;I2CERR;0;PRESENT;23;MODE;0
RAW_IMU;AX;89.0;AY;-12.0;AZ;244.0;GX;0.0;GY;0.0;GZ;-1.0;MAGX;-1.0;MAGY;-18.0;MAGZ;-7.0
MOT;0;1000.0;1;1000.0;2;1000.0;3;1000.0;4;0.0;5;0.0;6;0.0;7;0.0;
RC;ROLL;1504.0;PITCH;1523.0;YAW;1520.0;THROTTLE;1056.0;AUX1;1535.0;AUX2;1500.0;AUX3;1500.0;AUX4;1500.0
ALTITUDE;87.0
DEBUG;DEBUG1-102.0;DEBUG2;0.0;DEBUG3;87.0;DEBUG4;0.0
ATTITUDE;ANGX;19.0;ANGY;-3.0;HEAD;-162.0
STATUS;CYCLETIME;2896;I2CERR;0;PRESENT;23;MODE;0
RAW_IMU;AX;92.0;AY;-13.0;AZ;241.0;GX;0.0;GY;-2.0;GZ;0.0;MAGX;-1.0;MAGY;-18.0;MAGZ;-7.0
MOT;0;1000.0;1;1000.0;2;1000.0;3;1000.0;4;0.0;5;0.0;6;0.0;7;0.0;
RC;ROLL;1502.0;PITCH;1519.0;YAW;1517.0;THROTTLE;1058.0;AUX1;1537.0;AUX2;1500.0;AUX3;1500.0;AUX4;1500.0
ALTITUDE;87.0
DEBUG;DEBUG1-102.0;DEBUG2;0.0;DEBUG3;87.0;DEBUG4;0.0
ATTITUDE;ANGX;19.0;ANGY;-3.0;HEAD;-162.0
STATUS;CYCLETIME;2904;I2CERR;0;PRESENT;23;MODE;0
RAW_IMU;AX;95.0;AY;-17.0;AZ;241.0;GX;-1.0;GY;-1.0;GZ;0.0;MAGX;0.0;MAGY;-18.0;MAGZ;-6.0
MOT;0;1000.0;1;1000.0;2;1000.0;3;1000.0;4;0.0;5;0.0;6;0.0;7;0.0;
RC;ROLL;1499.0;PITCH;1525.0;YAW;1517.0;THROTTLE;1058.0;AUX1;1537.0;AUX2;1500.0;AUX3;1500.0;AUX4;1500.0
ALTITUDE;87.0
DEBUG;DEBUG1-102.0;DEBUG2;0.0;DEBUG3;87.0;DEBUG4;0.0
ATTITUDE;ANGX;19.0;ANGY;-3.0;HEAD;-162.0
STATUS;CYCLETIME;3040;I2CERR;0;PRESENT;23;MODE;0
RAW_IMU;AX;93.0;AY;-21.0;AZ;233.0;GX;-2.0;GY;1.0;GZ;0.0;MAGX;0.0;MAGY;-18.0;MAGZ;-6.0
MOT;0;1000.0;1;1000.0;2;1000.0;3;1000.0;4;0.0;5;0.0;6;0.0;7;0.0;
RC;ROLL;1499.0;PITCH;1523.0;YAW;1517.0;THROTTLE;1058.0;AUX1;1537.0;AUX2;1500.0;AUX3;1500.0;AUX4;1500.0
ALTITUDE;87.0
DEBUG;DEBUG1-102.0;DEBUG2;0.0;DEBUG3;87.0;DEBUG4;0.0
ATTITUDE;ANGX;19.0;ANGY;-3.0;HEAD;-163.0
STATUS;CYCLETIME;3044;I2CERR;0;PRESENT;23;MODE;0
RAW_IMU;AX;91.0;AY;-18.0;AZ;234.0;GX;-3.0;GY;0.0;GZ;1.0;MAGX;0.0;MAGY;-19.0;MAGZ;-7.0
MOT;0;1000.0;1;1000.0;2;1000.0;3;1000.0;4;0.0;5;0.0;6;0.0;7;0.0;
RC;ROLL;1501.0;PITCH;1524.0;YAW;1517.0;THROTTLE;1055.0;AUX1;1537.0;AUX2;1500.0;AUX3;1500.0;AUX4;1500.0
ALTITUDE;87.0
DEBUG;DEBUG1-102.0;DEBUG2;0.0;DEBUG3;87.0;DEBUG4;0.0
ATTITUDE;ANGX;19.0;ANGY;-3.0;HEAD;-163.0
STATUS;CYCLETIME;2924;I2CERR;0;PRESENT;23;MODE;0
RAW_IMU;AX;92.0;AY;-16.0;AZ;234.0;GX;-2.0;GY;-2.0;GZ;2.0;MAGX;0.0;MAGY;-19.0;MAGZ;-7.0
MOT;0;1000.0;1;1000.0;2;1000.0;3;1000.0;4;0.0;5;0.0;6;0.0;7;0.0;
RC;ROLL;1495.0;PITCH;1527.0;YAW;1517.0;THROTTLE;1058.0;AUX1;1534.0;AUX2;1500.0;AUX3;1500.0;AUX4;1500.0
ALTITUDE;87.0
DEBUG;DEBUG1-102.0;DEBUG2;0.0;DEBUG3;87.0;DEBUG4;0.0
ATTITUDE;ANGX;18.0;ANGY;-3.0;HEAD;-162.0
STATUS;CYCLETIME;2908;I2CERR;0;PRESENT;23;MODE;0
RAW_IMU;AX;87.0;AY;-10.0;AZ;235.0;GX;1.0;GY;-1.0;GZ;0.0;MAGX;0.0;MAGY;-18.0;MAGZ;-7.0
MOT;0;1000.0;1;1000.0;2;1000.0;3;1000.0;4;0.0;5;0.0;6;0.0;7;0.0;
RC;ROLL;1502.0;PITCH;1518.0;YAW;1517.0;THROTTLE;1060.0;AUX1;1534.0;AUX2;1500.0;AUX3;1500.0;AUX4;1500.0
ALTITUDE;87.0
DEBUG;DEBUG1-102.0;DEBUG2;0.0;DEBUG3;87.0;DEBUG4;0.0
ATTITUDE;ANGX;19.0;ANGY;-3.0;HEAD;-162.0
STATUS;CYCLETIME;2992;I2CERR;0;PRESENT;23;MODE;0
RAW_IMU;AX;80.0;AY;-13.0;AZ;229.0;GX;6.0;GY;0.0;GZ;1.0;MAGX;0.0;MAGY;-18.0;MAGZ;-7.0
MOT;0;1000.0;1;1000.0;2;1000.0;3;1000.0;4;0.0;5;0.0;6;0.0;7;0.0;
RC;ROLL;1502.0;PITCH;1521.0;YAW;1517.0;THROTTLE;1060.0;AUX1;1537.0;AUX2;1500.0;AUX3;1500.0;AUX4;1500.0
ALTITUDE;87.0
DEBUG;DEBUG1-102.0;DEBUG2;0.0;DEBUG3;87.0;DEBUG4;0.0
ATTITUDE;ANGX;19.0;ANGY;-3.0;HEAD;-162.0
STATUS;CYCLETIME;3012;I2CERR;0;PRESENT;23;MODE;0
RAW_IMU;AX;82.0;AY;-14.0;AZ;231.0;GX;10.0;GY;0.0;GZ;0.0;MAGX;-1.0;MAGY;-17.0;MAGZ;-7.0
MOT;0;1000.0;1;1000.0;2;1000.0;3;1000.0;4;0.0;5;0.0;6;0.0;7;0.0;
RC;ROLL;1502.0;PITCH;1521.0;YAW;1517.0;THROTTLE;1057.0;AUX1;1537.0;AUX2;1500.0;AUX3;1500.0;AUX4;1500.0
ALTITUDE;87.0
DEBUG;DEBUG1-102.0;DEBUG2;0.0;DEBUG3;87.0;DEBUG4;0.0
ATTITUDE;ANGX;20.0;ANGY;-3.0;HEAD;-162.0
STATUS;CYCLETIME;2888;I2CERR;0;PRESENT;23;MODE;0
RAW_IMU;AX;89.0;AY;-16.0;AZ;238.0;GX;10.0;GY;0.0;GZ;-3.0;MAGX;-1.0;MAGY;-17.0;MAGZ;-7.0
MOT;0;1000.0;1;1000.0;2;1000.0;3;1000.0;4;0.0;5;0.0;6;0.0;7;0.0;
RC;ROLL;1502.0;PITCH;1521.0;YAW;1517.0;THROTTLE;1057.0;AUX1;1540.0;AUX2;1500.0;AUX3;1500.0;AUX4;1500.0
ALTITUDE;87.0
DEBUG;DEBUG1-102.0;DEBUG2;0.0;DEBUG3;87.0;DEBUG4;0.0
ATTITUDE;ANGX;21.0;ANGY;-3.0;HEAD;-163.0
STATUS;CYCLETIME;2940;I2CERR;0;PRESENT;23;MODE;0
RAW_IMU;AX;102.0;AY;-17.0;AZ;243.0;GX;5.0;GY;-2.0;GZ;0.0;MAGX;0.0;MAGY;-18.0;MAGZ;-8.0
MOT;0;1000.0;1;1000.0;2;1000.0;3;1000.0;4;0.0;5;0.0;6;0.0;7;0.0;
RC;ROLL;1502.0;PITCH;1519.0;YAW;1521.0;THROTTLE;1057.0;AUX1;1542.0;AUX2;1500.0;AUX3;1500.0;AUX4;1500.0
ALTITUDE;87.0
DEBUG;DEBUG1-102.0;DEBUG2;0.0;DEBUG3;87.0;DEBUG4;0.0
ATTITUDE;ANGX;22.0;ANGY;-3.0;HEAD;-162.0
STATUS;CYCLETIME;2880;I2CERR;0;PRESENT;23;MODE;0
RAW_IMU;AX;107.0;AY;-20.0;AZ;244.0;GX;-1.0;GY;-4.0;GZ;2.0;MAGX;0.0;MAGY;-18.0;MAGZ;-8.0
MOT;0;1000.0;1;1000.0;2;1000.0;3;1000.0;4;0.0;5;0.0;6;0.0;7;0.0;
RC;ROLL;1502.0;PITCH;1519.0;YAW;1521.0;THROTTLE;1057.0;AUX1;1542.0;AUX2;1500.0;AUX3;1500.0;AUX4;1500.0
ALTITUDE;87.0
DEBUG;DEBUG1-102.0;DEBUG2;0.0;DEBUG3;87.0;DEBUG4;0.0
ATTITUDE;ANGX;22.0;ANGY;-4.0;HEAD;-162.0
STATUS;CYCLETIME;2884;I2CERR;0;PRESENT;23;MODE;0
RAW_IMU;AX;105.0;AY;-28.0;AZ;250.0;GX;-5.0;GY;1.0;GZ;3.0;MAGX;0.0;MAGY;-18.0;MAGZ;-8.0
MOT;0;1000.0;1;1000.0;2;1000.0;3;1000.0;4;0.0;5;0.0;6;0.0;7;0.0;
RC;ROLL;1504.0;PITCH;1519.0;YAW;1521.0;THROTTLE;1057.0;AUX1;1540.0;AUX2;1500.0;AUX3;1500.0;AUX4;1500.0
ALTITUDE;87.0
DEBUG;DEBUG1-102.0;DEBUG2;0.0;DEBUG3;87.0;DEBUG4;0.0
ATTITUDE;ANGX;22.0;ANGY;-4.0;HEAD;-161.0
STATUS;CYCLETIME;2896;I2CERR;0;PRESENT;23;MODE;0
RAW_IMU;AX;94.0;AY;-23.0;AZ;244.0;GX;-4.0;GY;7.0;GZ;2.0;MAGX;-1.0;MAGY;-18.0;MAGZ;-8.0
MOT;0;1000.0;1;1000.0;2;1000.0;3;1000.0;4;0.0;5;0.0;6;0.0;7;0.0;
RC;ROLL;1504.0;PITCH;1519.0;YAW;1521.0;THROTTLE;1054.0;AUX1;1540.0;AUX2;1500.0;AUX3;1500.0;AUX4;1500.0
ALTITUDE;87.0
DEBUG;DEBUG1-102.0;DEBUG2;0.0;DEBUG3;87.0;DEBUG4;0.0
ATTITUDE;ANGX;21.0;ANGY;-3.0;HEAD;-162.0
STATUS;CYCLETIME;2944;I2CERR;0;PRESENT;23;MODE;0
RAW_IMU;AX;86.0;AY;-13.0;AZ;239.0;GX;0.0;GY;5.0;GZ;1.0;MAGX;-1.0;MAGY;-18.0;MAGZ;-8.0
MOT;0;1000.0;1;1000.0;2;1000.0;3;1000.0;4;0.0;5;0.0;6;0.0;7;0.0;
RC;ROLL;1500.0;PITCH;1519.0;YAW;1521.0;THROTTLE;1059.0;AUX1;1542.0;AUX2;1500.0;AUX3;1500.0;AUX4;1500.0
ALTITUDE;87.0
DEBUG;DEBUG1-102.0;DEBUG2;0.0;DEBUG3;87.0;DEBUG4;0.0
ATTITUDE;ANGX;21.0;ANGY;-2.0;HEAD;-162.0
STATUS;CYCLETIME;3004;I2CERR;0;PRESENT;23;MODE;0
RAW_IMU;AX;84.0;AY;-8.0;AZ;238.0;GX;4.0;GY;0.0;GZ;0.0;MAGX;-2.0;MAGY;-18.0;MAGZ;-8.0
MOT;0;1000.0;1;1000.0;2;1000.0;3;1000.0;4;0.0;5;0.0;6;0.0;7;0.0;
RC;ROLL;1504.0;PITCH;1514.0;YAW;1521.0;THROTTLE;1061.0;AUX1;1539.0;AUX2;1500.0;AUX3;1500.0;AUX4;1500.0
ALTITUDE;87.0
DEBUG;DEBUG1-102.0;DEBUG2;0.0;DEBUG3;87.0;DEBUG4;0.0
ATTITUDE;ANGX;21.0;ANGY;-2.0;HEAD;-162.0
STATUS;CYCLETIME;2920;I2CERR;0;PRESENT;23;MODE;0
RAW_IMU;AX;86.0;AY;-7.0;AZ;234.0;GX;7.0;GY;-2.0;GZ;-1.0;MAGX;-2.0;MAGY;-18.0;MAGZ;-8.0
MOT;0;1000.0;1;1000.0;2;1000.0;3;1000.0;4;0.0;5;0.0;6;0.0;7;0.0;
RC;ROLL;1504.0;PITCH;1511.0;YAW;1521.0;THROTTLE;1063.0;AUX1;1537.0;AUX2;1500.0;AUX3;1500.0;AUX4;1500.0
ALTITUDE;87.0
DEBUG;DEBUG1-102.0;DEBUG2;0.0;DEBUG3;87.0;DEBUG4;0.0
ATTITUDE;ANGX;22.0;ANGY;-2.0;HEAD;-162.0
STATUS;CYCLETIME;2884;I2CERR;0;PRESENT;23;MODE;0
RAW_IMU;AX;95.0;AY;-11.0;AZ;231.0;GX;7.0;GY;-1.0;GZ;-1.0;MAGX;0.0;MAGY;-18.0;MAGZ;-8.0
MOT;0;1000.0;1;1000.0;2;1000.0;3;1000.0;4;0.0;5;0.0;6;0.0;7;0.0;
RC;ROLL;1501.0;PITCH;1514.0;YAW;1528.0;THROTTLE;1056.0;AUX1;1541.0;AUX2;1500.0;AUX3;1500.0;AUX4;1500.0
ALTITUDE;87.0
DEBUG;DEBUG1-102.0;DEBUG2;0.0;DEBUG3;87.0;DEBUG4;0.0
ATTITUDE;ANGX;23.0;ANGY;-3.0;HEAD;-162.0
STATUS;CYCLETIME;3008;I2CERR;0;PRESENT;23;MODE;0
RAW_IMU;AX;108.0;AY;-10.0;AZ;225.0;GX;3.0;GY;0.0;GZ;-1.0;MAGX;0.0;MAGY;-18.0;MAGZ;-8.0
MOT;0;1000.0;1;1000.0;2;1000.0;3;1000.0;4;0.0;5;0.0;6;0.0;7;0.0;
RC;ROLL;1501.0;PITCH;1518.0;YAW;1513.0;THROTTLE;1056.0;AUX1;1541.0;AUX2;1500.0;AUX3;1500.0;AUX4;1500.0
ALTITUDE;87.0
DEBUG;DEBUG1-102.0;DEBUG2;0.0;DEBUG3;87.0;DEBUG4;0.0
ATTITUDE;ANGX;24.0;ANGY;-3.0;HEAD;-162.0
STATUS;CYCLETIME;2916;I2CERR;0;PRESENT;23;MODE;0
RAW_IMU;AX;115.0;AY;-14.0;AZ;223.0;GX;-2.0;GY;-1.0;GZ;0.0;MAGX;-1.0;MAGY;-18.0;MAGZ;-8.0
MOT;0;1000.0;1;1000.0;2;1000.0;3;1000.0;4;0.0;5;0.0;6;0.0;7;0.0;
RC;ROLL;1501.0;PITCH;1518.0;YAW;1518.0;THROTTLE;1054.0;AUX1;1538.0;AUX2;1500.0;AUX3;1500.0;AUX4;1500.0
ALTITUDE;87.0
DEBUG;DEBUG1-102.0;DEBUG2;0.0;DEBUG3;87.0;DEBUG4;0.0
ATTITUDE;ANGX;24.0;ANGY;-3.0;HEAD;-161.0
STATUS;CYCLETIME;2904;I2CERR;0;PRESENT;23;MODE;0
RAW_IMU;AX;116.0;AY;-16.0;AZ;225.0;GX;-10.0;GY;-2.0;GZ;0.0;MAGX;-1.0;MAGY;-18.0;MAGZ;-8.0
MOT;0;1000.0;1;1000.0;2;1000.0;3;1000.0;4;0.0;5;0.0;6;0.0;7;0.0;
RC;ROLL;1501.0;PITCH;1518.0;YAW;1520.0;THROTTLE;1054.0;AUX1;1536.0;AUX2;1500.0;AUX3;1500.0;AUX4;1500.0
ALTITUDE;87.0
DEBUG;DEBUG1-102.0;DEBUG2;0.0;DEBUG3;87.0;DEBUG4;0.0
ATTITUDE;ANGX;23.0;ANGY;-3.0;HEAD;-162.0
STATUS;CYCLETIME;2984;I2CERR;0;PRESENT;23;MODE;0
RAW_IMU;AX;111.0;AY;-17.0;AZ;226.0;GX;-15.0;GY;0.0;GZ;0.0;MAGX;-1.0;MAGY;-18.0;MAGZ;-8.0
MOT;0;1000.0;1;1000.0;2;1000.0;3;1000.0;4;0.0;5;0.0;6;0.0;7;0.0;
RC;ROLL;1501.0;PITCH;1518.0;YAW;1520.0;THROTTLE;1060.0;AUX1;1542.0;AUX2;1500.0;AUX3;1500.0;AUX4;1500.0
ALTITUDE;86.0
DEBUG;DEBUG1-102.0;DEBUG2;0.0;DEBUG3;86.0;DEBUG4;0.0
ATTITUDE;ANGX;21.0;ANGY;-3.0;HEAD;-162.0
STATUS;CYCLETIME;2904;I2CERR;0;PRESENT;23;MODE;0
RAW_IMU;AX;103.0;AY;-18.0;AZ;223.0;GX;-19.0;GY;4.0;GZ;-2.0;MAGX;-1.0;MAGY;-18.0;MAGZ;-8.0
MOT;0;1000.0;1;1000.0;2;1000.0;3;1000.0;4;0.0;5;0.0;6;0.0;7;0.0;
RC;ROLL;1501.0;PITCH;1515.0;YAW;1524.0;THROTTLE;1060.0;AUX1;1538.0;AUX2;1500.0;AUX3;1500.0;AUX4;1500.0
ALTITUDE;86.0
DEBUG;DEBUG1-101.0;DEBUG2;0.0;DEBUG3;86.0;DEBUG4;0.0
ATTITUDE;ANGX;19.0;ANGY;-3.0;HEAD;-162.0
STATUS;CYCLETIME;2924;I2CERR;0;PRESENT;23;MODE;0
RAW_IMU;AX;96.0;AY;-14.0;AZ;226.0;GX;-19.0;GY;4.0;GZ;-2.0;MAGX;0.0;MAGY;-18.0;MAGZ;-7.0
MOT;0;1000.0;1;1000.0;2;1000.0;3;1000.0;4;0.0;5;0.0;6;0.0;7;0.0;
RC;ROLL;1501.0;PITCH;1521.0;YAW;1531.0;THROTTLE;1047.0;AUX1;1533.0;AUX2;1500.0;AUX3;1500.0;AUX4;1500.0
ALTITUDE;86.0
DEBUG;DEBUG1-101.0;DEBUG2;0.0;DEBUG3;86.0;DEBUG4;0.0
ATTITUDE;ANGX;17.0;ANGY;-2.0;HEAD;-163.0
STATUS;CYCLETIME;2948;I2CERR;0;PRESENT;23;MODE;0
RAW_IMU;AX;89.0;AY;-12.0;AZ;234.0;GX;-17.0;GY;2.0;GZ;0.0;MAGX;0.0;MAGY;-18.0;MAGZ;-7.0
MOT;0;1000.0;1;1000.0;2;1000.0;3;1000.0;4;0.0;5;0.0;6;0.0;7;0.0;
RC;ROLL;1501.0;PITCH;1524.0;YAW;1522.0;THROTTLE;1051.0;AUX1;1539.0;AUX2;1500.0;AUX3;1500.0;AUX4;1500.0
ALTITUDE;86.0
DEBUG;DEBUG1-101.0;DEBUG2;0.0;DEBUG3;86.0;DEBUG4;0.0
ATTITUDE;ANGX;15.0;ANGY;-2.0;HEAD;-163.0
STATUS;CYCLETIME;2892;I2CERR;0;PRESENT;23;MODE;0
RAW_IMU;AX;78.0;AY;-15.0;AZ;250.0;GX;-10.0;GY;0.0;GZ;0.0;MAGX;0.0;MAGY;-18.0;MAGZ;-6.0
MOT;0;1000.0;1;1000.0;2;1000.0;3;1000.0;4;0.0;5;0.0;6;0.0;7;0.0;
RC;ROLL;1501.0;PITCH;1522.0;YAW;1517.0;THROTTLE;1058.0;AUX1;1541.0;AUX2;1500.0;AUX3;1500.0;AUX4;1500.0
ALTITUDE;86.0
DEBUG;DEBUG1-101.0;DEBUG2;0.0;DEBUG3;86.0;DEBUG4;0.0
ATTITUDE;ANGX;14.0;ANGY;-2.0;HEAD;-164.0
STATUS;CYCLETIME;2904;I2CERR;0;PRESENT;23;MODE;0
RAW_IMU;AX;69.0;AY;-14.0;AZ;261.0;GX;1.0;GY;-1.0;GZ;0.0;MAGX;0.0;MAGY;-18.0;MAGZ;-6.0
MOT;0;1000.0;1;1000.0;2;1000.0;3;1000.0;4;0.0;5;0.0;6;0.0;7;0.0;
RC;ROLL;1501.0;PITCH;1515.0;YAW;1513.0;THROTTLE;1061.0;AUX1;1543.0;AUX2;1500.0;AUX3;1500.0;AUX4;1500.0
ALTITUDE;86.0
DEBUG;DEBUG1-101.0;DEBUG2;0.0;DEBUG3;86.0;DEBUG4;0.0
ATTITUDE;ANGX;14.0;ANGY;-2.0;HEAD;-164.0
STATUS;CYCLETIME;2888;I2CERR;0;PRESENT;23;MODE;0
RAW_IMU;AX;61.0;AY;-11.0;AZ;245.0;GX;11.0;GY;-4.0;GZ;0.0;MAGX;-1.0;MAGY;-18.0;MAGZ;-6.0
MOT;0;1000.0;1;1000.0;2;1000.0;3;1000.0;4;0.0;5;0.0;6;0.0;7;0.0;
RC;ROLL;1501.0;PITCH;1517.0;YAW;1513.0;THROTTLE;1061.0;AUX1;1545.0;AUX2;1500.0;AUX3;1500.0;AUX4;1500.0
ALTITUDE;86.0
DEBUG;DEBUG1-101.0;DEBUG2;0.0;DEBUG3;86.0;DEBUG4;0.0
ATTITUDE;ANGX;15.0;ANGY;-2.0;HEAD;-164.0
STATUS;CYCLETIME;2920;I2CERR;0;PRESENT;23;MODE;0
RAW_IMU;AX;60.0;AY;-11.0;AZ;243.0;GX;20.0;GY;-7.0;GZ;0.0;MAGX;-1.0;MAGY;-18.0;MAGZ;-6.0
MOT;0;1000.0;1;1000.0;2;1000.0;3;1000.0;4;0.0;5;0.0;6;0.0;7;0.0;
RC;ROLL;1501.0;PITCH;1517.0;YAW;1513.0;THROTTLE;1061.0;AUX1;1543.0;AUX2;1500.0;AUX3;1500.0;AUX4;1500.0
ALTITUDE;86.0
DEBUG;DEBUG1-101.0;DEBUG2;0.0;DEBUG3;86.0;DEBUG4;0.0
ATTITUDE;ANGX;17.0;ANGY;-3.0;HEAD;-163.0
STATUS;CYCLETIME;2884;I2CERR;0;PRESENT;23;MODE;0
RAW_IMU;AX;68.0;AY;-15.0;AZ;245.0;GX;24.0;GY;-5.0;GZ;0.0;MAGX;0.0;MAGY;-19.0;MAGZ;-7.0
MOT;0;1000.0;1;1000.0;2;1000.0;3;1000.0;4;0.0;5;0.0;6;0.0;7;0.0;
RC;ROLL;1503.0;PITCH;1513.0;YAW;1516.0;THROTTLE;1061.0;AUX1;1543.0;AUX2;1500.0;AUX3;1500.0;AUX4;1500.0
ALTITUDE;86.0
DEBUG;DEBUG1-101.0;DEBUG2;0.0;DEBUG3;86.0;DEBUG4;0.0
ATTITUDE;ANGX;19.0;ANGY;-4.0;HEAD;-163.0
STATUS;CYCLETIME;2896;I2CERR;0;PRESENT;23;MODE;0
RAW_IMU;AX;85.0;AY;-19.0;AZ;250.0;GX;19.0;GY;-1.0;GZ;-3.0;MAGX;0.0;MAGY;-19.0;MAGZ;-7.0
MOT;0;1000.0;1;1000.0;2;1000.0;3;1000.0;4;0.0;5;0.0;6;0.0;7;0.0;
RC;ROLL;1503.0;PITCH;1516.0;YAW;1518.0;THROTTLE;1059.0;AUX1;1539.0;AUX2;1500.0;AUX3;1500.0;AUX4;1500.0
ALTITUDE;86.0
DEBUG;DEBUG1-101.0;DEBUG2;0.0;DEBUG3;86.0;DEBUG4;0.0
ATTITUDE;ANGX;21.0;ANGY;-4.0;HEAD;-163.0
STATUS;CYCLETIME;2884;I2CERR;0;PRESENT;23;MODE;0
RAW_IMU;AX;99.0;AY;-20.0;AZ;247.0;GX;6.0;GY;1.0;GZ;-1.0;MAGX;0.0;MAGY;-19.0;MAGZ;-7.0
MOT;0;1000.0;1;1000.0;2;1000.0;3;1000.0;4;0.0;5;0.0;6;0.0;7;0.0;
RC;ROLL;1503.0;PITCH;1516.0;YAW;1518.0;THROTTLE;1059.0;AUX1;1544.0;AUX2;1500.0;AUX3;1500.0;AUX4;1500.0
ALTITUDE;86.0
DEBUG;DEBUG1-101.0;DEBUG2;0.0;DEBUG3;86.0;DEBUG4;0.0
ATTITUDE;ANGX;22.0;ANGY;-4.0;HEAD;-163.0
STATUS;CYCLETIME;3004;I2CERR;0;PRESENT;23;MODE;0
RAW_IMU;AX;102.0;AY;-20.0;AZ;238.0;GX;-11.0;GY;0.0;GZ;1.0;MAGX;0.0;MAGY;-19.0;MAGZ;-7.0
MOT;0;1000.0;1;1000.0;2;1000.0;3;1000.0;4;0.0;5;0.0;6;0.0;7;0.0;
RC;ROLL;1503.0;PITCH;1516.0;YAW;1518.0;THROTTLE;1059.0;AUX1;1544.0;AUX2;1500.0;AUX3;1500.0;AUX4;1500.0
ALTITUDE;86.0
DEBUG;DEBUG1-101.0;DEBUG2;0.0;DEBUG3;86.0;DEBUG4;0.0
ATTITUDE;ANGX;22.0;ANGY;-4.0;HEAD;-164.0
STATUS;CYCLETIME;3188;I2CERR;0;PRESENT;23;MODE;0
RAW_IMU;AX;100.0;AY;-20.0;AZ;241.0;GX;-25.0;GY;1.0;GZ;1.0;MAGX;-1.0;MAGY;-19.0;MAGZ;-8.0
MOT;0;1000.0;1;1000.0;2;1000.0;3;1000.0;4;0.0;5;0.0;6;0.0;7;0.0;
RC;ROLL;1503.0;PITCH;1516.0;YAW;1518.0;THROTTLE;1063.0;AUX1;1546.0;AUX2;1500.0;AUX3;1500.0;AUX4;1500.0
ALTITUDE;86.0
DEBUG;DEBUG1-101.0;DEBUG2;0.0;DEBUG3;86.0;DEBUG4;0.0
ATTITUDE;ANGX;20.0;ANGY;-4.0;HEAD;-163.0
STATUS;CYCLETIME;2904;I2CERR;0;PRESENT;23;MODE;0
RAW_IMU;AX;88.0;AY;-20.0;AZ;240.0;GX;-34.0;GY;2.0;GZ;0.0;MAGX;-1.0;MAGY;-19.0;MAGZ;-8.0
MOT;0;1000.0;1;1000.0;2;1000.0;3;1000.0;4;0.0;5;0.0;6;0.0;7;0.0;
RC;ROLL;1503.0;PITCH;1516.0;YAW;1518.0;THROTTLE;1063.0;AUX1;1546.0;AUX2;1500.0;AUX3;1500.0;AUX4;1500.0
ALTITUDE;86.0
DEBUG;DEBUG1-101.0;DEBUG2;0.0;DEBUG3;86.0;DEBUG4;0.0
ATTITUDE;ANGX;16.0;ANGY;-4.0;HEAD;-163.0
STATUS;CYCLETIME;2996;I2CERR;0;PRESENT;23;MODE;0
RAW_IMU;AX;79.0;AY;-20.0;AZ;243.0;GX;-33.0;GY;5.0;GZ;0.0;MAGX;-1.0;MAGY;-19.0;MAGZ;-8.0
MOT;0;1000.0;1;1000.0;2;1000.0;3;1000.0;4;0.0;5;0.0;6;0.0;7;0.0;
RC;ROLL;1503.0;PITCH;1519.0;YAW;1518.0;THROTTLE;1063.0;AUX1;1539.0;AUX2;1500.0;AUX3;1500.0;AUX4;1500.0
ALTITUDE;83.0
DEBUG;DEBUG1-99.0;DEBUG2;0.0;DEBUG3;83.0;DEBUG4;0.0
ATTITUDE;ANGX;12.0;ANGY;-3.0;HEAD;-164.0
STATUS;CYCLETIME;2896;I2CERR;0;PRESENT;23;MODE;0
RAW_IMU;AX;69.0;AY;-17.0;AZ;247.0;GX;-26.0;GY;6.0;GZ;-2.0;MAGX;-1.0;MAGY;-19.0;MAGZ;-5.0
MOT;0;1000.0;1;1000.0;2;1000.0;3;1000.0;4;0.0;5;0.0;6;0.0;7;0.0;
RC;ROLL;1503.0;PITCH;1519.0;YAW;1515.0;THROTTLE;1063.0;AUX1;1539.0;AUX2;1500.0;AUX3;1500.0;AUX4;1500.0
ALTITUDE;83.0
DEBUG;DEBUG1-99.0;DEBUG2;0.0;DEBUG3;83.0;DEBUG4;0.0
ATTITUDE;ANGX;9.0;ANGY;-2.0;HEAD;-166.0
STATUS;CYCLETIME;2936;I2CERR;0;PRESENT;23;MODE;0
RAW_IMU;AX;61.0;AY;-15.0;AZ;247.0;GX;-16.0;GY;4.0;GZ;-3.0;MAGX;-1.0;MAGY;-19.0;MAGZ;-5.0
MOT;0;1000.0;1;1000.0;2;1000.0;3;1000.0;4;0.0;5;0.0;6;0.0;7;0.0;
RC;ROLL;1503.0;PITCH;1519.0;YAW;1513.0;THROTTLE;1063.0;AUX1;1541.0;AUX2;1500.0;AUX3;1500.0;AUX4;1500.0
ALTITUDE;83.0
DEBUG;DEBUG1-99.0;DEBUG2;0.0;DEBUG3;83.0;DEBUG4;0.0
ATTITUDE;ANGX;7.0;ANGY;-2.0;HEAD;-165.0
STATUS;CYCLETIME;2948;I2CERR;0;PRESENT;23;MODE;0
RAW_IMU;AX;61.0;AY;-13.0;AZ;248.0;GX;-6.0;GY;0.0;GZ;-3.0;MAGX;0.0;MAGY;-19.0;MAGZ;-4.0
MOT;0;1000.0;1;1000.0;2;1000.0;3;1000.0;4;0.0;5;0.0;6;0.0;7;0.0;
RC;ROLL;1503.0;PITCH;1519.0;YAW;1515.0;THROTTLE;1063.0;AUX1;1539.0;AUX2;1500.0;AUX3;1500.0;AUX4;1500.0
ALTITUDE;83.0
DEBUG;DEBUG1-99.0;DEBUG2;0.0;DEBUG3;83.0;DEBUG4;0.0
ATTITUDE;ANGX;6.0;ANGY;-2.0;HEAD;-167.0
STATUS;CYCLETIME;2896;I2CERR;0;PRESENT;23;MODE;0
RAW_IMU;AX;59.0;AY;-15.0;AZ;248.0;GX;1.0;GY;-3.0;GZ;0.0;MAGX;0.0;MAGY;-19.0;MAGZ;-4.0
MOT;0;1000.0;1;1000.0;2;1000.0;3;1000.0;4;0.0;5;0.0;6;0.0;7;0.0;
RC;ROLL;1503.0;PITCH;1519.0;YAW;1515.0;THROTTLE;1061.0;AUX1;1539.0;AUX2;1500.0;AUX3;1500.0;AUX4;1500.0
ALTITUDE;83.0
DEBUG;DEBUG1-99.0;DEBUG2;0.0;DEBUG3;83.0;DEBUG4;0.0
ATTITUDE;ANGX;6.0;ANGY;-2.0;HEAD;-167.0
STATUS;CYCLETIME;2896;I2CERR;0;PRESENT;23;MODE;0
RAW_IMU;AX;60.0;AY;-17.0;AZ;248.0;GX;10.0;GY;-3.0;GZ;3.0;MAGX;0.0;MAGY;-18.0;MAGZ;-4.0
MOT;0;1000.0;1;1000.0;2;1000.0;3;1000.0;4;0.0;5;0.0;6;0.0;7;0.0;
RC;ROLL;1503.0;PITCH;1517.0;YAW;1515.0;THROTTLE;1061.0;AUX1;1541.0;AUX2;1500.0;AUX3;1500.0;AUX4;1500.0
ALTITUDE;83.0
DEBUG;DEBUG1-99.0;DEBUG2;0.0;DEBUG3;83.0;DEBUG4;0.0
ATTITUDE;ANGX;7.0;ANGY;-2.0;HEAD;-166.0
STATUS;CYCLETIME;2892;I2CERR;0;PRESENT;23;MODE;0
RAW_IMU;AX;58.0;AY;-17.0;AZ;249.0;GX;18.0;GY;-1.0;GZ;1.0;MAGX;0.0;MAGY;-18.0;MAGZ;-4.0
MOT;0;1000.0;1;1000.0;2;1000.0;3;1000.0;4;0.0;5;0.0;6;0.0;7;0.0;
RC;ROLL;1503.0;PITCH;1515.0;YAW;1513.0;THROTTLE;1063.0;AUX1;1541.0;AUX2;1500.0;AUX3;1500.0;AUX4;1500.0
ALTITUDE;83.0
DEBUG;DEBUG1-99.0;DEBUG2;0.0;DEBUG3;83.0;DEBUG4;0.0
ATTITUDE;ANGX;9.0;ANGY;-3.0;HEAD;-166.0
STATUS;CYCLETIME;2940;I2CERR;0;PRESENT;23;MODE;0
RAW_IMU;AX;63.0;AY;-13.0;AZ;253.0;GX;23.0;GY;-2.0;GZ;-1.0;MAGX;0.0;MAGY;-18.0;MAGZ;-3.0
MOT;0;1000.0;1;1000.0;2;1000.0;3;1000.0;4;0.0;5;0.0;6;0.0;7;0.0;
RC;ROLL;1503.0;PITCH;1519.0;YAW;1513.0;THROTTLE;1059.0;AUX1;1541.0;AUX2;1500.0;AUX3;1500.0;AUX4;1500.0
ALTITUDE;83.0
DEBUG;DEBUG1-99.0;DEBUG2;0.0;DEBUG3;83.0;DEBUG4;0.0
ATTITUDE;ANGX;12.0;ANGY;-3.0;HEAD;-165.0
STATUS;CYCLETIME;2888;I2CERR;0;PRESENT;23;MODE;0
RAW_IMU;AX;68.0;AY;-14.0;AZ;250.0;GX;23.0;GY;-8.0;GZ;1.0;MAGX;0.0;MAGY;-18.0;MAGZ;-3.0
MOT;0;1000.0;1;1000.0;2;1000.0;3;1000.0;4;0.0;5;0.0;6;0.0;7;0.0;
RC;ROLL;1503.0;PITCH;1521.0;YAW;1516.0;THROTTLE;1059.0;AUX1;1543.0;AUX2;1500.0;AUX3;1500.0;AUX4;1500.0
ALTITUDE;83.0
DEBUG;DEBUG1-99.0;DEBUG2;0.0;DEBUG3;83.0;DEBUG4;0.0
ATTITUDE;ANGX;15.0;ANGY;-4.0;HEAD;-165.0
STATUS;CYCLETIME;2912;I2CERR;0;PRESENT;23;MODE;0
RAW_IMU;AX;75.0;AY;-20.0;AZ;249.0;GX;18.0;GY;-7.0;GZ;0.0;MAGX;0.0;MAGY;-18.0;MAGZ;-5.0
MOT;0;1000.0;1;1000.0;2;1000.0;3;1000.0;4;0.0;5;0.0;6;0.0;7;0.0;
RC;ROLL;1507.0;PITCH;1518.0;YAW;1516.0;THROTTLE;1059.0;AUX1;1541.0;AUX2;1500.0;AUX3;1500.0;AUX4;1500.0
ALTITUDE;83.0
DEBUG;DEBUG1-99.0;DEBUG2;0.0;DEBUG3;83.0;DEBUG4;0.0
ATTITUDE;ANGX;17.0;ANGY;-4.0;HEAD;-165.0
STATUS;CYCLETIME;3028;I2CERR;0;PRESENT;23;MODE;0
RAW_IMU;AX;81.0;AY;-22.0;AZ;243.0;GX;9.0;GY;-2.0;GZ;-3.0;MAGX;0.0;MAGY;-18.0;MAGZ;-5.0
MOT;0;1000.0;1;1000.0;2;1000.0;3;1000.0;4;0.0;5;0.0;6;0.0;7;0.0;
RC;ROLL;1509.0;PITCH;1518.0;YAW;1516.0;THROTTLE;1059.0;AUX1;1541.0;AUX2;1500.0;AUX3;1500.0;AUX4;1500.0
ALTITUDE;83.0
DEBUG;DEBUG1-99.0;DEBUG2;0.0;DEBUG3;83.0;DEBUG4;0.0
ATTITUDE;ANGX;18.0;ANGY;-5.0;HEAD;-165.0
STATUS;CYCLETIME;3016;I2CERR;0;PRESENT;23;MODE;0
RAW_IMU;AX;81.0;AY;-25.0;AZ;233.0;GX;0.0;GY;3.0;GZ;1.0;MAGX;-2.0;MAGY;-18.0;MAGZ;-7.0
MOT;0;1000.0;1;1000.0;2;1000.0;3;1000.0;4;0.0;5;0.0;6;0.0;7;0.0;
RC;ROLL;1509.0;PITCH;1518.0;YAW;1516.0;THROTTLE;1059.0;AUX1;1543.0;AUX2;1500.0;AUX3;1500.0;AUX4;1500.0
ALTITUDE;83.0
DEBUG;DEBUG1-99.0;DEBUG2;0.0;DEBUG3;83.0;DEBUG4;0.0
ATTITUDE;ANGX;18.0;ANGY;-5.0;HEAD;-166.0
STATUS;CYCLETIME;2932;I2CERR;0;PRESENT;23;MODE;0
RAW_IMU;AX;83.0;AY;-20.0;AZ;236.0;GX;-9.0;GY;6.0;GZ;3.0;MAGX;-2.0;MAGY;-18.0;MAGZ;-7.0
MOT;0;1000.0;1;1000.0;2;1000.0;3;1000.0;4;0.0;5;0.0;6;0.0;7;0.0;
RC;ROLL;1507.0;PITCH;1518.0;YAW;1516.0;THROTTLE;1059.0;AUX1;1543.0;AUX2;1500.0;AUX3;1500.0;AUX4;1500.0
ALTITUDE;83.0
DEBUG;DEBUG1-99.0;DEBUG2;0.0;DEBUG3;83.0;DEBUG4;0.0
ATTITUDE;ANGX;18.0;ANGY;-4.0;HEAD;-165.0
STATUS;CYCLETIME;2920;I2CERR;0;PRESENT;23;MODE;0
RAW_IMU;AX;76.0;AY;-13.0;AZ;239.0;GX;-14.0;GY;3.0;GZ;0.0;MAGX;0.0;MAGY;-19.0;MAGZ;-6.0
MOT;0;1000.0;1;1000.0;2;1000.0;3;1000.0;4;0.0;5;0.0;6;0.0;7;0.0;
RC;ROLL;1503.0;PITCH;1518.0;YAW;1518.0;THROTTLE;1059.0;AUX1;1543.0;AUX2;1500.0;AUX3;1500.0;AUX4;1500.0
ALTITUDE;83.0
DEBUG;DEBUG1-99.0;DEBUG2;0.0;DEBUG3;83.0;DEBUG4;0.0
ATTITUDE;ANGX;16.0;ANGY;-4.0;HEAD;-166.0
STATUS;CYCLETIME;2964;I2CERR;0;PRESENT;23;MODE;0
RAW_IMU;AX;66.0;AY;-9.0;AZ;246.0;GX;-16.0;GY;-3.0;GZ;-1.0;MAGX;0.0;MAGY;-19.0;MAGZ;-6.0
MOT;0;1000.0;1;1000.0;2;1000.0;3;1000.0;4;0.0;5;0.0;6;0.0;7;0.0;
RC;ROLL;1507.0;PITCH;1518.0;YAW;1515.0;THROTTLE;1061.0;AUX1;1541.0;AUX2;1500.0;AUX3;1500.0;AUX4;1500.0
ALTITUDE;83.0
ALTITUDE;83.0
DEBUG;DEBUG1-99.0;DEBUG2;0.0;DEBUG3;83.0;DEBUG4;0.0
ATTITUDE;ANGX;14.0;ANGY;-4.0;HEAD;-165.0
STATUS;CYCLETIME;2872;I2CERR;0;PRESENT;23;MODE;0
RAW_IMU;AX;62.0;AY;-14.0;AZ;253.0;GX;2.0;GY;-4.0;GZ;0.0;MAGX;0.0;MAGY;-19.0;MAGZ;-5.0
MOT;0;1000.0;1;1000.0;2;1000.0;3;1000.0;4;0.0;5;0.0;6;0.0;7;0.0;
RC;ROLL;1519.0;PITCH;1522.0;YAW;1515.0;THROTTLE;1068.0;AUX1;1536.0;AUX2;1500.0;AUX3;1500.0;AUX4;1500.0
ALTITUDE;83.0
DEBUG;DEBUG1-99.0;DEBUG2;0.0;DEBUG3;83.0;DEBUG4;0.0
ATTITUDE;ANGX;14.0;ANGY;-4.0;HEAD;-165.0
STATUS;CYCLETIME;2916;I2CERR;0;PRESENT;23;MODE;0
RAW_IMU;AX;62.0;AY;-18.0;AZ;251.0;GX;5.0;GY;-3.0;GZ;0.0;MAGX;-1.0;MAGY;-18.0;MAGZ;-4.0
MOT;0;1000.0;1;1000.0;2;1000.0;3;1000.0;4;0.0;5;0.0;6;0.0;7;0.0;
RC;ROLL;1504.0;PITCH;1522.0;YAW;1515.0;THROTTLE;1066.0;AUX1;1544.0;AUX2;1500.0;AUX3;1500.0;AUX4;1500.0
ALTITUDE;83.0
DEBUG;DEBUG1-99.0;DEBUG2;0.0;DEBUG3;83.0;DEBUG4;0.0
ATTITUDE;ANGX;15.0;ANGY;-5.0;HEAD;-165.0
STATUS;CYCLETIME;2900;I2CERR;0;PRESENT;23;MODE;0
RAW_IMU;AX;63.0;AY;-21.0;AZ;248.0;GX;6.0;GY;1.0;GZ;1.0;MAGX;-1.0;MAGY;-18.0;MAGZ;-4.0
MOT;0;1000.0;1;1000.0;2;1000.0;3;1000.0;4;0.0;5;0.0;6;0.0;7;0.0;
RC;ROLL;1508.0;PITCH;1518.0;YAW;1512.0;THROTTLE;1057.0;AUX1;1552.0;AUX2;1500.0;AUX3;1500.0;AUX4;1500.0
ALTITUDE;83.0
DEBUG;DEBUG1-99.0;DEBUG2;0.0;DEBUG3;83.0;DEBUG4;0.0
ATTITUDE;ANGX;15.0;ANGY;-4.0;HEAD;-165.0
STATUS;CYCLETIME;3168;I2CERR;0;PRESENT;23;MODE;0
RAW_IMU;AX;69.0;AY;-16.0;AZ;248.0;GX;3.0;GY;2.0;GZ;-1.0;MAGX;-1.0;MAGY;-18.0;MAGZ;-4.0
MOT;0;1000.0;1;1000.0;2;1000.0;3;1000.0;4;0.0;5;0.0;6;0.0;7;0.0;
RC;ROLL;1517.0;PITCH;1514.0;YAW;1512.0;THROTTLE;1053.0;AUX1;1548.0;AUX2;1500.0;AUX3;1500.0;AUX4;1500.0
ALTITUDE;83.0
DEBUG;DEBUG1-99.0;DEBUG2;0.0;DEBUG3;83.0;DEBUG4;0.0
ATTITUDE;ANGX;16.0;ANGY;-4.0;HEAD;-165.0
STATUS;CYCLETIME;2900;I2CERR;0;PRESENT;23;MODE;0
RAW_IMU;AX;74.0;AY;-16.0;AZ;248.0;GX;-3.0;GY;-1.0;GZ;-1.0;MAGX;-1.0;MAGY;-18.0;MAGZ;-4.0
MOT;0;1000.0;1;1000.0;2;1000.0;3;1000.0;4;0.0;5;0.0;6;0.0;7;0.0;
RC;ROLL;1480.0;PITCH;1526.0;YAW;1539.0;THROTTLE;1051.0;AUX1;1533.0;AUX2;1500.0;AUX3;1500.0;AUX4;1500.0
ALTITUDE;83.0
DEBUG;DEBUG1-99.0;DEBUG2;0.0;DEBUG3;83.0;DEBUG4;0.0
ATTITUDE;ANGX;16.0;ANGY;-4.0;HEAD;-166.0
STATUS;CYCLETIME;3180;I2CERR;0;PRESENT;23;MODE;0
RAW_IMU;AX;72.0;AY;-22.0;AZ;250.0;GX;-9.0;GY;-3.0;GZ;2.0;MAGX;-1.0;MAGY;-18.0;MAGZ;-4.0
MOT;0;1000.0;1;1000.0;2;1000.0;3;1000.0;4;0.0;5;0.0;6;0.0;7;0.0;
RC;ROLL;1494.0;PITCH;1529.0;YAW;1558.0;THROTTLE;1030.0;AUX1;1533.0;AUX2;1500.0;AUX3;1500.0;AUX4;1500.0
ALTITUDE;83.0
DEBUG;DEBUG1-99.0;DEBUG2;0.0;DEBUG3;83.0;DEBUG4;0.0
ATTITUDE;ANGX;15.0;ANGY;-5.0;HEAD;-165.0
STATUS;CYCLETIME;3000;I2CERR;0;PRESENT;23;MODE;0
RAW_IMU;AX;69.0;AY;-24.0;AZ;248.0;GX;-11.0;GY;0.0;GZ;0.0;MAGX;-1.0;MAGY;-18.0;MAGZ;-4.0
MOT;0;1000.0;1;1000.0;2;1000.0;3;1000.0;4;0.0;5;0.0;6;0.0;7;0.0;
RC;ROLL;1511.0;PITCH;1520.0;YAW;1548.0;THROTTLE;1041.0;AUX1;1545.0;AUX2;1500.0;AUX3;1500.0;AUX4;1500.0
ALTITUDE;82.0
DEBUG;DEBUG1-99.0;DEBUG2;0.0;DEBUG3;82.0;DEBUG4;0.0
ATTITUDE;ANGX;13.0;ANGY;-5.0;HEAD;-166.0
STATUS;CYCLETIME;3012;I2CERR;0;PRESENT;23;MODE;0
RAW_IMU;AX;64.0;AY;-21.0;AZ;241.0;GX;-11.0;GY;3.0;GZ;-5.0;MAGX;-1.0;MAGY;-19.0;MAGZ;-5.0
MOT;0;1000.0;1;1000.0;2;1000.0;3;1000.0;4;0.0;5;0.0;6;0.0;7;0.0;
RC;ROLL;1514.0;PITCH;1520.0;YAW;1548.0;THROTTLE;1039.0;AUX1;1545.0;AUX2;1500.0;AUX3;1500.0;AUX4;1500.0
ALTITUDE;82.0
DEBUG;DEBUG1-99.0;DEBUG2;0.0;DEBUG3;82.0;DEBUG4;0.0
ATTITUDE;ANGX;12.0;ANGY;-4.0;HEAD;-166.0
STATUS;CYCLETIME;2908;I2CERR;0;PRESENT;23;MODE;0
RAW_IMU;AX;57.0;AY;-16.0;AZ;245.0;GX;-9.0;GY;0.0;GZ;-1.0;MAGX;-1.0;MAGY;-19.0;MAGZ;-5.0
MOT;0;1000.0;1;1000.0;2;1000.0;3;1000.0;4;0.0;5;0.0;6;0.0;7;0.0;
RC;ROLL;1495.0;PITCH;1517.0;YAW;1542.0;THROTTLE;1041.0;AUX1;1541.0;AUX2;1500.0;AUX3;1500.0;AUX4;1500.0
ALTITUDE;82.0
DEBUG;DEBUG1-99.0;DEBUG2;0.0;DEBUG3;82.0;DEBUG4;0.0
ATTITUDE;ANGX;11.0;ANGY;-4.0;HEAD;-167.0
STATUS;CYCLETIME;2904;I2CERR;0;PRESENT;23;MODE;0
RAW_IMU;AX;54.0;AY;-18.0;AZ;256.0;GX;-4.0;GY;-3.0;GZ;3.0;MAGX;-1.0;MAGY;-19.0;MAGZ;-5.0
MOT;0;1000.0;1;1000.0;2;1000.0;3;1000.0;4;0.0;5;0.0;6;0.0;7;0.0;
RC;ROLL;1479.0;PITCH;1524.0;YAW;1527.0;THROTTLE;1047.0;AUX1;1538.0;AUX2;1500.0;AUX3;1500.0;AUX4;1500.0
ALTITUDE;82.0
DEBUG;DEBUG1-99.0;DEBUG2;0.0;DEBUG3;82.0;DEBUG4;0.0
ATTITUDE;ANGX;10.0;ANGY;-4.0;HEAD;-167.0
STATUS;CYCLETIME;3032;I2CERR;0;PRESENT;23;MODE;0
RAW_IMU;AX;54.0;AY;-23.0;AZ;261.0;GX;2.0;GY;-3.0;GZ;-1.0;MAGX;-1.0;MAGY;-19.0;MAGZ;-4.0
MOT;0;1000.0;1;1000.0;2;1000.0;3;1000.0;4;0.0;5;0.0;6;0.0;7;0.0;
RC;ROLL;1494.0;PITCH;1522.0;YAW;1518.0;THROTTLE;1061.0;AUX1;1552.0;AUX2;1500.0;AUX3;1500.0;AUX4;1500.0
ALTITUDE;82.0
DEBUG;DEBUG1-99.0;DEBUG2;0.0;DEBUG3;82.0;DEBUG4;0.0
ATTITUDE;ANGX;10.0;ANGY;-5.0;HEAD;-167.0
STATUS;CYCLETIME;2904;I2CERR;0;PRESENT;23;MODE;0
RAW_IMU;AX;49.0;AY;-23.0;AZ;255.0;GX;11.0;GY;-1.0;GZ;-2.0;MAGX;-1.0;MAGY;-19.0;MAGZ;-4.0
MOT;0;1000.0;1;1000.0;2;1000.0;3;1000.0;4;0.0;5;0.0;6;0.0;7;0.0;
RC;ROLL;1503.0;PITCH;1517.0;YAW;1515.0;THROTTLE;1062.0;AUX1;1560.0;AUX2;1500.0;AUX3;1500.0;AUX4;1500.0
ALTITUDE;82.0
DEBUG;DEBUG1-99.0;DEBUG2;0.0;DEBUG3;82.0;DEBUG4;0.0
ATTITUDE;ANGX;11.0;ANGY;-5.0;HEAD;-168.0
STATUS;CYCLETIME;2904;I2CERR;0;PRESENT;23;MODE;0
RAW_IMU;AX;49.0;AY;-21.0;AZ;248.0;GX;18.0;GY;0.0;GZ;2.0;MAGX;-1.0;MAGY;-19.0;MAGZ;-5.0
MOT;0;1000.0;1;1000.0;2;1000.0;3;1000.0;4;0.0;5;0.0;6;0.0;7;0.0;
RC;ROLL;1501.0;PITCH;1519.0;YAW;1531.0;THROTTLE;1046.0;AUX1;1541.0;AUX2;1500.0;AUX3;1500.0;AUX4;1500.0
ALTITUDE;82.0
DEBUG;DEBUG1-99.0;DEBUG2;0.0;DEBUG3;82.0;DEBUG4;0.0
ATTITUDE;ANGX;13.0;ANGY;-5.0;HEAD;-167.0
STATUS;CYCLETIME;2916;I2CERR;0;PRESENT;23;MODE;0
RAW_IMU;AX;56.0;AY;-19.0;AZ;249.0;GX;18.0;GY;0.0;GZ;1.0;MAGX;-1.0;MAGY;-19.0;MAGZ;-5.0
MOT;0;1000.0;1;1000.0;2;1000.0;3;1000.0;4;0.0;5;0.0;6;0.0;7;0.0;
RC;ROLL;1501.0;PITCH;1519.0;YAW;1528.0;THROTTLE;1046.0;AUX1;1534.0;AUX2;1500.0;AUX3;1500.0;AUX4;1500.0
ALTITUDE;82.0
DEBUG;DEBUG1-99.0;DEBUG2;0.0;DEBUG3;82.0;DEBUG4;0.0
ATTITUDE;ANGX;15.0;ANGY;-5.0;HEAD;-166.0
STATUS;CYCLETIME;2904;I2CERR;0;PRESENT;23;MODE;0
RAW_IMU;AX;63.0;AY;-19.0;AZ;250.0;GX;16.0;GY;0.0;GZ;0.0;MAGX;0.0;MAGY;-19.0;MAGZ;-5.0
MOT;0;1000.0;1;1000.0;2;1000.0;3;1000.0;4;0.0;5;0.0;6;0.0;7;0.0;
RC;ROLL;1506.0;PITCH;1517.0;YAW;1519.0;THROTTLE;1056.0;AUX1;1534.0;AUX2;1500.0;AUX3;1500.0;AUX4;1500.0
ALTITUDE;82.0
DEBUG;DEBUG1-99.0;DEBUG2;0.0;DEBUG3;82.0;DEBUG4;0.0
ATTITUDE;ANGX;17.0;ANGY;-5.0;HEAD;-167.0
STATUS;CYCLETIME;2924;I2CERR;0;PRESENT;23;MODE;0
RAW_IMU;AX;66.0;AY;-21.0;AZ;250.0;GX;10.0;GY;-1.0;GZ;2.0;MAGX;0.0;MAGY;-19.0;MAGZ;-5.0
MOT;0;1000.0;1;1000.0;2;1000.0;3;1000.0;4;0.0;5;0.0;6;0.0;7;0.0;
RC;ROLL;1504.0;PITCH;1514.0;YAW;1517.0;THROTTLE;1064.0;AUX1;1546.0;AUX2;1500.0;AUX3;1500.0;AUX4;1500.0
ALTITUDE;82.0
DEBUG;DEBUG1-99.0;DEBUG2;0.0;DEBUG3;82.0;DEBUG4;0.0
ATTITUDE;ANGX;18.0;ANGY;-5.0;HEAD;-166.0
STATUS;CYCLETIME;3020;I2CERR;0;PRESENT;23;MODE;0
RAW_IMU;AX;68.0;AY;-19.0;AZ;245.0;GX;4.0;GY;-1.0;GZ;1.0;MAGX;-1.0;MAGY;-19.0;MAGZ;-5.0
MOT;0;1000.0;1;1000.0;2;1000.0;3;1000.0;4;0.0;5;0.0;6;0.0;7;0.0;
RC;ROLL;1504.0;PITCH;1517.0;YAW;1522.0;THROTTLE;1058.0;AUX1;1546.0;AUX2;1500.0;AUX3;1500.0;AUX4;1500.0
ALTITUDE;82.0
DEBUG;DEBUG1-99.0;DEBUG2;0.0;DEBUG3;82.0;DEBUG4;0.0
ATTITUDE;ANGX;19.0;ANGY;-5.0;HEAD;-166.0
STATUS;CYCLETIME;2916;I2CERR;0;PRESENT;23;MODE;0
RAW_IMU;AX;66.0;AY;-18.0;AZ;244.0;GX;-2.0;GY;1.0;GZ;0.0;MAGX;-1.0;MAGY;-19.0;MAGZ;-5.0
MOT;0;1000.0;1;1000.0;2;1000.0;3;1000.0;4;0.0;5;0.0;6;0.0;7;0.0;
RC;ROLL;1500.0;PITCH;1523.0;YAW;1522.0;THROTTLE;1058.0;AUX1;1541.0;AUX2;1500.0;AUX3;1500.0;AUX4;1500.0
ALTITUDE;82.0
DEBUG;DEBUG1-99.0;DEBUG2;0.0;DEBUG3;82.0;DEBUG4;0.0
ATTITUDE;ANGX;19.0;ANGY;-5.0;HEAD;-166.0
STATUS;CYCLETIME;2900;I2CERR;0;PRESENT;23;MODE;0
RAW_IMU;AX;68.0;AY;-17.0;AZ;239.0;GX;-9.0;GY;0.0;GZ;0.0;MAGX;-1.0;MAGY;-19.0;MAGZ;-6.0
MOT;0;1000.0;1;1000.0;2;1000.0;3;1000.0;4;0.0;5;0.0;6;0.0;7;0.0;
RC;ROLL;1493.0;PITCH;1532.0;YAW;1522.0;THROTTLE;1058.0;AUX1;1529.0;AUX2;1500.0;AUX3;1500.0;AUX4;1500.0
ALTITUDE;82.0
DEBUG;DEBUG1-99.0;DEBUG2;0.0;DEBUG3;82.0;DEBUG4;0.0
ATTITUDE;ANGX;18.0;ANGY;-5.0;HEAD;-167.0
STATUS;CYCLETIME;2892;I2CERR;0;PRESENT;23;MODE;0
RAW_IMU;AX;67.0;AY;-18.0;AZ;246.0;GX;-14.0;GY;0.0;GZ;0.0;MAGX;-1.0;MAGY;-19.0;MAGZ;-6.0
MOT;0;1000.0;1;1000.0;2;1000.0;3;1000.0;4;0.0;5;0.0;6;0.0;7;0.0;
RC;ROLL;1493.0;PITCH;1527.0;YAW;1522.0;THROTTLE;1060.0;AUX1;1536.0;AUX2;1500.0;AUX3;1500.0;AUX4;1500.0
ALTITUDE;82.0
DEBUG;DEBUG1-99.0;DEBUG2;0.0;DEBUG3;82.0;DEBUG4;0.0
ATTITUDE;ANGX;16.0;ANGY;-5.0;HEAD;-166.0
STATUS;CYCLETIME;2952;I2CERR;0;PRESENT;23;MODE;0
RAW_IMU;AX;64.0;AY;-20.0;AZ;252.0;GX;-17.0;GY;0.0;GZ;0.0;MAGX;-1.0;MAGY;-19.0;MAGZ;-6.0
MOT;0;1000.0;1;1000.0;2;1000.0;3;1000.0;4;0.0;5;0.0;6;0.0;7;0.0;
RC;ROLL;1495.0;PITCH;1527.0;YAW;1520.0;THROTTLE;1055.0;AUX1;1538.0;AUX2;1500.0;AUX3;1500.0;AUX4;1500.0
ALTITUDE;82.0
DEBUG;DEBUG1-99.0;DEBUG2;0.0;DEBUG3;82.0;DEBUG4;0.0
ATTITUDE;ANGX;14.0;ANGY;-5.0;HEAD;-167.0
STATUS;CYCLETIME;3004;I2CERR;0;PRESENT;23;MODE;0
RAW_IMU;AX;60.0;AY;-23.0;AZ;251.0;GX;-16.0;GY;1.0;GZ;-1.0;MAGX;-1.0;MAGY;-19.0;MAGZ;-6.0
MOT;0;1000.0;1;1000.0;2;1000.0;3;1000.0;4;0.0;5;0.0;6;0.0;7;0.0;
RC;ROLL;1503.0;PITCH;1518.0;YAW;1529.0;THROTTLE;1055.0;AUX1;1536.0;AUX2;1500.0;AUX3;1500.0;AUX4;1500.0
ALTITUDE;82.0
DEBUG;DEBUG1-99.0;DEBUG2;0.0;DEBUG3;82.0;DEBUG4;0.0
ATTITUDE;ANGX;12.0;ANGY;-5.0;HEAD;-167.0
STATUS;CYCLETIME;2892;I2CERR;0;PRESENT;23;MODE;0
RAW_IMU;AX;56.0;AY;-22.0;AZ;250.0;GX;-11.0;GY;4.0;GZ;0.0;MAGX;0.0;MAGY;-19.0;MAGZ;-5.0
MOT;0;1000.0;1;1000.0;2;1000.0;3;1000.0;4;0.0;5;0.0;6;0.0;7;0.0;
RC;ROLL;1500.0;PITCH;1518.0;YAW;1525.0;THROTTLE;1058.0;AUX1;1536.0;AUX2;1500.0;AUX3;1500.0;AUX4;1500.0
ALTITUDE;82.0
DEBUG;DEBUG1-99.0;DEBUG2;0.0;DEBUG3;82.0;DEBUG4;0.0
ATTITUDE;ANGX;11.0;ANGY;-4.0;HEAD;-167.0
STATUS;CYCLETIME;2912;I2CERR;0;PRESENT;23;MODE;0
RAW_IMU;AX;57.0;AY;-18.0;AZ;251.0;GX;-7.0;GY;4.0;GZ;-1.0;MAGX;0.0;MAGY;-19.0;MAGZ;-5.0
MOT;0;1000.0;1;1000.0;2;1000.0;3;1000.0;4;0.0;5;0.0;6;0.0;7;0.0;
RC;ROLL;1502.0;PITCH;1511.0;YAW;1523.0;THROTTLE;1062.0;AUX1;1536.0;AUX2;1500.0;AUX3;1500.0;AUX4;1500.0
ALTITUDE;82.0
DEBUG;DEBUG1-99.0;DEBUG2;0.0;DEBUG3;82.0;DEBUG4;0.0
ATTITUDE;ANGX;10.0;ANGY;-4.0;HEAD;-167.0
STATUS;CYCLETIME;3052;I2CERR;0;PRESENT;23;MODE;0
RAW_IMU;AX;57.0;AY;-15.0;AZ;250.0;GX;-4.0;GY;1.0;GZ;-1.0;MAGX;-1.0;MAGY;-18.0;MAGZ;-4.0
MOT;0;1000.0;1;1000.0;2;1000.0;3;1000.0;4;0.0;5;0.0;6;0.0;7;0.0;
RC;ROLL;1502.0;PITCH;1513.0;YAW;1523.0;THROTTLE;1062.0;AUX1;1541.0;AUX2;1500.0;AUX3;1500.0;AUX4;1500.0
ALTITUDE;82.0
DEBUG;DEBUG1-99.0;DEBUG2;0.0;DEBUG3;82.0;DEBUG4;0.0
ATTITUDE;ANGX;9.0;ANGY;-4.0;HEAD;-167.0
STATUS;CYCLETIME;2900;I2CERR;0;PRESENT;23;MODE;0
RAW_IMU;AX;58.0;AY;-16.0;AZ;247.0;GX;-1.0;GY;-1.0;GZ;0.0;MAGX;-1.0;MAGY;-18.0;MAGZ;-4.0
MOT;0;1000.0;1;1000.0;2;1000.0;3;1000.0;4;0.0;5;0.0;6;0.0;7;0.0;
RC;ROLL;1502.0;PITCH;1516.0;YAW;1520.0;THROTTLE;1059.0;AUX1;1544.0;AUX2;1500.0;AUX3;1500.0;AUX4;1500.0
ALTITUDE;82.0
DEBUG;DEBUG1-99.0;DEBUG2;0.0;DEBUG3;82.0;DEBUG4;0.0
ATTITUDE;ANGX;9.0;ANGY;-4.0;HEAD;-167.0
STATUS;CYCLETIME;2892;I2CERR;0;PRESENT;23;MODE;0
RAW_IMU;AX;60.0;AY;-19.0;AZ;246.0;GX;1.0;GY;-2.0;GZ;0.0;MAGX;-1.0;MAGY;-18.0;MAGZ;-4.0
MOT;0;1000.0;1;1000.0;2;1000.0;3;1000.0;4;0.0;5;0.0;6;0.0;7;0.0;
RC;ROLL;1502.0;PITCH;1520.0;YAW;1518.0;THROTTLE;1059.0;AUX1;1536.0;AUX2;1500.0;AUX3;1500.0;AUX4;1500.0
ALTITUDE;82.0
DEBUG;DEBUG1-99.0;DEBUG2;0.0;DEBUG3;82.0;DEBUG4;0.0
ATTITUDE;ANGX;9.0;ANGY;-4.0;HEAD;-167.0
STATUS;CYCLETIME;3008;I2CERR;0;PRESENT;23;MODE;0
RAW_IMU;AX;58.0;AY;-18.0;AZ;247.0;GX;4.0;GY;-2.0;GZ;1.0;MAGX;-1.0;MAGY;-18.0;MAGZ;-4.0
MOT;0;1000.0;1;1000.0;2;1000.0;3;1000.0;4;0.0;5;0.0;6;0.0;7;0.0;
RC;ROLL;1499.0;PITCH;1526.0;YAW;1521.0;THROTTLE;1059.0;AUX1;1532.0;AUX2;1500.0;AUX3;1500.0;AUX4;1500.0
ALTITUDE;82.0
DEBUG;DEBUG1-99.0;DEBUG2;0.0;DEBUG3;82.0;DEBUG4;0.0
ATTITUDE;ANGX;10.0;ANGY;-4.0;HEAD;-167.0
STATUS;CYCLETIME;2912;I2CERR;0;PRESENT;23;MODE;0
RAW_IMU;AX;57.0;AY;-18.0;AZ;246.0;GX;9.0;GY;0.0;GZ;2.0;MAGX;-1.0;MAGY;-18.0;MAGZ;-4.0
MOT;0;1000.0;1;1000.0;2;1000.0;3;1000.0;4;0.0;5;0.0;6;0.0;7;0.0;
RC;ROLL;1492.0;PITCH;1523.0;YAW;1518.0;THROTTLE;1059.0;AUX1;1537.0;AUX2;1500.0;AUX3;1500.0;AUX4;1500.0
ALTITUDE;82.0
DEBUG;DEBUG1-99.0;DEBUG2;0.0;DEBUG3;82.0;DEBUG4;0.0
ATTITUDE;ANGX;11.0;ANGY;-4.0;HEAD;-168.0
STATUS;CYCLETIME;2932;I2CERR;0;PRESENT;23;MODE;0
RAW_IMU;AX;54.0;AY;-18.0;AZ;249.0;GX;13.0;GY;0.0;GZ;1.0;MAGX;-1.0;MAGY;-19.0;MAGZ;-4.0
MOT;0;1000.0;1;1000.0;2;1000.0;3;1000.0;4;0.0;5;0.0;6;0.0;7;0.0;
RC;ROLL;1493.0;PITCH;1521.0;YAW;1516.0;THROTTLE;1061.0;AUX1;1539.0;AUX2;1500.0;AUX3;1500.0;AUX4;1500.0
ALTITUDE;82.0
DEBUG;DEBUG1-99.0;DEBUG2;0.0;DEBUG3;82.0;DEBUG4;0.0
ATTITUDE;ANGX;12.0;ANGY;-4.0;HEAD;-168.0
STATUS;CYCLETIME;3024;I2CERR;0;PRESENT;23;MODE;0
RAW_IMU;AX;59.0;AY;-16.0;AZ;248.0;GX;16.0;GY;-1.0;GZ;0.0;MAGX;-1.0;MAGY;-19.0;MAGZ;-4.0
MOT;0;1000.0;1;1000.0;2;1000.0;3;1000.0;4;0.0;5;0.0;6;0.0;7;0.0;
RC;ROLL;1499.0;PITCH;1517.0;YAW;1516.0;THROTTLE;1061.0;AUX1;1537.0;AUX2;1500.0;AUX3;1500.0;AUX4;1500.0
ALTITUDE;82.0
DEBUG;DEBUG1-99.0;DEBUG2;0.0;DEBUG3;82.0;DEBUG4;0.0
ATTITUDE;ANGX;14.0;ANGY;-4.0;HEAD;-167.0
STATUS;CYCLETIME;2888;I2CERR;0;PRESENT;23;MODE;0
RAW_IMU;AX;59.0;AY;-15.0;AZ;248.0;GX;14.0;GY;-3.0;GZ;0.0;MAGX;-1.0;MAGY;-18.0;MAGZ;-4.0
MOT;0;1000.0;1;1000.0;2;1000.0;3;1000.0;4;0.0;5;0.0;6;0.0;7;0.0;
RC;ROLL;1499.0;PITCH;1517.0;YAW;1518.0;THROTTLE;1059.0;AUX1;1537.0;AUX2;1500.0;AUX3;1500.0;AUX4;1500.0
ALTITUDE;82.0
DEBUG;DEBUG1-99.0;DEBUG2;0.0;DEBUG3;82.0;DEBUG4;0.0
ATTITUDE;ANGX;16.0;ANGY;-4.0;HEAD;-168.0
STATUS;CYCLETIME;2900;I2CERR;0;PRESENT;23;MODE;0
RAW_IMU;AX;64.0;AY;-20.0;AZ;247.0;GX;10.0;GY;-3.0;GZ;1.0;MAGX;-1.0;MAGY;-18.0;MAGZ;-4.0
MOT;0;1000.0;1;1000.0;2;1000.0;3;1000.0;4;0.0;5;0.0;6;0.0;7;0.0;
RC;ROLL;1507.0;PITCH;1517.0;YAW;1518.0;THROTTLE;1056.0;AUX1;1546.0;AUX2;1500.0;AUX3;1500.0;AUX4;1500.0
ALTITUDE;82.0
DEBUG;DEBUG1-99.0;DEBUG2;0.0;DEBUG3;82.0;DEBUG4;0.0
ATTITUDE;ANGX;17.0;ANGY;-5.0;HEAD;-167.0
STATUS;CYCLETIME;2948;I2CERR;0;PRESENT;23;MODE;0
RAW_IMU;AX;70.0;AY;-21.0;AZ;249.0;GX;4.0;GY;0.0;GZ;0.0;MAGX;-1.0;MAGY;-20.0;MAGZ;-5.0
MOT;0;1000.0;1;1000.0;2;1000.0;3;1000.0;4;0.0;5;0.0;6;0.0;7;0.0;
RC;ROLL;1510.0;PITCH;1514.0;YAW;1518.0;THROTTLE;1056.0;AUX1;1546.0;AUX2;1500.0;AUX3;1500.0;AUX4;1500.0
ALTITUDE;82.0
DEBUG;DEBUG1-99.0;DEBUG2;0.0;DEBUG3;82.0;DEBUG4;0.0
ATTITUDE;ANGX;18.0;ANGY;-5.0;HEAD;-167.0
STATUS;CYCLETIME;3064;I2CERR;0;PRESENT;23;MODE;0
RAW_IMU;AX;69.0;AY;-20.0;AZ;247.0;GX;-2.0;GY;2.0;GZ;0.0;MAGX;-1.0;MAGY;-20.0;MAGZ;-5.0
MOT;0;1000.0;1;1000.0;2;1000.0;3;1000.0;4;0.0;5;0.0;6;0.0;7;0.0;
RC;ROLL;1506.0;PITCH;1514.0;YAW;1516.0;THROTTLE;1060.0;AUX1;1546.0;AUX2;1500.0;AUX3;1500.0;AUX4;1500.0
ALTITUDE;82.0
DEBUG;DEBUG1-99.0;DEBUG2;0.0;DEBUG3;82.0;DEBUG4;0.0
ATTITUDE;ANGX;18.0;ANGY;-5.0;HEAD;-167.0
STATUS;CYCLETIME;2892;I2CERR;0;PRESENT;23;MODE;0
RAW_IMU;AX;66.0;AY;-19.0;AZ;247.0;GX;-7.0;GY;1.0;GZ;0.0;MAGX;-1.0;MAGY;-18.0;MAGZ;-6.0
MOT;0;1000.0;1;1000.0;2;1000.0;3;1000.0;4;0.0;5;0.0;6;0.0;7;0.0;
RC;ROLL;1494.0;PITCH;1523.0;YAW;1522.0;THROTTLE;1049.0;AUX1;1546.0;AUX2;1500.0;AUX3;1500.0;AUX4;1500.0
ALTITUDE;82.0
DEBUG;DEBUG1-99.0;DEBUG2;0.0;DEBUG3;82.0;DEBUG4;0.0
ATTITUDE;ANGX;17.0;ANGY;-4.0;HEAD;-167.0
STATUS;CYCLETIME;2908;I2CERR;0;PRESENT;23;MODE;0
RAW_IMU;AX;66.0;AY;-19.0;AZ;246.0;GX;-12.0;GY;0.0;GZ;-1.0;MAGX;-1.0;MAGY;-18.0;MAGZ;-6.0
MOT;0;1000.0;1;1000.0;2;1000.0;3;1000.0;4;0.0;5;0.0;6;0.0;7;0.0;
RC;ROLL;1496.0;PITCH;1523.0;YAW;1517.0;THROTTLE;1060.0;AUX1;1539.0;AUX2;1500.0;AUX3;1500.0;AUX4;1500.0
ALTITUDE;82.0
DEBUG;DEBUG1-99.0;DEBUG2;0.0;DEBUG3;82.0;DEBUG4;0.0
ATTITUDE;ANGX;16.0;ANGY;-4.0;HEAD;-168.0
STATUS;CYCLETIME;2896;I2CERR;0;PRESENT;23;MODE;0
RAW_IMU;AX;62.0;AY;-20.0;AZ;246.0;GX;-13.0;GY;0.0;GZ;0.0;MAGX;-1.0;MAGY;-19.0;MAGZ;-5.0
MOT;0;1000.0;1;1000.0;2;1000.0;3;1000.0;4;0.0;5;0.0;6;0.0;7;0.0;
RC;ROLL;1506.0;PITCH;1517.0;YAW;1517.0;THROTTLE;1062.0;AUX1;1544.0;AUX2;1500.0;AUX3;1500.0;AUX4;1500.0
ALTITUDE;82.0
DEBUG;DEBUG1-99.0;DEBUG2;0.0;DEBUG3;82.0;DEBUG4;0.0
ATTITUDE;ANGX;14.0;ANGY;-4.0;HEAD;-168.0
STATUS;CYCLETIME;3024;I2CERR;0;PRESENT;23;MODE;0
RAW_IMU;AX;58.0;AY;-24.0;AZ;247.0;GX;-12.0;GY;1.0;GZ;-1.0;MAGX;-1.0;MAGY;-19.0;MAGZ;-5.0
MOT;0;1000.0;1;1000.0;2;1000.0;3;1000.0;4;0.0;5;0.0;6;0.0;7;0.0;
RC;ROLL;1510.0;PITCH;1517.0;YAW;1517.0;THROTTLE;1058.0;AUX1;1542.0;AUX2;1500.0;AUX3;1500.0;AUX4;1500.0
ALTITUDE;82.0
DEBUG;DEBUG1-99.0;DEBUG2;0.0;DEBUG3;82.0;DEBUG4;0.0
ATTITUDE;ANGX;12.0;ANGY;-4.0;HEAD;-169.0
STATUS;CYCLETIME;2960;I2CERR;0;PRESENT;23;MODE;0
RAW_IMU;AX;57.0;AY;-22.0;AZ;250.0;GX;-10.0;GY;1.0;GZ;-1.0;MAGX;-1.0;MAGY;-19.0;MAGZ;-3.0
MOT;0;1000.0;1;1000.0;2;1000.0;3;1000.0;4;0.0;5;0.0;6;0.0;7;0.0;
RC;ROLL;1510.0;PITCH;1519.0;YAW;1519.0;THROTTLE;1056.0;AUX1;1538.0;AUX2;1500.0;AUX3;1500.0;AUX4;1500.0
ALTITUDE;82.0
DEBUG;DEBUG1-99.0;DEBUG2;0.0;DEBUG3;82.0;DEBUG4;0.0
ATTITUDE;ANGX;11.0;ANGY;-4.0;HEAD;-168.0
STATUS;CYCLETIME;2912;I2CERR;0;PRESENT;23;MODE;0
RAW_IMU;AX;57.0;AY;-21.0;AZ;252.0;GX;-7.0;GY;0.0;GZ;0.0;MAGX;-1.0;MAGY;-19.0;MAGZ;-3.0
MOT;0;1000.0;1;1000.0;2;1000.0;3;1000.0;4;0.0;5;0.0;6;0.0;7;0.0;
RC;ROLL;1506.0;PITCH;1519.0;YAW;1517.0;THROTTLE;1058.0;AUX1;1543.0;AUX2;1500.0;AUX3;1500.0;AUX4;1500.0
ALTITUDE;82.0
DEBUG;DEBUG1-99.0;DEBUG2;0.0;DEBUG3;82.0;DEBUG4;0.0
ATTITUDE;ANGX;10.0;ANGY;-4.0;HEAD;-168.0
STATUS;CYCLETIME;3016;I2CERR;0;PRESENT;23;MODE;0
RAW_IMU;AX;56.0;AY;-21.0;AZ;251.0;GX;-3.0;GY;0.0;GZ;0.0;MAGX;-1.0;MAGY;-19.0;MAGZ;-4.0
MOT;0;1000.0;1;1000.0;2;1000.0;3;1000.0;4;0.0;5;0.0;6;0.0;7;0.0;
RC;ROLL;1496.0;PITCH;1526.0;YAW;1517.0;THROTTLE;1060.0;AUX1;1533.0;AUX2;1500.0;AUX3;1500.0;AUX4;1500.0
ALTITUDE;82.0
DEBUG;DEBUG1-99.0;DEBUG2;0.0;DEBUG3;82.0;DEBUG4;0.0
ATTITUDE;ANGX;10.0;ANGY;-4.0;HEAD;-168.0
STATUS;CYCLETIME;2916;I2CERR;0;PRESENT;23;MODE;0
RAW_IMU;AX;57.0;AY;-21.0;AZ;249.0;GX;0.0;GY;0.0;GZ;-1.0;MAGX;-1.0;MAGY;-19.0;MAGZ;-4.0
MOT;0;1000.0;1;1000.0;2;1000.0;3;1000.0;4;0.0;5;0.0;6;0.0;7;0.0;
RC;ROLL;1496.0;PITCH;1524.0;YAW;1519.0;THROTTLE;1060.0;AUX1;1538.0;AUX2;1500.0;AUX3;1500.0;AUX4;1500.0
ALTITUDE;82.0
DEBUG;DEBUG1-99.0;DEBUG2;0.0;DEBUG3;82.0;DEBUG4;0.0
ATTITUDE;ANGX;10.0;ANGY;-4.0;HEAD;-168.0
STATUS;CYCLETIME;2960;I2CERR;0;PRESENT;23;MODE;0
RAW_IMU;AX;58.0;AY;-18.0;AZ;248.0;GX;3.0;GY;0.0;GZ;0.0;MAGX;0.0;MAGY;-18.0;MAGZ;-4.0
MOT;0;1000.0;1;1000.0;2;1000.0;3;1000.0;4;0.0;5;0.0;6;0.0;7;0.0;
RC;ROLL;1509.0;PITCH;1518.0;YAW;1511.0;THROTTLE;1058.0;AUX1;1546.0;AUX2;1500.0;AUX3;1500.0;AUX4;1500.0
ALTITUDE;82.0
DEBUG;DEBUG1-99.0;DEBUG2;0.0;DEBUG3;82.0;DEBUG4;0.0
ATTITUDE;ANGX;10.0;ANGY;-4.0;HEAD;-168.0
STATUS;CYCLETIME;2928;I2CERR;0;PRESENT;23;MODE;0
RAW_IMU;AX;57.0;AY;-22.0;AZ;248.0;GX;5.0;GY;0.0;GZ;0.0;MAGX;0.0;MAGY;-18.0;MAGZ;-4.0
MOT;0;1000.0;1;1000.0;2;1000.0;3;1000.0;4;0.0;5;0.0;6;0.0;7;0.0;
RC;ROLL;1509.0;PITCH;1518.0;YAW;1511.0;THROTTLE;1058.0;AUX1;1542.0;AUX2;1500.0;AUX3;1500.0;AUX4;1500.0
ALTITUDE;82.0
DEBUG;DEBUG1-99.0;DEBUG2;0.0;DEBUG3;82.0;DEBUG4;0.0
ATTITUDE;ANGX;11.0;ANGY;-4.0;HEAD;-168.0
STATUS;CYCLETIME;3172;I2CERR;0;PRESENT;23;MODE;0
RAW_IMU;AX;63.0;AY;-20.0;AZ;250.0;GX;3.0;GY;0.0;GZ;-1.0;MAGX;0.0;MAGY;-19.0;MAGZ;-4.0
MOT;0;1000.0;1;1000.0;2;1000.0;3;1000.0;4;0.0;5;0.0;6;0.0;7;0.0;
RC;ROLL;1505.0;PITCH;1518.0;YAW;1522.0;THROTTLE;1058.0;AUX1;1542.0;AUX2;1500.0;AUX3;1500.0;AUX4;1500.0
ALTITUDE;82.0
DEBUG;DEBUG1-99.0;DEBUG2;0.0;DEBUG3;82.0;DEBUG4;0.0
ATTITUDE;ANGX;12.0;ANGY;-4.0;HEAD;190.0
STATUS;CYCLETIME;2900;I2CERR;0;PRESENT;23;MODE;0
RAW_IMU;AX;61.0;AY;-21.0;AZ;249.0;GX;2.0;GY;-1.0;GZ;0.0;MAGX;0.0;MAGY;-19.0;MAGZ;-4.0
MOT;0;1000.0;1;1000.0;2;1000.0;3;1000.0;4;0.0;5;0.0;6;0.0;7;0.0;
RC;ROLL;1505.0;PITCH;1518.0;YAW;1528.0;THROTTLE;1053.0;AUX1;1546.0;AUX2;1500.0;AUX3;1500.0;AUX4;1500.0
ALTITUDE;82.0
DEBUG;DEBUG1-99.0;DEBUG2;0.0;DEBUG3;82.0;DEBUG4;0.0
ATTITUDE;ANGX;12.0;ANGY;-4.0;HEAD;-169.0
STATUS;CYCLETIME;2896;I2CERR;0;PRESENT;23;MODE;0
RAW_IMU;AX;59.0;AY;-22.0;AZ;247.0;GX;2.0;GY;-1.0;GZ;2.0;MAGX;0.0;MAGY;-19.0;MAGZ;-4.0
MOT;0;1000.0;1;1000.0;2;1000.0;3;1000.0;4;0.0;5;0.0;6;0.0;7;0.0;
RC;ROLL;1507.0;PITCH;1520.0;YAW;1521.0;THROTTLE;1050.0;AUX1;1542.0;AUX2;1500.0;AUX3;1500.0;AUX4;1500.0
ALTITUDE;82.0
DEBUG;DEBUG1-99.0;DEBUG2;0.0;DEBUG3;82.0;DEBUG4;0.0
ATTITUDE;ANGX;12.0;ANGY;-4.0;HEAD;-168.0
STATUS;CYCLETIME;2944;I2CERR;0;PRESENT;23;MODE;0
RAW_IMU;AX;58.0;AY;-24.0;AZ;250.0;GX;4.0;GY;0.0;GZ;-1.0;MAGX;0.0;MAGY;-19.0;MAGZ;-4.0
MOT;0;1000.0;1;1000.0;2;1000.0;3;1000.0;4;0.0;5;0.0;6;0.0;7;0.0;
RC;ROLL;1507.0;PITCH;1532.0;YAW;1521.0;THROTTLE;1046.0;AUX1;1542.0;AUX2;1500.0;AUX3;1500.0;AUX4;1500.0
ALTITUDE;82.0
DEBUG;DEBUG1-99.0;DEBUG2;0.0;DEBUG3;82.0;DEBUG4;0.0
ATTITUDE;ANGX;13.0;ANGY;-4.0;HEAD;-168.0
STATUS;CYCLETIME;2892;I2CERR;0;PRESENT;23;MODE;0
RAW_IMU;AX;55.0;AY;-23.0;AZ;249.0;GX;6.0;GY;0.0;GZ;-1.0;MAGX;0.0;MAGY;-19.0;MAGZ;-4.0
MOT;0;1000.0;1;1000.0;2;1000.0;3;1000.0;4;0.0;5;0.0;6;0.0;7;0.0;
RC;ROLL;1509.0;PITCH;1525.0;YAW;1531.0;THROTTLE;1041.0;AUX1;1545.0;AUX2;1500.0;AUX3;1500.0;AUX4;1500.0
ALTITUDE;82.0
DEBUG;DEBUG1-99.0;DEBUG2;0.0;DEBUG3;82.0;DEBUG4;0.0
ATTITUDE;ANGX;13.0;ANGY;-4.0;HEAD;-168.0
STATUS;CYCLETIME;2888;I2CERR;0;PRESENT;23;MODE;0
RAW_IMU;AX;54.0;AY;-22.0;AZ;251.0;GX;8.0;GY;-1.0;GZ;1.0;MAGX;-1.0;MAGY;-19.0;MAGZ;-5.0
MOT;0;1000.0;1;1000.0;2;1000.0;3;1000.0;4;0.0;5;0.0;6;0.0;7;0.0;
RC;ROLL;1507.0;PITCH;1518.0;YAW;1531.0;THROTTLE;1041.0;AUX1;1547.0;AUX2;1500.0;AUX3;1500.0;AUX4;1500.0
ALTITUDE;82.0
DEBUG;DEBUG1-99.0;DEBUG2;0.0;DEBUG3;82.0;DEBUG4;0.0
ATTITUDE;ANGX;14.0;ANGY;-4.0;HEAD;-168.0
STATUS;CYCLETIME;2892;I2CERR;0;PRESENT;23;MODE;0
RAW_IMU;AX;61.0;AY;-21.0;AZ;252.0;GX;8.0;GY;0.0;GZ;0.0;MAGX;-1.0;MAGY;-19.0;MAGZ;-5.0
MOT;0;1000.0;1;1000.0;2;1000.0;3;1000.0;4;0.0;5;0.0;6;0.0;7;0.0;
RC;ROLL;1504.0;PITCH;1521.0;YAW;1518.0;THROTTLE;1056.0;AUX1;1543.0;AUX2;1500.0;AUX3;1500.0;AUX4;1500.0
ALTITUDE;82.0
DEBUG;DEBUG1-99.0;DEBUG2;0.0;DEBUG3;82.0;DEBUG4;0.0
ATTITUDE;ANGX;15.0;ANGY;-4.0;HEAD;-168.0
STATUS;CYCLETIME;3012;I2CERR;0;PRESENT;23;MODE;0
RAW_IMU;AX;62.0;AY;-21.0;AZ;247.0;GX;5.0;GY;0.0;GZ;-3.0;MAGX;-1.0;MAGY;-19.0;MAGZ;-4.0
MOT;0;1000.0;1;1000.0;2;1000.0;3;1000.0;4;0.0;5;0.0;6;0.0;7;0.0;
RC;ROLL;1508.0;PITCH;1516.0;YAW;1518.0;THROTTLE;1059.0;AUX1;1544.0;AUX2;1500.0;AUX3;1500.0;AUX4;1500.0
ALTITUDE;82.0
DEBUG;DEBUG1-99.0;DEBUG2;0.0;DEBUG3;82.0;DEBUG4;0.0
ATTITUDE;ANGX;16.0;ANGY;-5.0;HEAD;-168.0
STATUS;CYCLETIME;2908;I2CERR;0;PRESENT;23;MODE;0
RAW_IMU;AX;64.0;AY;-19.0;AZ;243.0;GX;0.0;GY;0.0;GZ;-1.0;MAGX;-1.0;MAGY;-19.0;MAGZ;-4.0
MOT;0;1000.0;1;1000.0;2;1000.0;3;1000.0;4;0.0;5;0.0;6;0.0;7;0.0;
RC;ROLL;1508.0;PITCH;1516.0;YAW;1518.0;THROTTLE;1059.0;AUX1;1548.0;AUX2;1500.0;AUX3;1500.0;AUX4;1500.0
ALTITUDE;82.0
DEBUG;DEBUG1-99.0;DEBUG2;0.0;DEBUG3;82.0;DEBUG4;0.0
ATTITUDE;ANGX;16.0;ANGY;-5.0;HEAD;-169.0
STATUS;CYCLETIME;2896;I2CERR;0;PRESENT;23;MODE;0
RAW_IMU;AX;65.0;AY;-18.0;AZ;245.0;GX;-5.0;GY;-1.0;GZ;2.0;MAGX;0.0;MAGY;-19.0;MAGZ;-6.0
MOT;0;1000.0;1;1000.0;2;1000.0;3;1000.0;4;0.0;5;0.0;6;0.0;7;0.0;
RC;ROLL;1508.0;PITCH;1519.0;YAW;1518.0;THROTTLE;1059.0;AUX1;1544.0;AUX2;1500.0;AUX3;1500.0;AUX4;1500.0
ALTITUDE;82.0
DEBUG;DEBUG1-99.0;DEBUG2;0.0;DEBUG3;82.0;DEBUG4;0.0
ATTITUDE;ANGX;15.0;ANGY;-5.0;HEAD;-168.0
STATUS;CYCLETIME;3000;I2CERR;0;PRESENT;23;MODE;0
RAW_IMU;AX;67.0;AY;-18.0;AZ;249.0;GX;-10.0;GY;0.0;GZ;-1.0;MAGX;0.0;MAGY;-19.0;MAGZ;-6.0
MOT;0;1000.0;1;1000.0;2;1000.0;3;1000.0;4;0.0;5;0.0;6;0.0;7;0.0;
RC;ROLL;1504.0;PITCH;1521.0;YAW;1518.0;THROTTLE;1054.0;AUX1;1540.0;AUX2;1500.0;AUX3;1500.0;AUX4;1500.0
ALTITUDE;82.0
DEBUG;DEBUG1-99.0;DEBUG2;0.0;DEBUG3;82.0;DEBUG4;0.0
ATTITUDE;ANGX;14.0;ANGY;-5.0;HEAD;-168.0
STATUS;CYCLETIME;2888;I2CERR;0;PRESENT;23;MODE;0
RAW_IMU;AX;64.0;AY;-23.0;AZ;250.0;GX;-11.0;GY;3.0;GZ;-1.0;MAGX;-1.0;MAGY;-19.0;MAGZ;-4.0
MOT;0;1000.0;1;1000.0;2;1000.0;3;1000.0;4;0.0;5;0.0;6;0.0;7;0.0;
RC;ROLL;1504.0;PITCH;1521.0;YAW;1518.0;THROTTLE;1054.0;AUX1;1544.0;AUX2;1500.0;AUX3;1500.0;AUX4;1500.0
ALTITUDE;82.0
DEBUG;DEBUG1-99.0;DEBUG2;0.0;DEBUG3;82.0;DEBUG4;0.0
ATTITUDE;ANGX;13.0;ANGY;-4.0;HEAD;-169.0
STATUS;CYCLETIME;2912;I2CERR;0;PRESENT;23;MODE;0
RAW_IMU;AX;57.0;AY;-24.0;AZ;252.0;GX;-7.0;GY;3.0;GZ;3.0;MAGX;-1.0;MAGY;-19.0;MAGZ;-4.0
MOT;0;1000.0;1;1000.0;2;1000.0;3;1000.0;4;0.0;5;0.0;6;0.0;7;0.0;
