IDENT;V;220;TYPE;3
MSP_MOTOR_PINS
STATUS;CYCLETIME;2880;I2CERR;0;PRESENT;23;MODE;0
RAW_IMU;AX;4.0;AY;0.0;AZ;255.0;GX;0.0;GY;0.0;GZ;0.0;MAGX;86.0;MAGY;-70.0;MAGZ;-9.0
MOT;0;1000.0;1;1000.0;2;1000.0;3;1000.0;4;0.0;5;0.0;6;0.0;7;0.0;
RC;ROLL;1495.0;PITCH;1506.0;YAW;1509.0;THROTTLE;1056.0;AUX1;1680.0;AUX2;1500.0;AUX3;1500.0;AUX4;1500.0
ALTITUDE;0.0
DEBUG;DEBUG10.0;DEBUG2;0.0;DEBUG3;0.0;DEBUG4;0.0
ATTITUDE;ANGX;0.0;ANGY;1.0;HEAD;-118.0
STATUS;CYCLETIME;2828;I2CERR;0;PRESENT;23;MODE;0
RAW_IMU;AX;4.0;AY;-1.0;AZ;254.0;GX;0.0;GY;0.0;GZ;0.0;MAGX;86.0;MAGY;-70.0;MAGZ;-9.0
MOT;0;1000.0;1;1000.0;2;1000.0;3;1000.0;4;0.0;5;0.0;6;0.0;7;0.0;
RC;ROLL;1495.0;PITCH;1506.0;YAW;1509.0;THROTTLE;1056.0;AUX1;1680.0;AUX2;1500.0;AUX3;1500.0;AUX4;1500.0
ALTITUDE;0.0
DEBUG;DEBUG10.0;DEBUG2;0.0;DEBUG3;0.0;DEBUG4;0.0
ATTITUDE;ANGX;0.0;ANGY;1.0;HEAD;-118.0
STATUS;CYCLETIME;2808;I2CERR;0;PRESENT;23;MODE;0
RAW_IMU;AX;2.0;AY;2.0;AZ;256.0;GX;0.0;GY;0.0;GZ;0.0;MAGX;87.0;MAGY;-71.0;MAGZ;-9.0
MOT;0;1000.0;1;1000.0;2;1000.0;3;1000.0;4;0.0;5;0.0;6;0.0;7;0.0;
RC;ROLL;1495.0;PITCH;1506.0;YAW;1509.0;THROTTLE;1056.0;AUX1;1680.0;AUX2;1500.0;AUX3;1500.0;AUX4;1500.0
ALTITUDE;0.0
DEBUG;DEBUG10.0;DEBUG2;0.0;DEBUG3;0.0;DEBUG4;0.0
ATTITUDE;ANGX;0.0;ANGY;1.0;HEAD;-118.0
STATUS;CYCLETIME;2916;I2CERR;0;PRESENT;23;MODE;0
RAW_IMU;AX;0.0;AY;1.0;AZ;256.0;GX;0.0;GY;0.0;GZ;0.0;MAGX;87.0;MAGY;-71.0;MAGZ;-9.0
MOT;0;1000.0;1;1000.0;2;1000.0;3;1000.0;4;0.0;5;0.0;6;0.0;7;0.0;
RC;ROLL;1495.0;PITCH;1504.0;YAW;1509.0;THROTTLE;1058.0;AUX1;1680.0;AUX2;1500.0;AUX3;1500.0;AUX4;1500.0
ALTITUDE;0.0
DEBUG;DEBUG10.0;DEBUG2;0.0;DEBUG3;0.0;DEBUG4;0.0
ATTITUDE;ANGX;0.0;ANGY;1.0;HEAD;-118.0
STATUS;CYCLETIME;2868;I2CERR;0;PRESENT;23;MODE;0
RAW_IMU;AX;3.0;AY;2.0;AZ;258.0;GX;0.0;GY;0.0;GZ;0.0;MAGX;86.0;MAGY;-71.0;MAGZ;-10.0
MOT;0;1000.0;1;1000.0;2;1000.0;3;1000.0;4;0.0;5;0.0;6;0.0;7;0.0;
RC;ROLL;1497.0;PITCH;1504.0;YAW;1509.0;THROTTLE;1060.0;AUX1;1680.0;AUX2;1500.0;AUX3;1500.0;AUX4;1500.0
ALTITUDE;0.0
DEBUG;DEBUG10.0;DEBUG2;0.0;DEBUG3;0.0;DEBUG4;0.0
ATTITUDE;ANGX;0.0;ANGY;1.0;HEAD;-118.0
STATUS;CYCLETIME;2848;I2CERR;0;PRESENT;23;MODE;0
RAW_IMU;AX;1.0;AY;1.0;AZ;256.0;GX;0.0;GY;0.0;GZ;0.0;MAGX;86.0;MAGY;-71.0;MAGZ;-10.0
MOT;0;1000.0;1;1000.0;2;1000.0;3;1000.0;4;0.0;5;0.0;6;0.0;7;0.0;
RC;ROLL;1497.0;PITCH;1504.0;YAW;1509.0;THROTTLE;1060.0;AUX1;1680.0;AUX2;1500.0;AUX3;1500.0;AUX4;1500.0
ALTITUDE;0.0
DEBUG;DEBUG10.0;DEBUG2;0.0;DEBUG3;0.0;DEBUG4;0.0
ATTITUDE;ANGX;0.0;ANGY;1.0;HEAD;-118.0
STATUS;CYCLETIME;2796;I2CERR;0;PRESENT;23;MODE;0
RAW_IMU;AX;3.0;AY;2.0;AZ;256.0;GX;0.0;GY;0.0;GZ;0.0;MAGX;86.0;MAGY;-71.0;MAGZ;-9.0
MOT;0;1000.0;1;1000.0;2;1000.0;3;1000.0;4;0.0;5;0.0;6;0.0;7;0.0;
RC;ROLL;1497.0;PITCH;1501.0;YAW;1509.0;THROTTLE;1060.0;AUX1;1680.0;AUX2;1500.0;AUX3;1500.0;AUX4;1500.0
ALTITUDE;0.0
DEBUG;DEBUG10.0;DEBUG2;0.0;DEBUG3;0.0;DEBUG4;0.0
ATTITUDE;ANGX;0.0;ANGY;1.0;HEAD;-118.0
STATUS;CYCLETIME;2820;I2CERR;0;PRESENT;23;MODE;0
RAW_IMU;AX;2.0;AY;1.0;AZ;256.0;GX;0.0;GY;0.0;GZ;0.0;MAGX;86.0;MAGY;-71.0;MAGZ;-9.0
MOT;0;1000.0;1;1000.0;2;1000.0;3;1000.0;4;0.0;5;0.0;6;0.0;7;0.0;
RC;ROLL;1497.0;PITCH;1501.0;YAW;1509.0;THROTTLE;1060.0;AUX1;1680.0;AUX2;1500.0;AUX3;1500.0;AUX4;1500.0
ALTITUDE;0.0
DEBUG;DEBUG10.0;DEBUG2;0.0;DEBUG3;0.0;DEBUG4;0.0
ATTITUDE;ANGX;0.0;ANGY;1.0;HEAD;-118.0
STATUS;CYCLETIME;2816;I2CERR;0;PRESENT;23;MODE;0
RAW_IMU;AX;2.0;AY;1.0;AZ;256.0;GX;0.0;GY;0.0;GZ;0.0;MAGX;87.0;MAGY;-71.0;MAGZ;-10.0
MOT;0;1000.0;1;1000.0;2;1000.0;3;1000.0;4;0.0;5;0.0;6;0.0;7;0.0;
RC;ROLL;1497.0;PITCH;1501.0;YAW;1509.0;THROTTLE;1060.0;AUX1;1682.0;AUX2;1500.0;AUX3;1500.0;AUX4;1500.0
ALTITUDE;0.0
DEBUG;DEBUG10.0;DEBUG2;0.0;DEBUG3;0.0;DEBUG4;0.0
ATTITUDE;ANGX;0.0;ANGY;1.0;HEAD;-118.0
STATUS;CYCLETIME;2848;I2CERR;0;PRESENT;23;MODE;0
RAW_IMU;AX;4.0;AY;-2.0;AZ;256.0;GX;0.0;GY;0.0;GZ;0.0;MAGX;87.0;MAGY;-71.0;MAGZ;-10.0
MOT;0;1000.0;1;1000.0;2;1000.0;3;1000.0;4;0.0;5;0.0;6;0.0;7;0.0;
RC;ROLL;1497.0;PITCH;1501.0;YAW;1509.0;THROTTLE;1060.0;AUX1;1677.0;AUX2;1500.0;AUX3;1500.0;AUX4;1500.0
ALTITUDE;0.0
DEBUG;DEBUG10.0;DEBUG2;0.0;DEBUG3;0.0;DEBUG4;0.0
ATTITUDE;ANGX;0.0;ANGY;1.0;HEAD;-118.0
STATUS;CYCLETIME;3096;I2CERR;0;PRESENT;23;MODE;0
RAW_IMU;AX;2.0;AY;-1.0;AZ;258.0;GX;0.0;GY;0.0;GZ;0.0;MAGX;86.0;MAGY;-71.0;MAGZ;-9.0
MOT;0;1000.0;1;1000.0;2;1000.0;3;1000.0;4;0.0;5;0.0;6;0.0;7;0.0;
RC;ROLL;1497.0;PITCH;1501.0;YAW;1509.0;THROTTLE;1060.0;AUX1;1677.0;AUX2;1500.0;AUX3;1500.0;AUX4;1500.0
ALTITUDE;0.0
DEBUG;DEBUG10.0;DEBUG2;0.0;DEBUG3;0.0;DEBUG4;0.0
ATTITUDE;ANGX;0.0;ANGY;1.0;HEAD;-118.0
STATUS;CYCLETIME;2832;I2CERR;0;PRESENT;23;MODE;0
RAW_IMU;AX;2.0;AY;1.0;AZ;256.0;GX;0.0;GY;0.0;GZ;0.0;MAGX;86.0;MAGY;-71.0;MAGZ;-9.0
MOT;0;1000.0;1;1000.0;2;1000.0;3;1000.0;4;0.0;5;0.0;6;0.0;7;0.0;
RC;ROLL;1497.0;PITCH;1503.0;YAW;1509.0;THROTTLE;1057.0;AUX1;1680.0;AUX2;1500.0;AUX3;1500.0;AUX4;1500.0
ALTITUDE;0.0
DEBUG;DEBUG10.0;DEBUG2;0.0;DEBUG3;0.0;DEBUG4;0.0
ATTITUDE;ANGX;0.0;ANGY;1.0;HEAD;-118.0
STATUS;CYCLETIME;2800;I2CERR;0;PRESENT;23;MODE;0
RAW_IMU;AX;1.0;AY;1.0;AZ;258.0;GX;0.0;GY;0.0;GZ;0.0;MAGX;86.0;MAGY;-71.0;MAGZ;-9.0
MOT;0;1000.0;1;1000.0;2;1000.0;3;1000.0;4;0.0;5;0.0;6;0.0;7;0.0;
RC;ROLL;1497.0;PITCH;1503.0;YAW;1509.0;THROTTLE;1057.0;AUX1;1680.0;AUX2;1500.0;AUX3;1500.0;AUX4;1500.0
ALTITUDE;0.0
DEBUG;DEBUG10.0;DEBUG2;0.0;DEBUG3;0.0;DEBUG4;0.0
ATTITUDE;ANGX;0.0;ANGY;1.0;HEAD;-118.0
STATUS;CYCLETIME;2884;I2CERR;0;PRESENT;23;MODE;0
RAW_IMU;AX;2.0;AY;0.0;AZ;257.0;GX;0.0;GY;0.0;GZ;0.0;MAGX;86.0;MAGY;-72.0;MAGZ;-9.0
MOT;0;1000.0;1;1000.0;2;1000.0;3;1000.0;4;0.0;5;0.0;6;0.0;7;0.0;
RC;ROLL;1497.0;PITCH;1503.0;YAW;1509.0;THROTTLE;1057.0;AUX1;1680.0;AUX2;1500.0;AUX3;1500.0;AUX4;1500.0
ALTITUDE;0.0
DEBUG;DEBUG10.0;DEBUG2;0.0;DEBUG3;0.0;DEBUG4;0.0
ATTITUDE;ANGX;0.0;ANGY;1.0;HEAD;-118.0
STATUS;CYCLETIME;2780;I2CERR;0;PRESENT;23;MODE;0
RAW_IMU;AX;1.0;AY;-1.0;AZ;256.0;GX;0.0;GY;0.0;GZ;0.0;MAGX;86.0;MAGY;-72.0;MAGZ;-9.0
MOT;0;1000.0;1;1000.0;2;1000.0;3;1000.0;4;0.0;5;0.0;6;0.0;7;0.0;
RC;ROLL;1497.0;PITCH;1505.0;YAW;1509.0;THROTTLE;1057.0;AUX1;1680.0;AUX2;1500.0;AUX3;1500.0;AUX4;1500.0
ALTITUDE;0.0
DEBUG;DEBUG10.0;DEBUG2;0.0;DEBUG3;0.0;DEBUG4;0.0
ATTITUDE;ANGX;0.0;ANGY;1.0;HEAD;-118.0
STATUS;CYCLETIME;2940;I2CERR;0;PRESENT;23;MODE;0
RAW_IMU;AX;3.0;AY;1.0;AZ;258.0;GX;0.0;GY;0.0;GZ;0.0;MAGX;87.0;MAGY;-70.0;MAGZ;-9.0
MOT;0;1000.0;1;1000.0;2;1000.0;3;1000.0;4;0.0;5;0.0;6;0.0;7;0.0;
RC;ROLL;1497.0;PITCH;1505.0;YAW;1509.0;THROTTLE;1057.0;AUX1;1680.0;AUX2;1500.0;AUX3;1500.0;AUX4;1500.0
ALTITUDE;0.0
DEBUG;DEBUG10.0;DEBUG2;0.0;DEBUG3;0.0;DEBUG4;0.0
ATTITUDE;ANGX;0.0;ANGY;1.0;HEAD;-118.0
STATUS;CYCLETIME;2840;I2CERR;0;PRESENT;23;MODE;0
RAW_IMU;AX;1.0;AY;0.0;AZ;257.0;GX;0.0;GY;0.0;GZ;0.0;MAGX;87.0;MAGY;-70.0;MAGZ;-9.0
MOT;0;1000.0;1;1000.0;2;1000.0;3;1000.0;4;0.0;5;0.0;6;0.0;7;0.0;
RC;ROLL;1497.0;PITCH;1503.0;YAW;1509.0;THROTTLE;1059.0;AUX1;1680.0;AUX2;1500.0;AUX3;1500.0;AUX4;1500.0
ALTITUDE;0.0
DEBUG;DEBUG10.0;DEBUG2;0.0;DEBUG3;0.0;DEBUG4;0.0
ATTITUDE;ANGX;0.0;ANGY;1.0;HEAD;-118.0
STATUS;CYCLETIME;2816;I2CERR;0;PRESENT;23;MODE;0
RAW_IMU;AX;2.0;AY;1.0;AZ;255.0;GX;0.0;GY;0.0;GZ;0.0;MAGX;86.0;MAGY;-71.0;MAGZ;-9.0
MOT;0;1000.0;1;1000.0;2;1000.0;3;1000.0;4;0.0;5;0.0;6;0.0;7;0.0;
RC;ROLL;1497.0;PITCH;1501.0;YAW;1509.0;THROTTLE;1061.0;AUX1;1680.0;AUX2;1500.0;AUX3;1500.0;AUX4;1500.0
ALTITUDE;0.0
DEBUG;DEBUG10.0;DEBUG2;0.0;DEBUG3;0.0;DEBUG4;0.0
ATTITUDE;ANGX;0.0;ANGY;1.0;HEAD;-118.0
STATUS;CYCLETIME;2896;I2CERR;0;PRESENT;23;MODE;0
RAW_IMU;AX;2.0;AY;-1.0;AZ;259.0;GX;0.0;GY;0.0;GZ;0.0;MAGX;86.0;MAGY;-71.0;MAGZ;-9.0
MOT;0;1000.0;1;1000.0;2;1000.0;3;1000.0;4;0.0;5;0.0;6;0.0;7;0.0;
RC;ROLL;1497.0;PITCH;1503.0;YAW;1509.0;THROTTLE;1061.0;AUX1;1680.0;AUX2;1500.0;AUX3;1500.0;AUX4;1500.0
ALTITUDE;0.0
DEBUG;DEBUG10.0;DEBUG2;0.0;DEBUG3;0.0;DEBUG4;0.0
ATTITUDE;ANGX;0.0;ANGY;1.0;HEAD;-118.0
STATUS;CYCLETIME;2892;I2CERR;0;PRESENT;23;MODE;0
RAW_IMU;AX;2.0;AY;0.0;AZ;258.0;GX;0.0;GY;0.0;GZ;0.0;MAGX;87.0;MAGY;-71.0;MAGZ;-10.0
MOT;0;1000.0;1;1000.0;2;1000.0;3;1000.0;4;0.0;5;0.0;6;0.0;7;0.0;
RC;ROLL;1497.0;PITCH;1503.0;YAW;1509.0;THROTTLE;1061.0;AUX1;1680.0;AUX2;1500.0;AUX3;1500.0;AUX4;1500.0
ALTITUDE;0.0
DEBUG;DEBUG10.0;DEBUG2;0.0;DEBUG3;0.0;DEBUG4;0.0
ATTITUDE;ANGX;0.0;ANGY;1.0;HEAD;-118.0
STATUS;CYCLETIME;2776;I2CERR;0;PRESENT;23;MODE;0
RAW_IMU;AX;2.0;AY;0.0;AZ;258.0;GX;0.0;GY;0.0;GZ;0.0;MAGX;87.0;MAGY;-71.0;MAGZ;-10.0
MOT;0;1000.0;1;1000.0;2;1000.0;3;1000.0;4;0.0;5;0.0;6;0.0;7;0.0;
RC;ROLL;1497.0;PITCH;1503.0;YAW;1509.0;THROTTLE;1061.0;AUX1;1677.0;AUX2;1500.0;AUX3;1500.0;AUX4;1500.0
ALTITUDE;0.0
DEBUG;DEBUG10.0;DEBUG2;0.0;DEBUG3;0.0;DEBUG4;0.0
ATTITUDE;ANGX;0.0;ANGY;1.0;HEAD;-118.0
STATUS;CYCLETIME;2852;I2CERR;0;PRESENT;23;MODE;0
RAW_IMU;AX;3.0;AY;0.0;AZ;256.0;GX;0.0;GY;0.0;GZ;0.0;MAGX;86.0;MAGY;-71.0;MAGZ;-8.0
MOT;0;1000.0;1;1000.0;2;1000.0;3;1000.0;4;0.0;5;0.0;6;0.0;7;0.0;
RC;ROLL;1493.0;PITCH;1503.0;YAW;1509.0;THROTTLE;1061.0;AUX1;1677.0;AUX2;1500.0;AUX3;1500.0;AUX4;1500.0
ALTITUDE;0.0
DEBUG;DEBUG10.0;DEBUG2;0.0;DEBUG3;0.0;DEBUG4;0.0
ATTITUDE;ANGX;0.0;ANGY;1.0;HEAD;-118.0
STATUS;CYCLETIME;2832;I2CERR;0;PRESENT;23;MODE;0
RAW_IMU;AX;1.0;AY;-2.0;AZ;254.0;GX;0.0;GY;0.0;GZ;0.0;MAGX;86.0;MAGY;-71.0;MAGZ;-8.0
MOT;0;1000.0;1;1000.0;2;1000.0;3;1000.0;4;0.0;5;0.0;6;0.0;7;0.0;
RC;ROLL;1493.0;PITCH;1503.0;YAW;1509.0;THROTTLE;1061.0;AUX1;1679.0;AUX2;1500.0;AUX3;1500.0;AUX4;1500.0
ALTITUDE;0.0
DEBUG;DEBUG10.0;DEBUG2;0.0;DEBUG3;0.0;DEBUG4;0.0
ATTITUDE;ANGX;0.0;ANGY;1.0;HEAD;-118.0
STATUS;CYCLETIME;2980;I2CERR;0;PRESENT;23;MODE;0
RAW_IMU;AX;2.0;AY;-1.0;AZ;254.0;GX;0.0;GY;0.0;GZ;0.0;MAGX;86.0;MAGY;-71.0;MAGZ;-10.0
MOT;0;1000.0;1;1000.0;2;1000.0;3;1000.0;4;0.0;5;0.0;6;0.0;7;0.0;
RC;ROLL;1495.0;PITCH;1503.0;YAW;1509.0;THROTTLE;1061.0;AUX1;1681.0;AUX2;1500.0;AUX3;1500.0;AUX4;1500.0
ALTITUDE;0.0
DEBUG;DEBUG10.0;DEBUG2;0.0;DEBUG3;0.0;DEBUG4;0.0
ATTITUDE;ANGX;0.0;ANGY;1.0;HEAD;-118.0
STATUS;CYCLETIME;2836;I2CERR;0;PRESENT;23;MODE;0
RAW_IMU;AX;1.0;AY;1.0;AZ;257.0;GX;0.0;GY;0.0;GZ;0.0;MAGX;86.0;MAGY;-71.0;MAGZ;-10.0
MOT;0;1000.0;1;1000.0;2;1000.0;3;1000.0;4;0.0;5;0.0;6;0.0;7;0.0;
RC;ROLL;1495.0;PITCH;1503.0;YAW;1511.0;THROTTLE;1061.0;AUX1;1681.0;AUX2;1500.0;AUX3;1500.0;AUX4;1500.0
ALTITUDE;0.0
DEBUG;DEBUG10.0;DEBUG2;0.0;DEBUG3;0.0;DEBUG4;0.0
ATTITUDE;ANGX;0.0;ANGY;1.0;HEAD;-118.0
STATUS;CYCLETIME;2836;I2CERR;0;PRESENT;23;MODE;0
RAW_IMU;AX;1.0;AY;-1.0;AZ;257.0;GX;0.0;GY;0.0;GZ;0.0;MAGX;86.0;MAGY;-71.0;MAGZ;-9.0
MOT;0;1000.0;1;1000.0;2;1000.0;3;1000.0;4;0.0;5;0.0;6;0.0;7;0.0;
RC;ROLL;1495.0;PITCH;1503.0;YAW;1511.0;THROTTLE;1061.0;AUX1;1681.0;AUX2;1500.0;AUX3;1500.0;AUX4;1500.0
ALTITUDE;0.0
DEBUG;DEBUG10.0;DEBUG2;0.0;DEBUG3;0.0;DEBUG4;0.0
ATTITUDE;ANGX;0.0;ANGY;1.0;HEAD;-118.0
STATUS;CYCLETIME;2952;I2CERR;0;PRESENT;23;MODE;0
RAW_IMU;AX;1.0;AY;0.0;AZ;256.0;GX;0.0;GY;0.0;GZ;0.0;MAGX;86.0;MAGY;-71.0;MAGZ;-9.0
MOT;0;1000.0;1;1000.0;2;1000.0;3;1000.0;4;0.0;5;0.0;6;0.0;7;0.0;
RC;ROLL;1495.0;PITCH;1503.0;YAW;1511.0;THROTTLE;1061.0;AUX1;1681.0;AUX2;1500.0;AUX3;1500.0;AUX4;1500.0
ALTITUDE;0.0
DEBUG;DEBUG10.0;DEBUG2;0.0;DEBUG3;0.0;DEBUG4;0.0
ATTITUDE;ANGX;0.0;ANGY;1.0;HEAD;-118.0
STATUS;CYCLETIME;2812;I2CERR;0;PRESENT;23;MODE;0
RAW_IMU;AX;1.0;AY;0.0;AZ;256.0;GX;0.0;GY;0.0;GZ;0.0;MAGX;86.0;MAGY;-72.0;MAGZ;-10.0
MOT;0;1000.0;1;1000.0;2;1000.0;3;1000.0;4;0.0;5;0.0;6;0.0;7;0.0;
RC;ROLL;1495.0;PITCH;1499.0;YAW;1511.0;THROTTLE;1061.0;AUX1;1681.0;AUX2;1500.0;AUX3;1500.0;AUX4;1500.0
ALTITUDE;0.0
DEBUG;DEBUG10.0;DEBUG2;0.0;DEBUG3;0.0;DEBUG4;0.0
ATTITUDE;ANGX;0.0;ANGY;1.0;HEAD;-118.0
STATUS;CYCLETIME;2904;I2CERR;0;PRESENT;23;MODE;0
RAW_IMU;AX;1.0;AY;1.0;AZ;256.0;GX;0.0;GY;0.0;GZ;0.0;MAGX;86.0;MAGY;-72.0;MAGZ;-10.0
MOT;0;1000.0;1;1000.0;2;1000.0;3;1000.0;4;0.0;5;0.0;6;0.0;7;0.0;
RC;ROLL;1495.0;PITCH;1499.0;YAW;1511.0;THROTTLE;1061.0;AUX1;1681.0;AUX2;1500.0;AUX3;1500.0;AUX4;1500.0
ALTITUDE;0.0
DEBUG;DEBUG10.0;DEBUG2;0.0;DEBUG3;0.0;DEBUG4;0.0
ATTITUDE;ANGX;0.0;ANGY;1.0;HEAD;-118.0
STATUS;CYCLETIME;2920;I2CERR;0;PRESENT;23;MODE;0
RAW_IMU;AX;0.0;AY;0.0;AZ;256.0;GX;0.0;GY;0.0;GZ;0.0;MAGX;86.0;MAGY;-71.0;MAGZ;-10.0
MOT;0;1000.0;1;1000.0;2;1000.0;3;1000.0;4;0.0;5;0.0;6;0.0;7;0.0;
RC;ROLL;1495.0;PITCH;1499.0;YAW;1511.0;THROTTLE;1061.0;AUX1;1681.0;AUX2;1500.0;AUX3;1500.0;AUX4;1500.0
ALTITUDE;0.0
DEBUG;DEBUG10.0;DEBUG2;0.0;DEBUG3;0.0;DEBUG4;0.0
ATTITUDE;ANGX;0.0;ANGY;1.0;HEAD;-118.0
STATUS;CYCLETIME;2836;I2CERR;0;PRESENT;23;MODE;0
RAW_IMU;AX;0.0;AY;2.0;AZ;257.0;GX;0.0;GY;0.0;GZ;0.0;MAGX;86.0;MAGY;-71.0;MAGZ;-10.0
MOT;0;1000.0;1;1000.0;2;1000.0;3;1000.0;4;0.0;5;0.0;6;0.0;7;0.0;
RC;ROLL;1497.0;PITCH;1499.0;YAW;1511.0;THROTTLE;1061.0;AUX1;1681.0;AUX2;1500.0;AUX3;1500.0;AUX4;1500.0
ALTITUDE;0.0
DEBUG;DEBUG10.0;DEBUG2;0.0;DEBUG3;0.0;DEBUG4;0.0
ATTITUDE;ANGX;0.0;ANGY;1.0;HEAD;-118.0
STATUS;CYCLETIME;2836;I2CERR;0;PRESENT;23;MODE;0
RAW_IMU;AX;2.0;AY;0.0;AZ;256.0;GX;0.0;GY;0.0;GZ;0.0;MAGX;86.0;MAGY;-72.0;MAGZ;-10.0
MOT;0;1000.0;1;1000.0;2;1000.0;3;1000.0;4;0.0;5;0.0;6;0.0;7;0.0;
RC;ROLL;1497.0;PITCH;1499.0;YAW;1508.0;THROTTLE;1061.0;AUX1;1681.0;AUX2;1500.0;AUX3;1500.0;AUX4;1500.0
ALTITUDE;0.0
DEBUG;DEBUG10.0;DEBUG2;0.0;DEBUG3;0.0;DEBUG4;0.0
ATTITUDE;ANGX;0.0;ANGY;1.0;HEAD;-118.0
STATUS;CYCLETIME;2964;I2CERR;0;PRESENT;23;MODE;0
RAW_IMU;AX;0.0;AY;1.0;AZ;257.0;GX;0.0;GY;0.0;GZ;0.0;MAGX;86.0;MAGY;-72.0;MAGZ;-10.0
MOT;0;1000.0;1;1000.0;2;1000.0;3;1000.0;4;0.0;5;0.0;6;0.0;7;0.0;
RC;ROLL;1494.0;PITCH;1499.0;YAW;1508.0;THROTTLE;1061.0;AUX1;1681.0;AUX2;1500.0;AUX3;1500.0;AUX4;1500.0
ALTITUDE;0.0
DEBUG;DEBUG10.0;DEBUG2;0.0;DEBUG3;0.0;DEBUG4;0.0
ATTITUDE;ANGX;0.0;ANGY;1.0;HEAD;-118.0
STATUS;CYCLETIME;2800;I2CERR;0;PRESENT;23;MODE;0
RAW_IMU;AX;0.0;AY;0.0;AZ;257.0;GX;0.0;GY;0.0;GZ;0.0;MAGX;86.0;MAGY;-72.0;MAGZ;-10.0
MOT;0;1000.0;1;1000.0;2;1000.0;3;1000.0;4;0.0;5;0.0;6;0.0;7;0.0;
RC;ROLL;1494.0;PITCH;1499.0;YAW;1508.0;THROTTLE;1061.0;AUX1;1681.0;AUX2;1500.0;AUX3;1500.0;AUX4;1500.0
ALTITUDE;0.0
DEBUG;DEBUG10.0;DEBUG2;0.0;DEBUG3;0.0;DEBUG4;0.0
ATTITUDE;ANGX;0.0;ANGY;1.0;HEAD;-118.0
STATUS;CYCLETIME;2808;I2CERR;0;PRESENT;23;MODE;0
RAW_IMU;AX;0.0;AY;1.0;AZ;256.0;GX;0.0;GY;0.0;GZ;0.0;MAGX;86.0;MAGY;-71.0;MAGZ;-9.0
MOT;0;1000.0;1;1000.0;2;1000.0;3;1000.0;4;0.0;5;0.0;6;0.0;7;0.0;
RC;ROLL;1494.0;PITCH;1499.0;YAW;1508.0;THROTTLE;1061.0;AUX1;1681.0;AUX2;1500.0;AUX3;1500.0;AUX4;1500.0
ALTITUDE;0.0
DEBUG;DEBUG10.0;DEBUG2;0.0;DEBUG3;0.0;DEBUG4;0.0
ATTITUDE;ANGX;0.0;ANGY;1.0;HEAD;-118.0
STATUS;CYCLETIME;2944;I2CERR;0;PRESENT;23;MODE;0
RAW_IMU;AX;2.0;AY;0.0;AZ;255.0;GX;0.0;GY;0.0;GZ;0.0;MAGX;86.0;MAGY;-71.0;MAGZ;-9.0
MOT;0;1000.0;1;1000.0;2;1000.0;3;1000.0;4;0.0;5;0.0;6;0.0;7;0.0;
RC;ROLL;1500.0;PITCH;1499.0;YAW;1508.0;THROTTLE;1061.0;AUX1;1681.0;AUX2;1500.0;AUX3;1500.0;AUX4;1500.0
ALTITUDE;0.0
DEBUG;DEBUG10.0;DEBUG2;0.0;DEBUG3;0.0;DEBUG4;0.0
ATTITUDE;ANGX;0.0;ANGY;1.0;HEAD;-118.0
STATUS;CYCLETIME;2812;I2CERR;0;PRESENT;23;MODE;0
RAW_IMU;AX;0.0;AY;0.0;AZ;259.0;GX;0.0;GY;0.0;GZ;0.0;MAGX;86.0;MAGY;-72.0;MAGZ;-11.0
MOT;0;1000.0;1;1000.0;2;1000.0;3;1000.0;4;0.0;5;0.0;6;0.0;7;0.0;
RC;ROLL;1500.0;PITCH;1501.0;YAW;1508.0;THROTTLE;1059.0;AUX1;1681.0;AUX2;1500.0;AUX3;1500.0;AUX4;1500.0
ALTITUDE;0.0
DEBUG;DEBUG10.0;DEBUG2;0.0;DEBUG3;0.0;DEBUG4;0.0
ATTITUDE;ANGX;0.0;ANGY;1.0;HEAD;-118.0
STATUS;CYCLETIME;2836;I2CERR;0;PRESENT;23;MODE;0
RAW_IMU;AX;1.0;AY;0.0;AZ;257.0;GX;0.0;GY;0.0;GZ;0.0;MAGX;86.0;MAGY;-72.0;MAGZ;-11.0
MOT;0;1000.0;1;1000.0;2;1000.0;3;1000.0;4;0.0;5;0.0;6;0.0;7;0.0;
RC;ROLL;1500.0;PITCH;1503.0;YAW;1508.0;THROTTLE;1059.0;AUX1;1681.0;AUX2;1500.0;AUX3;1500.0;AUX4;1500.0
ALTITUDE;0.0
DEBUG;DEBUG10.0;DEBUG2;0.0;DEBUG3;0.0;DEBUG4;0.0
ATTITUDE;ANGX;0.0;ANGY;1.0;HEAD;-118.0
STATUS;CYCLETIME;2944;I2CERR;0;PRESENT;23;MODE;0
RAW_IMU;AX;-1.0;AY;0.0;AZ;256.0;GX;0.0;GY;0.0;GZ;0.0;MAGX;86.0;MAGY;-71.0;MAGZ;-9.0
MOT;0;1000.0;1;1000.0;2;1000.0;3;1000.0;4;0.0;5;0.0;6;0.0;7;0.0;
RC;ROLL;1497.0;PITCH;1503.0;YAW;1510.0;THROTTLE;1059.0;AUX1;1681.0;AUX2;1500.0;AUX3;1500.0;AUX4;1500.0
ALTITUDE;0.0
DEBUG;DEBUG10.0;DEBUG2;0.0;DEBUG3;0.0;DEBUG4;0.0
ATTITUDE;ANGX;0.0;ANGY;1.0;HEAD;-118.0
STATUS;CYCLETIME;2848;I2CERR;0;PRESENT;23;MODE;0
RAW_IMU;AX;2.0;AY;1.0;AZ;257.0;GX;0.0;GY;0.0;GZ;0.0;MAGX;86.0;MAGY;-71.0;MAGZ;-9.0
MOT;0;1000.0;1;1000.0;2;1000.0;3;1000.0;4;0.0;5;0.0;6;0.0;7;0.0;
RC;ROLL;1497.0;PITCH;1503.0;YAW;1510.0;THROTTLE;1059.0;AUX1;1681.0;AUX2;1500.0;AUX3;1500.0;AUX4;1500.0
ALTITUDE;0.0
DEBUG;DEBUG10.0;DEBUG2;0.0;DEBUG3;0.0;DEBUG4;0.0
ATTITUDE;ANGX;0.0;ANGY;1.0;HEAD;-118.0
STATUS;CYCLETIME;2844;I2CERR;0;PRESENT;23;MODE;0
RAW_IMU;AX;0.0;AY;1.0;AZ;257.0;GX;0.0;GY;0.0;GZ;0.0;MAGX;86.0;MAGY;-71.0;MAGZ;-9.0
MOT;0;1000.0;1;1000.0;2;1000.0;3;1000.0;4;0.0;5;0.0;6;0.0;7;0.0;
RC;ROLL;1497.0;PITCH;1503.0;YAW;1508.0;THROTTLE;1059.0;AUX1;1681.0;AUX2;1500.0;AUX3;1500.0;AUX4;1500.0
ALTITUDE;0.0
DEBUG;DEBUG10.0;DEBUG2;0.0;DEBUG3;0.0;DEBUG4;0.0
ATTITUDE;ANGX;0.0;ANGY;1.0;HEAD;-118.0
STATUS;CYCLETIME;2860;I2CERR;0;PRESENT;23;MODE;0
RAW_IMU;AX;1.0;AY;0.0;AZ;257.0;GX;0.0;GY;0.0;GZ;0.0;MAGX;86.0;MAGY;-71.0;MAGZ;-9.0
MOT;0;1000.0;1;1000.0;2;1000.0;3;1000.0;4;0.0;5;0.0;6;0.0;7;0.0;
RC;ROLL;1495.0;PITCH;1503.0;YAW;1508.0;THROTTLE;1059.0;AUX1;1681.0;AUX2;1500.0;AUX3;1500.0;AUX4;1500.0
ALTITUDE;0.0
DEBUG;DEBUG10.0;DEBUG2;0.0;DEBUG3;0.0;DEBUG4;0.0
ATTITUDE;ANGX;0.0;ANGY;1.0;HEAD;-118.0
STATUS;CYCLETIME;2880;I2CERR;0;PRESENT;23;MODE;0
RAW_IMU;AX;0.0;AY;-2.0;AZ;256.0;GX;0.0;GY;0.0;GZ;0.0;MAGX;86.0;MAGY;-71.0;MAGZ;-10.0
MOT;0;1000.0;1;1000.0;2;1000.0;3;1000.0;4;0.0;5;0.0;6;0.0;7;0.0;
RC;ROLL;1495.0;PITCH;1503.0;YAW;1508.0;THROTTLE;1059.0;AUX1;1681.0;AUX2;1500.0;AUX3;1500.0;AUX4;1500.0
ALTITUDE;0.0
DEBUG;DEBUG10.0;DEBUG2;0.0;DEBUG3;0.0;DEBUG4;0.0
ATTITUDE;ANGX;0.0;ANGY;1.0;HEAD;-118.0
STATUS;CYCLETIME;2852;I2CERR;0;PRESENT;23;MODE;0
RAW_IMU;AX;1.0;AY;-1.0;AZ;257.0;GX;0.0;GY;0.0;GZ;0.0;MAGX;86.0;MAGY;-71.0;MAGZ;-10.0
MOT;0;1000.0;1;1000.0;2;1000.0;3;1000.0;4;0.0;5;0.0;6;0.0;7;0.0;
RC;ROLL;1495.0;PITCH;1500.0;YAW;1508.0;THROTTLE;1059.0;AUX1;1679.0;AUX2;1500.0;AUX3;1500.0;AUX4;1500.0
ALTITUDE;0.0
DEBUG;DEBUG10.0;DEBUG2;0.0;DEBUG3;0.0;DEBUG4;0.0
ATTITUDE;ANGX;0.0;ANGY;1.0;HEAD;-118.0
STATUS;CYCLETIME;2836;I2CERR;0;PRESENT;23;MODE;0
RAW_IMU;AX;-1.0;AY;-1.0;AZ;255.0;GX;0.0;GY;0.0;GZ;0.0;MAGX;86.0;MAGY;-71.0;MAGZ;-9.0
MOT;0;1000.0;1;1000.0;2;1000.0;3;1000.0;4;0.0;5;0.0;6;0.0;7;0.0;
RC;ROLL;1495.0;PITCH;1503.0;YAW;1508.0;THROTTLE;1059.0;AUX1;1679.0;AUX2;1500.0;AUX3;1500.0;AUX4;1500.0
ALTITUDE;0.0
DEBUG;DEBUG10.0;DEBUG2;0.0;DEBUG3;0.0;DEBUG4;0.0
ATTITUDE;ANGX;0.0;ANGY;1.0;HEAD;-118.0
STATUS;CYCLETIME;2812;I2CERR;0;PRESENT;23;MODE;0
RAW_IMU;AX;0.0;AY;-1.0;AZ;256.0;GX;0.0;GY;0.0;GZ;0.0;MAGX;86.0;MAGY;-71.0;MAGZ;-9.0
MOT;0;1000.0;1;1000.0;2;1000.0;3;1000.0;4;0.0;5;0.0;6;0.0;7;0.0;
RC;ROLL;1497.0;PITCH;1503.0;YAW;1508.0;THROTTLE;1059.0;AUX1;1679.0;AUX2;1500.0;AUX3;1500.0;AUX4;1500.0
ALTITUDE;0.0
DEBUG;DEBUG10.0;DEBUG2;0.0;DEBUG3;0.0;DEBUG4;0.0
ATTITUDE;ANGX;0.0;ANGY;1.0;HEAD;-118.0
STATUS;CYCLETIME;3004;I2CERR;0;PRESENT;23;MODE;0
RAW_IMU;AX;-1.0;AY;-1.0;AZ;256.0;GX;0.0;GY;0.0;GZ;0.0;MAGX;86.0;MAGY;-71.0;MAGZ;-10.0
MOT;0;1000.0;1;1000.0;2;1000.0;3;1000.0;4;0.0;5;0.0;6;0.0;7;0.0;
RC;ROLL;1497.0;PITCH;1503.0;YAW;1510.0;THROTTLE;1057.0;AUX1;1679.0;AUX2;1500.0;AUX3;1500.0;AUX4;1500.0
ALTITUDE;0.0
DEBUG;DEBUG10.0;DEBUG2;0.0;DEBUG3;0.0;DEBUG4;0.0
ATTITUDE;ANGX;0.0;ANGY;1.0;HEAD;-118.0
STATUS;CYCLETIME;2788;I2CERR;0;PRESENT;23;MODE;0
RAW_IMU;AX;0.0;AY;0.0;AZ;257.0;GX;0.0;GY;0.0;GZ;0.0;MAGX;86.0;MAGY;-71.0;MAGZ;-10.0
MOT;0;1000.0;1;1000.0;2;1000.0;3;1000.0;4;0.0;5;0.0;6;0.0;7;0.0;
RC;ROLL;1497.0;PITCH;1505.0;YAW;1512.0;THROTTLE;1057.0;AUX1;1679.0;AUX2;1500.0;AUX3;1500.0;AUX4;1500.0
ALTITUDE;0.0
DEBUG;DEBUG10.0;DEBUG2;0.0;DEBUG3;0.0;DEBUG4;0.0
ATTITUDE;ANGX;0.0;ANGY;1.0;HEAD;-118.0
STATUS;CYCLETIME;2804;I2CERR;0;PRESENT;23;MODE;0
RAW_IMU;AX;1.0;AY;2.0;AZ;256.0;GX;0.0;GY;0.0;GZ;0.0;MAGX;86.0;MAGY;-71.0;MAGZ;-10.0
MOT;0;1000.0;1;1000.0;2;1000.0;3;1000.0;4;0.0;5;0.0;6;0.0;7;0.0;
RC;ROLL;1499.0;PITCH;1501.0;YAW;1512.0;THROTTLE;1057.0;AUX1;1684.0;AUX2;1500.0;AUX3;1500.0;AUX4;1500.0
ALTITUDE;0.0
DEBUG;DEBUG10.0;DEBUG2;0.0;DEBUG3;0.0;DEBUG4;0.0
ATTITUDE;ANGX;0.0;ANGY;1.0;HEAD;-118.0
STATUS;CYCLETIME;2840;I2CERR;0;PRESENT;23;MODE;0
RAW_IMU;AX;1.0;AY;2.0;AZ;258.0;GX;0.0;GY;0.0;GZ;0.0;MAGX;86.0;MAGY;-71.0;MAGZ;-10.0
MOT;0;1000.0;1;1000.0;2;1000.0;3;1000.0;4;0.0;5;0.0;6;0.0;7;0.0;
RC;ROLL;1494.0;PITCH;1501.0;YAW;1509.0;THROTTLE;1057.0;AUX1;1684.0;AUX2;1500.0;AUX3;1500.0;AUX4;1500.0
ALTITUDE;0.0
DEBUG;DEBUG10.0;DEBUG2;0.0;DEBUG3;0.0;DEBUG4;0.0
ATTITUDE;ANGX;0.0;ANGY;1.0;HEAD;-118.0
STATUS;CYCLETIME;2852;I2CERR;0;PRESENT;23;MODE;0
RAW_IMU;AX;1.0;AY;1.0;AZ;258.0;GX;0.0;GY;0.0;GZ;0.0;MAGX;86.0;MAGY;-71.0;MAGZ;-10.0
MOT;0;1000.0;1;1000.0;2;1000.0;3;1000.0;4;0.0;5;0.0;6;0.0;7;0.0;
RC;ROLL;1492.0;PITCH;1501.0;YAW;1509.0;THROTTLE;1057.0;AUX1;1684.0;AUX2;1500.0;AUX3;1500.0;AUX4;1500.0
ALTITUDE;0.0
DEBUG;DEBUG10.0;DEBUG2;0.0;DEBUG3;0.0;DEBUG4;0.0
ATTITUDE;ANGX;0.0;ANGY;1.0;HEAD;-118.0
STATUS;CYCLETIME;2984;I2CERR;0;PRESENT;23;MODE;0
RAW_IMU;AX;1.0;AY;-1.0;AZ;257.0;GX;0.0;GY;0.0;GZ;0.0;MAGX;86.0;MAGY;-71.0;MAGZ;-10.0
MOT;0;1000.0;1;1000.0;2;1000.0;3;1000.0;4;0.0;5;0.0;6;0.0;7;0.0;
RC;ROLL;1495.0;PITCH;1504.0;YAW;1509.0;THROTTLE;1057.0;AUX1;1684.0;AUX2;1500.0;AUX3;1500.0;AUX4;1500.0
ALTITUDE;0.0
DEBUG;DEBUG10.0;DEBUG2;0.0;DEBUG3;0.0;DEBUG4;0.0
ATTITUDE;ANGX;0.0;ANGY;1.0;HEAD;-118.0
STATUS;CYCLETIME;2804;I2CERR;0;PRESENT;23;MODE;0
RAW_IMU;AX;1.0;AY;0.0;AZ;256.0;GX;0.0;GY;0.0;GZ;0.0;MAGX;86.0;MAGY;-71.0;MAGZ;-10.0
MOT;0;1000.0;1;1000.0;2;1000.0;3;1000.0;4;0.0;5;0.0;6;0.0;7;0.0;
RC;ROLL;1498.0;PITCH;1504.0;YAW;1509.0;THROTTLE;1057.0;AUX1;1684.0;AUX2;1500.0;AUX3;1500.0;AUX4;1500.0
ALTITUDE;0.0
DEBUG;DEBUG10.0;DEBUG2;0.0;DEBUG3;0.0;DEBUG4;0.0
ATTITUDE;ANGX;0.0;ANGY;1.0;HEAD;-118.0
STATUS;CYCLETIME;2824;I2CERR;0;PRESENT;23;MODE;0
RAW_IMU;AX;3.0;AY;-2.0;AZ;259.0;GX;0.0;GY;0.0;GZ;0.0;MAGX;86.0;MAGY;-71.0;MAGZ;-10.0
MOT;0;1000.0;1;1000.0;2;1000.0;3;1000.0;4;0.0;5;0.0;6;0.0;7;0.0;
RC;ROLL;1498.0;PITCH;1498.0;YAW;1509.0;THROTTLE;1062.0;AUX1;1679.0;AUX2;1500.0;AUX3;1500.0;AUX4;1500.0
ALTITUDE;0.0
DEBUG;DEBUG10.0;DEBUG2;0.0;DEBUG3;0.0;DEBUG4;0.0
ATTITUDE;ANGX;0.0;ANGY;1.0;HEAD;-118.0
STATUS;CYCLETIME;2964;I2CERR;0;PRESENT;23;MODE;0
RAW_IMU;AX;2.0;AY;0.0;AZ;258.0;GX;0.0;GY;0.0;GZ;0.0;MAGX;86.0;MAGY;-71.0;MAGZ;-10.0
MOT;0;1000.0;1;1000.0;2;1000.0;3;1000.0;4;0.0;5;0.0;6;0.0;7;0.0;
RC;ROLL;1498.0;PITCH;1498.0;YAW;1511.0;THROTTLE;1060.0;AUX1;1679.0;AUX2;1500.0;AUX3;1500.0;AUX4;1500.0
ALTITUDE;0.0
DEBUG;DEBUG10.0;DEBUG2;0.0;DEBUG3;0.0;DEBUG4;0.0
ATTITUDE;ANGX;0.0;ANGY;1.0;HEAD;-118.0
STATUS;CYCLETIME;2868;I2CERR;0;PRESENT;23;MODE;0
RAW_IMU;AX;2.0;AY;0.0;AZ;256.0;GX;0.0;GY;0.0;GZ;0.0;MAGX;86.0;MAGY;-71.0;MAGZ;-10.0
MOT;0;1000.0;1;1000.0;2;1000.0;3;1000.0;4;0.0;5;0.0;6;0.0;7;0.0;
RC;ROLL;1498.0;PITCH;1500.0;YAW;1514.0;THROTTLE;1056.0;AUX1;1679.0;AUX2;1500.0;AUX3;1500.0;AUX4;1500.0
ALTITUDE;0.0
DEBUG;DEBUG10.0;DEBUG2;0.0;DEBUG3;0.0;DEBUG4;0.0
ATTITUDE;ANGX;0.0;ANGY;1.0;HEAD;-118.0
STATUS;CYCLETIME;2828;I2CERR;0;PRESENT;23;MODE;0
RAW_IMU;AX;2.0;AY;2.0;AZ;258.0;GX;0.0;GY;0.0;GZ;0.0;MAGX;86.0;MAGY;-71.0;MAGZ;-10.0
MOT;0;1000.0;1;1000.0;2;1000.0;3;1000.0;4;0.0;5;0.0;6;0.0;7;0.0;
RC;ROLL;1496.0;PITCH;1504.0;YAW;1514.0;THROTTLE;1056.0;AUX1;1676.0;AUX2;1500.0;AUX3;1500.0;AUX4;1500.0
ALTITUDE;0.0
DEBUG;DEBUG10.0;DEBUG2;0.0;DEBUG3;0.0;DEBUG4;0.0
ATTITUDE;ANGX;0.0;ANGY;1.0;HEAD;-118.0
STATUS;CYCLETIME;2868;I2CERR;0;PRESENT;23;MODE;0
RAW_IMU;AX;1.0;AY;1.0;AZ;255.0;GX;0.0;GY;0.0;GZ;0.0;MAGX;86.0;MAGY;-71.0;MAGZ;-10.0
MOT;0;1000.0;1;1000.0;2;1000.0;3;1000.0;4;0.0;5;0.0;6;0.0;7;0.0;
RC;ROLL;1496.0;PITCH;1504.0;YAW;1506.0;THROTTLE;1056.0;AUX1;1687.0;AUX2;1500.0;AUX3;1500.0;AUX4;1500.0
ALTITUDE;0.0
DEBUG;DEBUG10.0;DEBUG2;0.0;DEBUG3;0.0;DEBUG4;0.0
ATTITUDE;ANGX;0.0;ANGY;1.0;HEAD;-118.0
STATUS;CYCLETIME;2804;I2CERR;0;PRESENT;23;MODE;0
RAW_IMU;AX;3.0;AY;0.0;AZ;256.0;GX;0.0;GY;0.0;GZ;0.0;MAGX;86.0;MAGY;-71.0;MAGZ;-10.0
MOT;0;1000.0;1;1000.0;2;1000.0;3;1000.0;4;0.0;5;0.0;6;0.0;7;0.0;
RC;ROLL;1496.0;PITCH;1504.0;YAW;1506.0;THROTTLE;1054.0;AUX1;1691.0;AUX2;1500.0;AUX3;1500.0;AUX4;1500.0
ALTITUDE;0.0
DEBUG;DEBUG10.0;DEBUG2;0.0;DEBUG3;0.0;DEBUG4;0.0
ATTITUDE;ANGX;0.0;ANGY;1.0;HEAD;-118.0
STATUS;CYCLETIME;2808;I2CERR;0;PRESENT;23;MODE;0
RAW_IMU;AX;5.0;AY;1.0;AZ;257.0;GX;0.0;GY;0.0;GZ;0.0;MAGX;86.0;MAGY;-71.0;MAGZ;-10.0
MOT;0;1000.0;1;1000.0;2;1000.0;3;1000.0;4;0.0;5;0.0;6;0.0;7;0.0;
RC;ROLL;1496.0;PITCH;1501.0;YAW;1506.0;THROTTLE;1054.0;AUX1;1683.0;AUX2;1500.0;AUX3;1500.0;AUX4;1500.0
ALTITUDE;0.0
DEBUG;DEBUG10.0;DEBUG2;0.0;DEBUG3;0.0;DEBUG4;0.0
ATTITUDE;ANGX;0.0;ANGY;1.0;HEAD;-118.0
STATUS;CYCLETIME;2952;I2CERR;0;PRESENT;23;MODE;0
RAW_IMU;AX;2.0;AY;1.0;AZ;257.0;GX;0.0;GY;0.0;GZ;0.0;MAGX;86.0;MAGY;-71.0;MAGZ;-10.0
MOT;0;1000.0;1;1000.0;2;1000.0;3;1000.0;4;0.0;5;0.0;6;0.0;7;0.0;
RC;ROLL;1496.0;PITCH;1501.0;YAW;1506.0;THROTTLE;1062.0;AUX1;1680.0;AUX2;1500.0;AUX3;1500.0;AUX4;1500.0
ALTITUDE;0.0
DEBUG;DEBUG10.0;DEBUG2;0.0;DEBUG3;0.0;DEBUG4;0.0
ATTITUDE;ANGX;0.0;ANGY;1.0;HEAD;-118.0
STATUS;CYCLETIME;2900;I2CERR;0;PRESENT;23;MODE;0
RAW_IMU;AX;2.0;AY;1.0;AZ;258.0;GX;0.0;GY;0.0;GZ;0.0;MAGX;86.0;MAGY;-72.0;MAGZ;-10.0
MOT;0;1000.0;1;1000.0;2;1000.0;3;1000.0;4;0.0;5;0.0;6;0.0;7;0.0;
RC;ROLL;1500.0;PITCH;1501.0;YAW;1506.0;THROTTLE;1060.0;AUX1;1685.0;AUX2;1500.0;AUX3;1500.0;AUX4;1500.0
ALTITUDE;0.0
DEBUG;DEBUG10.0;DEBUG2;0.0;DEBUG3;0.0;DEBUG4;0.0
ATTITUDE;ANGX;0.0;ANGY;1.0;HEAD;-118.0
STATUS;CYCLETIME;2804;I2CERR;0;PRESENT;23;MODE;0
RAW_IMU;AX;4.0;AY;0.0;AZ;256.0;GX;0.0;GY;0.0;GZ;0.0;MAGX;86.0;MAGY;-72.0;MAGZ;-10.0
MOT;0;1000.0;1;1000.0;2;1000.0;3;1000.0;4;0.0;5;0.0;6;0.0;7;0.0;
RC;ROLL;1494.0;PITCH;1499.0;YAW;1513.0;THROTTLE;1060.0;AUX1;1683.0;AUX2;1500.0;AUX3;1500.0;AUX4;1500.0
ALTITUDE;0.0
DEBUG;DEBUG10.0;DEBUG2;0.0;DEBUG3;0.0;DEBUG4;0.0
ATTITUDE;ANGX;0.0;ANGY;1.0;HEAD;-118.0
STATUS;CYCLETIME;2808;I2CERR;0;PRESENT;23;MODE;0
RAW_IMU;AX;3.0;AY;0.0;AZ;257.0;GX;0.0;GY;0.0;GZ;0.0;MAGX;87.0;MAGY;-71.0;MAGZ;-10.0
MOT;0;1000.0;1;1000.0;2;1000.0;3;1000.0;4;0.0;5;0.0;6;0.0;7;0.0;
RC;ROLL;1491.0;PITCH;1499.0;YAW;1516.0;THROTTLE;1060.0;AUX1;1679.0;AUX2;1500.0;AUX3;1500.0;AUX4;1500.0
ALTITUDE;0.0
DEBUG;DEBUG10.0;DEBUG2;0.0;DEBUG3;0.0;DEBUG4;0.0
ATTITUDE;ANGX;0.0;ANGY;1.0;HEAD;-118.0
STATUS;CYCLETIME;2816;I2CERR;0;PRESENT;23;MODE;0
RAW_IMU;AX;5.0;AY;2.0;AZ;258.0;GX;0.0;GY;0.0;GZ;0.0;MAGX;87.0;MAGY;-71.0;MAGZ;-10.0
MOT;0;1000.0;1;1000.0;2;1000.0;3;1000.0;4;0.0;5;0.0;6;0.0;7;0.0;
RC;ROLL;1493.0;PITCH;1501.0;YAW;1516.0;THROTTLE;1056.0;AUX1;1679.0;AUX2;1500.0;AUX3;1500.0;AUX4;1500.0
ALTITUDE;0.0
DEBUG;DEBUG10.0;DEBUG2;0.0;DEBUG3;0.0;DEBUG4;0.0
ATTITUDE;ANGX;0.0;ANGY;1.0;HEAD;-118.0
STATUS;CYCLETIME;2984;I2CERR;0;PRESENT;23;MODE;0
RAW_IMU;AX;4.0;AY;0.0;AZ;253.0;GX;0.0;GY;0.0;GZ;0.0;MAGX;86.0;MAGY;-71.0;MAGZ;-10.0
MOT;0;1000.0;1;1000.0;2;1000.0;3;1000.0;4;0.0;5;0.0;6;0.0;7;0.0;
RC;ROLL;1495.0;PITCH;1501.0;YAW;1516.0;THROTTLE;1057.0;AUX1;1681.0;AUX2;1500.0;AUX3;1500.0;AUX4;1500.0
ALTITUDE;0.0
DEBUG;DEBUG10.0;DEBUG2;0.0;DEBUG3;0.0;DEBUG4;0.0
ATTITUDE;ANGX;0.0;ANGY;1.0;HEAD;-118.0
STATUS;CYCLETIME;2824;I2CERR;0;PRESENT;23;MODE;0
RAW_IMU;AX;1.0;AY;-2.0;AZ;256.0;GX;0.0;GY;0.0;GZ;0.0;MAGX;86.0;MAGY;-71.0;MAGZ;-10.0
MOT;0;1000.0;1;1000.0;2;1000.0;3;1000.0;4;0.0;5;0.0;6;0.0;7;0.0;
RC;ROLL;1498.0;PITCH;1499.0;YAW;1516.0;THROTTLE;1057.0;AUX1;1681.0;AUX2;1500.0;AUX3;1500.0;AUX4;1500.0
ALTITUDE;0.0
DEBUG;DEBUG10.0;DEBUG2;0.0;DEBUG3;0.0;DEBUG4;0.0
ATTITUDE;ANGX;0.0;ANGY;1.0;HEAD;-118.0
STATUS;CYCLETIME;2836;I2CERR;0;PRESENT;23;MODE;0
RAW_IMU;AX;3.0;AY;-1.0;AZ;256.0;GX;0.0;GY;0.0;GZ;0.0;MAGX;86.0;MAGY;-71.0;MAGZ;-9.0
MOT;0;1000.0;1;1000.0;2;1000.0;3;1000.0;4;0.0;5;0.0;6;0.0;7;0.0;
RC;ROLL;1498.0;PITCH;1499.0;YAW;1516.0;THROTTLE;1057.0;AUX1;1684.0;AUX2;1500.0;AUX3;1500.0;AUX4;1500.0
ALTITUDE;0.0
DEBUG;DEBUG10.0;DEBUG2;0.0;DEBUG3;0.0;DEBUG4;0.0
ATTITUDE;ANGX;0.0;ANGY;1.0;HEAD;-118.0
STATUS;CYCLETIME;2912;I2CERR;0;PRESENT;23;MODE;0
RAW_IMU;AX;0.0;AY;-1.0;AZ;256.0;GX;0.0;GY;0.0;GZ;0.0;MAGX;86.0;MAGY;-71.0;MAGZ;-9.0
MOT;0;1000.0;1;1000.0;2;1000.0;3;1000.0;4;0.0;5;0.0;6;0.0;7;0.0;
RC;ROLL;1496.0;PITCH;1499.0;YAW;1513.0;THROTTLE;1060.0;AUX1;1684.0;AUX2;1500.0;AUX3;1500.0;AUX4;1500.0
ALTITUDE;0.0
DEBUG;DEBUG10.0;DEBUG2;0.0;DEBUG3;0.0;DEBUG4;0.0
ATTITUDE;ANGX;0.0;ANGY;1.0;HEAD;-118.0
STATUS;CYCLETIME;2872;I2CERR;0;PRESENT;23;MODE;0
RAW_IMU;AX;0.0;AY;1.0;AZ;258.0;GX;0.0;GY;0.0;GZ;0.0;MAGX;87.0;MAGY;-72.0;MAGZ;-9.0
MOT;0;1000.0;1;1000.0;2;1000.0;3;1000.0;4;0.0;5;0.0;6;0.0;7;0.0;
RC;ROLL;1496.0;PITCH;1499.0;YAW;1510.0;THROTTLE;1060.0;AUX1;1684.0;AUX2;1500.0;AUX3;1500.0;AUX4;1500.0
ALTITUDE;0.0
DEBUG;DEBUG10.0;DEBUG2;0.0;DEBUG3;0.0;DEBUG4;0.0
ATTITUDE;ANGX;0.0;ANGY;1.0;HEAD;-118.0
STATUS;CYCLETIME;2824;I2CERR;0;PRESENT;23;MODE;0
RAW_IMU;AX;3.0;AY;2.0;AZ;256.0;GX;0.0;GY;0.0;GZ;0.0;MAGX;87.0;MAGY;-72.0;MAGZ;-9.0
MOT;0;1000.0;1;1000.0;2;1000.0;3;1000.0;4;0.0;5;0.0;6;0.0;7;0.0;
RC;ROLL;1499.0;PITCH;1499.0;YAW;1510.0;THROTTLE;1054.0;AUX1;1689.0;AUX2;1500.0;AUX3;1500.0;AUX4;1500.0
ALTITUDE;0.0
DEBUG;DEBUG10.0;DEBUG2;0.0;DEBUG3;0.0;DEBUG4;0.0
ATTITUDE;ANGX;0.0;ANGY;1.0;HEAD;-118.0
STATUS;CYCLETIME;2824;I2CERR;0;PRESENT;23;MODE;0
RAW_IMU;AX;6.0;AY;1.0;AZ;256.0;GX;0.0;GY;0.0;GZ;0.0;MAGX;87.0;MAGY;-72.0;MAGZ;-9.0
MOT;0;1000.0;1;1000.0;2;1000.0;3;1000.0;4;0.0;5;0.0;6;0.0;7;0.0;
RC;ROLL;1497.0;PITCH;1499.0;YAW;1514.0;THROTTLE;1054.0;AUX1;1682.0;AUX2;1500.0;AUX3;1500.0;AUX4;1500.0
ALTITUDE;0.0
DEBUG;DEBUG10.0;DEBUG2;0.0;DEBUG3;0.0;DEBUG4;0.0
ATTITUDE;ANGX;0.0;ANGY;1.0;HEAD;-118.0
STATUS;CYCLETIME;2852;I2CERR;0;PRESENT;23;MODE;0
RAW_IMU;AX;3.0;AY;1.0;AZ;258.0;GX;0.0;GY;0.0;GZ;0.0;MAGX;87.0;MAGY;-71.0;MAGZ;-9.0
MOT;0;1000.0;1;1000.0;2;1000.0;3;1000.0;4;0.0;5;0.0;6;0.0;7;0.0;
RC;ROLL;1489.0;PITCH;1504.0;YAW;1514.0;THROTTLE;1060.0;AUX1;1679.0;AUX2;1500.0;AUX3;1500.0;AUX4;1500.0
ALTITUDE;0.0
DEBUG;DEBUG10.0;DEBUG2;0.0;DEBUG3;0.0;DEBUG4;0.0
ATTITUDE;ANGX;0.0;ANGY;1.0;HEAD;-118.0
STATUS;CYCLETIME;2848;I2CERR;0;PRESENT;23;MODE;0
RAW_IMU;AX;3.0;AY;0.0;AZ;256.0;GX;0.0;GY;0.0;GZ;0.0;MAGX;87.0;MAGY;-71.0;MAGZ;-9.0
MOT;0;1000.0;1;1000.0;2;1000.0;3;1000.0;4;0.0;5;0.0;6;0.0;7;0.0;
RC;ROLL;1489.0;PITCH;1504.0;YAW;1511.0;THROTTLE;1060.0;AUX1;1681.0;AUX2;1500.0;AUX3;1500.0;AUX4;1500.0
ALTITUDE;0.0
DEBUG;DEBUG10.0;DEBUG2;0.0;DEBUG3;0.0;DEBUG4;0.0
ATTITUDE;ANGX;0.0;ANGY;1.0;HEAD;-118.0
STATUS;CYCLETIME;2916;I2CERR;0;PRESENT;23;MODE;0
RAW_IMU;AX;1.0;AY;0.0;AZ;258.0;GX;0.0;GY;0.0;GZ;0.0;MAGX;86.0;MAGY;-71.0;MAGZ;-9.0
MOT;0;1000.0;1;1000.0;2;1000.0;3;1000.0;4;0.0;5;0.0;6;0.0;7;0.0;
RC;ROLL;1494.0;PITCH;1506.0;YAW;1509.0;THROTTLE;1056.0;AUX1;1681.0;AUX2;1500.0;AUX3;1500.0;AUX4;1500.0
ALTITUDE;0.0
DEBUG;DEBUG10.0;DEBUG2;0.0;DEBUG3;0.0;DEBUG4;0.0
ATTITUDE;ANGX;0.0;ANGY;1.0;HEAD;-118.0
STATUS;CYCLETIME;2908;I2CERR;0;PRESENT;23;MODE;0
RAW_IMU;AX;2.0;AY;1.0;AZ;259.0;GX;0.0;GY;0.0;GZ;0.0;MAGX;86.0;MAGY;-71.0;MAGZ;-9.0
MOT;0;1000.0;1;1000.0;2;1000.0;3;1000.0;4;0.0;5;0.0;6;0.0;7;0.0;
RC;ROLL;1494.0;PITCH;1506.0;YAW;1507.0;THROTTLE;1059.0;AUX1;1683.0;AUX2;1500.0;AUX3;1500.0;AUX4;1500.0
ALTITUDE;0.0
DEBUG;DEBUG10.0;DEBUG2;0.0;DEBUG3;0.0;DEBUG4;0.0
ATTITUDE;ANGX;0.0;ANGY;1.0;HEAD;-118.0
STATUS;CYCLETIME;2836;I2CERR;0;PRESENT;23;MODE;0
RAW_IMU;AX;3.0;AY;2.0;AZ;258.0;GX;0.0;GY;0.0;GZ;0.0;MAGX;86.0;MAGY;-70.0;MAGZ;-9.0
MOT;0;1000.0;1;1000.0;2;1000.0;3;1000.0;4;0.0;5;0.0;6;0.0;7;0.0;
RC;ROLL;1496.0;PITCH;1500.0;YAW;1507.0;THROTTLE;1062.0;AUX1;1683.0;AUX2;1500.0;AUX3;1500.0;AUX4;1500.0
ALTITUDE;0.0
DEBUG;DEBUG10.0;DEBUG2;0.0;DEBUG3;0.0;DEBUG4;0.0
ATTITUDE;ANGX;0.0;ANGY;1.0;HEAD;-118.0
STATUS;CYCLETIME;2932;I2CERR;0;PRESENT;23;MODE;0
RAW_IMU;AX;0.0;AY;1.0;AZ;256.0;GX;0.0;GY;0.0;GZ;0.0;MAGX;86.0;MAGY;-70.0;MAGZ;-9.0
MOT;0;1000.0;1;1000.0;2;1000.0;3;1000.0;4;0.0;5;0.0;6;0.0;7;0.0;
RC;ROLL;1494.0;PITCH;1503.0;YAW;1515.0;THROTTLE;1059.0;AUX1;1678.0;AUX2;1500.0;AUX3;1500.0;AUX4;1500.0
ALTITUDE;0.0
DEBUG;DEBUG10.0;DEBUG2;0.0;DEBUG3;0.0;DEBUG4;0.0
ATTITUDE;ANGX;0.0;ANGY;1.0;HEAD;-118.0
STATUS;CYCLETIME;2816;I2CERR;0;PRESENT;23;MODE;0
RAW_IMU;AX;1.0;AY;0.0;AZ;257.0;GX;0.0;GY;0.0;GZ;0.0;MAGX;86.0;MAGY;-71.0;MAGZ;-9.0
MOT;0;1000.0;1;1000.0;2;1000.0;3;1000.0;4;0.0;5;0.0;6;0.0;7;0.0;
RC;ROLL;1494.0;PITCH;1503.0;YAW;1511.0;THROTTLE;1059.0;AUX1;1683.0;AUX2;1500.0;AUX3;1500.0;AUX4;1500.0
ALTITUDE;0.0
DEBUG;DEBUG10.0;DEBUG2;0.0;DEBUG3;0.0;DEBUG4;0.0
ATTITUDE;ANGX;0.0;ANGY;1.0;HEAD;-118.0
STATUS;CYCLETIME;2988;I2CERR;0;PRESENT;23;MODE;0
RAW_IMU;AX;4.0;AY;-1.0;AZ;258.0;GX;0.0;GY;0.0;GZ;0.0;MAGX;86.0;MAGY;-71.0;MAGZ;-9.0
MOT;0;1000.0;1;1000.0;2;1000.0;3;1000.0;4;0.0;5;0.0;6;0.0;7;0.0;
RC;ROLL;1497.0;PITCH;1503.0;YAW;1507.0;THROTTLE;1059.0;AUX1;1683.0;AUX2;1500.0;AUX3;1500.0;AUX4;1500.0
ALTITUDE;0.0
DEBUG;DEBUG10.0;DEBUG2;0.0;DEBUG3;0.0;DEBUG4;0.0
ATTITUDE;ANGX;0.0;ANGY;1.0;HEAD;-118.0
STATUS;CYCLETIME;2808;I2CERR;0;PRESENT;23;MODE;0
RAW_IMU;AX;2.0;AY;0.0;AZ;258.0;GX;0.0;GY;0.0;GZ;0.0;MAGX;85.0;MAGY;-71.0;MAGZ;-10.0
MOT;0;1000.0;1;1000.0;2;1000.0;3;1000.0;4;0.0;5;0.0;6;0.0;7;0.0;
RC;ROLL;1497.0;PITCH;1501.0;YAW;1507.0;THROTTLE;1059.0;AUX1;1685.0;AUX2;1500.0;AUX3;1500.0;AUX4;1500.0
ALTITUDE;0.0
DEBUG;DEBUG10.0;DEBUG2;0.0;DEBUG3;0.0;DEBUG4;0.0
ATTITUDE;ANGX;0.0;ANGY;1.0;HEAD;-118.0
STATUS;CYCLETIME;2768;I2CERR;0;PRESENT;23;MODE;0
RAW_IMU;AX;1.0;AY;0.0;AZ;257.0;GX;0.0;GY;0.0;GZ;0.0;MAGX;85.0;MAGY;-71.0;MAGZ;-10.0
MOT;0;1000.0;1;1000.0;2;1000.0;3;1000.0;4;0.0;5;0.0;6;0.0;7;0.0;
RC;ROLL;1497.0;PITCH;1501.0;YAW;1511.0;THROTTLE;1059.0;AUX1;1685.0;AUX2;1500.0;AUX3;1500.0;AUX4;1500.0
ALTITUDE;0.0
DEBUG;DEBUG10.0;DEBUG2;0.0;DEBUG3;0.0;DEBUG4;0.0
ATTITUDE;ANGX;0.0;ANGY;1.0;HEAD;-118.0
STATUS;CYCLETIME;2804;I2CERR;0;PRESENT;23;MODE;0
RAW_IMU;AX;0.0;AY;1.0;AZ;258.0;GX;0.0;GY;0.0;GZ;0.0;MAGX;86.0;MAGY;-71.0;MAGZ;-9.0
MOT;0;1000.0;1;1000.0;2;1000.0;3;1000.0;4;0.0;5;0.0;6;0.0;7;0.0;
RC;ROLL;1494.0;PITCH;1503.0;YAW;1530.0;THROTTLE;1055.0;AUX1;1677.0;AUX2;1500.0;AUX3;1500.0;AUX4;1500.0
ALTITUDE;0.0
DEBUG;DEBUG10.0;DEBUG2;0.0;DEBUG3;0.0;DEBUG4;0.0
ATTITUDE;ANGX;0.0;ANGY;1.0;HEAD;-118.0
STATUS;CYCLETIME;2824;I2CERR;0;PRESENT;23;MODE;0
RAW_IMU;AX;0.0;AY;-1.0;AZ;256.0;GX;0.0;GY;0.0;GZ;0.0;MAGX;86.0;MAGY;-71.0;MAGZ;-9.0
MOT;0;1000.0;1;1000.0;2;1000.0;3;1000.0;4;0.0;5;0.0;6;0.0;7;0.0;
RC;ROLL;1494.0;PITCH;1503.0;YAW;1549.0;THROTTLE;1059.0;AUX1;1675.0;AUX2;1500.0;AUX3;1500.0;AUX4;1500.0
ALTITUDE;0.0
DEBUG;DEBUG10.0;DEBUG2;0.0;DEBUG3;0.0;DEBUG4;0.0
ATTITUDE;ANGX;0.0;ANGY;1.0;HEAD;-118.0
STATUS;CYCLETIME;2856;I2CERR;0;PRESENT;23;MODE;0
RAW_IMU;AX;3.0;AY;-1.0;AZ;264.0;GX;0.0;GY;0.0;GZ;0.0;MAGX;87.0;MAGY;-71.0;MAGZ;-10.0
MOT;0;1000.0;1;1000.0;2;1000.0;3;1000.0;4;0.0;5;0.0;6;0.0;7;0.0;
RC;ROLL;1496.0;PITCH;1503.0;YAW;1608.0;THROTTLE;1057.0;AUX1;1677.0;AUX2;1500.0;AUX3;1500.0;AUX4;1500.0
ALTITUDE;0.0
DEBUG;DEBUG10.0;DEBUG2;0.0;DEBUG3;0.0;DEBUG4;0.0
ATTITUDE;ANGX;0.0;ANGY;1.0;HEAD;-118.0
STATUS;CYCLETIME;2808;I2CERR;0;PRESENT;23;MODE;0
RAW_IMU;AX;2.0;AY;2.0;AZ;260.0;GX;0.0;GY;0.0;GZ;0.0;MAGX;87.0;MAGY;-71.0;MAGZ;-10.0
MOT;0;1000.0;1;1000.0;2;1000.0;3;1000.0;4;0.0;5;0.0;6;0.0;7;0.0;
RC;ROLL;1499.0;PITCH;1503.0;YAW;1655.0;THROTTLE;1055.0;AUX1;1677.0;AUX2;1500.0;AUX3;1500.0;AUX4;1500.0
ALTITUDE;0.0
DEBUG;DEBUG10.0;DEBUG2;0.0;DEBUG3;0.0;DEBUG4;0.0
ATTITUDE;ANGX;0.0;ANGY;1.0;HEAD;-118.0
STATUS;CYCLETIME;2808;I2CERR;0;PRESENT;23;MODE;0
RAW_IMU;AX;2.0;AY;0.0;AZ;257.0;GX;0.0;GY;0.0;GZ;0.0;MAGX;86.0;MAGY;-72.0;MAGZ;-10.0
MOT;0;1000.0;1;1000.0;2;1000.0;3;1000.0;4;0.0;5;0.0;6;0.0;7;0.0;
RC;ROLL;1499.0;PITCH;1503.0;YAW;1692.0;THROTTLE;1053.0;AUX1;1680.0;AUX2;1500.0;AUX3;1500.0;AUX4;1500.0
ALTITUDE;0.0
DEBUG;DEBUG10.0;DEBUG2;0.0;DEBUG3;0.0;DEBUG4;0.0
ATTITUDE;ANGX;0.0;ANGY;1.0;HEAD;-118.0
STATUS;CYCLETIME;2812;I2CERR;0;PRESENT;23;MODE;0
RAW_IMU;AX;1.0;AY;1.0;AZ;258.0;GX;0.0;GY;0.0;GZ;0.0;MAGX;86.0;MAGY;-72.0;MAGZ;-10.0
MOT;0;1000.0;1;1000.0;2;1000.0;3;1000.0;4;0.0;5;0.0;6;0.0;7;0.0;
RC;ROLL;1495.0;PITCH;1503.0;YAW;1730.0;THROTTLE;1049.0;AUX1;1678.0;AUX2;1500.0;AUX3;1500.0;AUX4;1500.0
ALTITUDE;0.0
DEBUG;DEBUG10.0;DEBUG2;0.0;DEBUG3;0.0;DEBUG4;0.0
ATTITUDE;ANGX;0.0;ANGY;1.0;HEAD;-118.0
STATUS;CYCLETIME;2940;I2CERR;0;PRESENT;23;MODE;0
RAW_IMU;AX;0.0;AY;0.0;AZ;258.0;GX;0.0;GY;0.0;GZ;0.0;MAGX;86.0;MAGY;-71.0;MAGZ;-9.0
MOT;0;1000.0;1;1000.0;2;1000.0;3;1000.0;4;0.0;5;0.0;6;0.0;7;0.0;
RC;ROLL;1495.0;PITCH;1506.0;YAW;1773.0;THROTTLE;1047.0;AUX1;1676.0;AUX2;1500.0;AUX3;1500.0;AUX4;1500.0
ALTITUDE;0.0
DEBUG;DEBUG10.0;DEBUG2;0.0;DEBUG3;0.0;DEBUG4;0.0
ATTITUDE;ANGX;0.0;ANGY;1.0;HEAD;-118.0
STATUS;CYCLETIME;2832;I2CERR;0;PRESENT;23;MODE;0
RAW_IMU;AX;2.0;AY;-1.0;AZ;258.0;GX;0.0;GY;0.0;GZ;0.0;MAGX;86.0;MAGY;-71.0;MAGZ;-9.0
MOT;0;1000.0;1;1000.0;2;1000.0;3;1000.0;4;0.0;5;0.0;6;0.0;7;0.0;
RC;ROLL;1495.0;PITCH;1506.0;YAW;1796.0;THROTTLE;1047.0;AUX1;1680.0;AUX2;1500.0;AUX3;1500.0;AUX4;1500.0
ALTITUDE;0.0
DEBUG;DEBUG10.0;DEBUG2;0.0;DEBUG3;0.0;DEBUG4;0.0
ATTITUDE;ANGX;0.0;ANGY;1.0;HEAD;-119.0
STATUS;CYCLETIME;2780;I2CERR;0;PRESENT;23;MODE;0
RAW_IMU;AX;2.0;AY;-2.0;AZ;258.0;GX;0.0;GY;0.0;GZ;0.0;MAGX;86.0;MAGY;-71.0;MAGZ;-9.0
MOT;0;1000.0;1;1000.0;2;1000.0;3;1000.0;4;0.0;5;0.0;6;0.0;7;0.0;
RC;ROLL;1497.0;PITCH;1498.0;YAW;1822.0;THROTTLE;1052.0;AUX1;1680.0;AUX2;1500.0;AUX3;1500.0;AUX4;1500.0
ALTITUDE;0.0
DEBUG;DEBUG10.0;DEBUG2;0.0;DEBUG3;0.0;DEBUG4;0.0
ATTITUDE;ANGX;0.0;ANGY;1.0;HEAD;-119.0
STATUS;CYCLETIME;2804;I2CERR;0;PRESENT;23;MODE;0
RAW_IMU;AX;0.0;AY;-1.0;AZ;258.0;GX;0.0;GY;0.0;GZ;0.0;MAGX;86.0;MAGY;-71.0;MAGZ;-9.0
MOT;0;1000.0;1;1000.0;2;1000.0;3;1000.0;4;0.0;5;0.0;6;0.0;7;0.0;
RC;ROLL;1497.0;PITCH;1500.0;YAW;1831.0;THROTTLE;1056.0;AUX1;1682.0;AUX2;1500.0;AUX3;1500.0;AUX4;1500.0
ALTITUDE;0.0
DEBUG;DEBUG10.0;DEBUG2;0.0;DEBUG3;0.0;DEBUG4;0.0
ATTITUDE;ANGX;0.0;ANGY;1.0;HEAD;-119.0
STATUS;CYCLETIME;2824;I2CERR;0;PRESENT;23;MODE;0
RAW_IMU;AX;-1.0;AY;-1.0;AZ;257.0;GX;0.0;GY;0.0;GZ;0.0;MAGX;86.0;MAGY;-71.0;MAGZ;-9.0
MOT;0;1000.0;1;1000.0;2;1000.0;3;1000.0;4;0.0;5;0.0;6;0.0;7;0.0;
RC;ROLL;1497.0;PITCH;1502.0;YAW;1854.0;THROTTLE;1053.0;AUX1;1677.0;AUX2;1500.0;AUX3;1500.0;AUX4;1500.0
ALTITUDE;0.0
DEBUG;DEBUG10.0;DEBUG2;0.0;DEBUG3;0.0;DEBUG4;0.0
ATTITUDE;ANGX;0.0;ANGY;1.0;HEAD;-119.0
STATUS;CYCLETIME;2824;I2CERR;0;PRESENT;23;MODE;0
RAW_IMU;AX;2.0;AY;-2.0;AZ;257.0;GX;0.0;GY;0.0;GZ;0.0;MAGX;87.0;MAGY;-71.0;MAGZ;-9.0
MOT;0;1000.0;1;1000.0;2;1000.0;3;1000.0;4;0.0;5;0.0;6;0.0;7;0.0;
RC;ROLL;1497.0;PITCH;1498.0;YAW;1865.0;THROTTLE;1056.0;AUX1;1677.0;AUX2;1500.0;AUX3;1500.0;AUX4;1500.0
ALTITUDE;0.0
DEBUG;DEBUG10.0;DEBUG2;0.0;DEBUG3;0.0;DEBUG4;0.0
ATTITUDE;ANGX;0.0;ANGY;1.0;HEAD;-118.0
STATUS;CYCLETIME;2860;I2CERR;0;PRESENT;23;MODE;0
RAW_IMU;AX;2.0;AY;1.0;AZ;255.0;GX;0.0;GY;0.0;GZ;0.0;MAGX;87.0;MAGY;-71.0;MAGZ;-9.0
MOT;0;1000.0;1;1000.0;2;1000.0;3;1000.0;4;0.0;5;0.0;6;0.0;7;0.0;
RC;ROLL;1497.0;PITCH;1498.0;YAW;1880.0;THROTTLE;1056.0;AUX1;1677.0;AUX2;1500.0;AUX3;1500.0;AUX4;1500.0
ALTITUDE;0.0
DEBUG;DEBUG10.0;DEBUG2;0.0;DEBUG3;0.0;DEBUG4;0.0
ATTITUDE;ANGX;0.0;ANGY;1.0;HEAD;-118.0
STATUS;CYCLETIME;2840;I2CERR;0;PRESENT;23;MODE;0
RAW_IMU;AX;2.0;AY;1.0;AZ;254.0;GX;0.0;GY;0.0;GZ;0.0;MAGX;86.0;MAGY;-70.0;MAGZ;-9.0
MOT;0;1000.0;1;1000.0;2;1000.0;3;1000.0;4;0.0;5;0.0;6;0.0;7;0.0;
RC;ROLL;1497.0;PITCH;1501.0;YAW;1898.0;THROTTLE;1052.0;AUX1;1677.0;AUX2;1500.0;AUX3;1500.0;AUX4;1500.0
ALTITUDE;0.0
DEBUG;DEBUG10.0;DEBUG2;0.0;DEBUG3;0.0;DEBUG4;0.0
ATTITUDE;ANGX;0.0;ANGY;1.0;HEAD;-118.0
STATUS;CYCLETIME;2800;I2CERR;0;PRESENT;23;MODE;0
RAW_IMU;AX;2.0;AY;0.0;AZ;254.0;GX;0.0;GY;0.0;GZ;0.0;MAGX;86.0;MAGY;-70.0;MAGZ;-9.0
MOT;0;1000.0;1;1000.0;2;1000.0;3;1000.0;4;0.0;5;0.0;6;0.0;7;0.0;
RC;ROLL;1497.0;PITCH;1501.0;YAW;1901.0;THROTTLE;1052.0;AUX1;1680.0;AUX2;1500.0;AUX3;1500.0;AUX4;1500.0
ALTITUDE;0.0
DEBUG;DEBUG10.0;DEBUG2;0.0;DEBUG3;0.0;DEBUG4;0.0
ATTITUDE;ANGX;0.0;ANGY;1.0;HEAD;-118.0
STATUS;CYCLETIME;2816;I2CERR;0;PRESENT;23;MODE;0
RAW_IMU;AX;0.0;AY;0.0;AZ;256.0;GX;0.0;GY;0.0;GZ;0.0;MAGX;85.0;MAGY;-71.0;MAGZ;-9.0
MOT;0;1000.0;1;1000.0;2;1000.0;3;1000.0;4;0.0;5;0.0;6;0.0;7;0.0;
RC;ROLL;1499.0;PITCH;1501.0;YAW;1901.0;THROTTLE;1050.0;AUX1;1685.0;AUX2;1500.0;AUX3;1500.0;AUX4;1500.0
ALTITUDE;0.0
DEBUG;DEBUG10.0;DEBUG2;0.0;DEBUG3;0.0;DEBUG4;0.0
ATTITUDE;ANGX;0.0;ANGY;1.0;HEAD;-118.0
STATUS;CYCLETIME;2952;I2CERR;0;PRESENT;23;MODE;0
RAW_IMU;AX;3.0;AY;-1.0;AZ;257.0;GX;0.0;GY;0.0;GZ;0.0;MAGX;85.0;MAGY;-71.0;MAGZ;-9.0
MOT;0;1000.0;1;1000.0;2;1000.0;3;1000.0;4;0.0;5;0.0;6;0.0;7;0.0;
RC;ROLL;1499.0;PITCH;1501.0;YAW;1904.0;THROTTLE;1047.0;AUX1;1681.0;AUX2;1500.0;AUX3;1500.0;AUX4;1500.0
ALTITUDE;0.0
DEBUG;DEBUG10.0;DEBUG2;0.0;DEBUG3;0.0;DEBUG4;0.0
ATTITUDE;ANGX;0.0;ANGY;1.0;HEAD;-118.0
STATUS;CYCLETIME;2800;I2CERR;0;PRESENT;23;MODE;0
RAW_IMU;AX;0.0;AY;0.0;AZ;256.0;GX;0.0;GY;0.0;GZ;0.0;MAGX;86.0;MAGY;-71.0;MAGZ;-10.0
MOT;0;1000.0;1;1000.0;2;1000.0;3;1000.0;4;0.0;5;0.0;6;0.0;7;0.0;
RC;ROLL;1496.0;PITCH;1501.0;YAW;1904.0;THROTTLE;1047.0;AUX1;1681.0;AUX2;1500.0;AUX3;1500.0;AUX4;1500.0
ALTITUDE;0.0
DEBUG;DEBUG10.0;DEBUG2;0.0;DEBUG3;0.0;DEBUG4;0.0
ATTITUDE;ANGX;0.0;ANGY;1.0;HEAD;-118.0
STATUS;CYCLETIME;2844;I2CERR;0;PRESENT;23;MODE;0
RAW_IMU;AX;2.0;AY;-1.0;AZ;256.0;GX;0.0;GY;0.0;GZ;0.0;MAGX;86.0;MAGY;-71.0;MAGZ;-10.0
MOT;0;1000.0;1;1000.0;2;1000.0;3;1000.0;4;0.0;5;0.0;6;0.0;7;0.0;
RC;ROLL;1494.0;PITCH;1501.0;YAW;1904.0;THROTTLE;1047.0;AUX1;1681.0;AUX2;1500.0;AUX3;1500.0;AUX4;1500.0
ALTITUDE;0.0
DEBUG;DEBUG10.0;DEBUG2;0.0;DEBUG3;0.0;DEBUG4;0.0
ATTITUDE;ANGX;0.0;ANGY;1.0;HEAD;-118.0
STATUS;CYCLETIME;2812;I2CERR;0;PRESENT;23;MODE;0
RAW_IMU;AX;1.0;AY;2.0;AZ;256.0;GX;0.0;GY;0.0;GZ;0.0;MAGX;86.0;MAGY;-70.0;MAGZ;-9.0
MOT;0;1000.0;1;1000.0;2;1000.0;3;1000.0;4;0.0;5;0.0;6;0.0;7;0.0;
RC;ROLL;1492.0;PITCH;1503.0;YAW;1909.0;THROTTLE;1047.0;AUX1;1679.0;AUX2;1500.0;AUX3;1500.0;AUX4;1500.0
ALTITUDE;0.0
DEBUG;DEBUG10.0;DEBUG2;0.0;DEBUG3;0.0;DEBUG4;0.0
ATTITUDE;ANGX;0.0;ANGY;1.0;HEAD;-118.0
STATUS;CYCLETIME;2836;I2CERR;0;PRESENT;23;MODE;0
RAW_IMU;AX;2.0;AY;2.0;AZ;257.0;GX;0.0;GY;0.0;GZ;0.0;MAGX;86.0;MAGY;-70.0;MAGZ;-9.0
MOT;0;1000.0;1;1000.0;2;1000.0;3;1000.0;4;0.0;5;0.0;6;0.0;7;0.0;
RC;ROLL;1492.0;PITCH;1503.0;YAW;1909.0;THROTTLE;1049.0;AUX1;1676.0;AUX2;1500.0;AUX3;1500.0;AUX4;1500.0
ALTITUDE;0.0
DEBUG;DEBUG10.0;DEBUG2;0.0;DEBUG3;0.0;DEBUG4;0.0
ATTITUDE;ANGX;0.0;ANGY;1.0;HEAD;-118.0
STATUS;CYCLETIME;2956;I2CERR;0;PRESENT;23;MODE;0
RAW_IMU;AX;3.0;AY;0.0;AZ;256.0;GX;0.0;GY;0.0;GZ;0.0;MAGX;87.0;MAGY;-71.0;MAGZ;-9.0
MOT;0;1000.0;1;1000.0;2;1000.0;3;1000.0;4;0.0;5;0.0;6;0.0;7;0.0;
RC;ROLL;1500.0;PITCH;1501.0;YAW;1906.0;THROTTLE;1049.0;AUX1;1676.0;AUX2;1500.0;AUX3;1500.0;AUX4;1500.0
ALTITUDE;0.0
DEBUG;DEBUG10.0;DEBUG2;0.0;DEBUG3;0.0;DEBUG4;0.0
ATTITUDE;ANGX;0.0;ANGY;1.0;HEAD;-118.0
STATUS;CYCLETIME;2816;I2CERR;0;PRESENT;23;MODE;1
RAW_IMU;AX;2.0;AY;2.0;AZ;258.0;GX;0.0;GY;0.0;GZ;0.0;MAGX;87.0;MAGY;-71.0;MAGZ;-9.0
MOT;0;1150.0;1;1150.0;2;1150.0;3;1150.0;4;0.0;5;0.0;6;0.0;7;0.0;
RC;ROLL;1498.0;PITCH;1501.0;YAW;1906.0;THROTTLE;1049.0;AUX1;1676.0;AUX2;1500.0;AUX3;1500.0;AUX4;1500.0
ALTITUDE;0.0
DEBUG;DEBUG10.0;DEBUG2;0.0;DEBUG3;0.0;DEBUG4;0.0
ATTITUDE;ANGX;0.0;ANGY;1.0;HEAD;-118.0
STATUS;CYCLETIME;2816;I2CERR;0;PRESENT;23;MODE;1
RAW_IMU;AX;3.0;AY;1.0;AZ;258.0;GX;0.0;GY;0.0;GZ;0.0;MAGX;85.0;MAGY;-71.0;MAGZ;-9.0
MOT;0;1150.0;1;1150.0;2;1150.0;3;1150.0;4;0.0;5;0.0;6;0.0;7;0.0;
RC;ROLL;1495.0;PITCH;1501.0;YAW;1906.0;THROTTLE;1047.0;AUX1;1676.0;AUX2;1500.0;AUX3;1500.0;AUX4;1500.0
ALTITUDE;0.0
DEBUG;DEBUG10.0;DEBUG2;0.0;DEBUG3;0.0;DEBUG4;0.0
ATTITUDE;ANGX;0.0;ANGY;1.0;HEAD;-118.0
STATUS;CYCLETIME;2860;I2CERR;0;PRESENT;23;MODE;1
RAW_IMU;AX;2.0;AY;1.0;AZ;259.0;GX;0.0;GY;0.0;GZ;0.0;MAGX;85.0;MAGY;-71.0;MAGZ;-9.0
MOT;0;1150.0;1;1150.0;2;1150.0;3;1150.0;4;0.0;5;0.0;6;0.0;7;0.0;
RC;ROLL;1495.0;PITCH;1504.0;YAW;1906.0;THROTTLE;1045.0;AUX1;1676.0;AUX2;1500.0;AUX3;1500.0;AUX4;1500.0
ALTITUDE;0.0
DEBUG;DEBUG10.0;DEBUG2;0.0;DEBUG3;0.0;DEBUG4;0.0
ATTITUDE;ANGX;0.0;ANGY;1.0;HEAD;-118.0
STATUS;CYCLETIME;2824;I2CERR;0;PRESENT;23;MODE;1
RAW_IMU;AX;1.0;AY;1.0;AZ;256.0;GX;0.0;GY;0.0;GZ;0.0;MAGX;86.0;MAGY;-72.0;MAGZ;-10.0
MOT;0;1150.0;1;1150.0;2;1150.0;3;1150.0;4;0.0;5;0.0;6;0.0;7;0.0;
RC;ROLL;1493.0;PITCH;1504.0;YAW;1901.0;THROTTLE;1045.0;AUX1;1681.0;AUX2;1500.0;AUX3;1500.0;AUX4;1500.0
ALTITUDE;0.0
DEBUG;DEBUG10.0;DEBUG2;0.0;DEBUG3;0.0;DEBUG4;0.0
ATTITUDE;ANGX;0.0;ANGY;1.0;HEAD;-118.0
STATUS;CYCLETIME;2848;I2CERR;0;PRESENT;23;MODE;1
RAW_IMU;AX;2.0;AY;1.0;AZ;254.0;GX;0.0;GY;0.0;GZ;0.0;MAGX;86.0;MAGY;-72.0;MAGZ;-10.0
MOT;0;1150.0;1;1150.0;2;1150.0;3;1150.0;4;0.0;5;0.0;6;0.0;7;0.0;
RC;ROLL;1493.0;PITCH;1504.0;YAW;1901.0;THROTTLE;1045.0;AUX1;1683.0;AUX2;1500.0;AUX3;1500.0;AUX4;1500.0
ALTITUDE;0.0
DEBUG;DEBUG10.0;DEBUG2;0.0;DEBUG3;0.0;DEBUG4;0.0
ATTITUDE;ANGX;0.0;ANGY;1.0;HEAD;-118.0
STATUS;CYCLETIME;2832;I2CERR;0;PRESENT;23;MODE;1
RAW_IMU;AX;3.0;AY;0.0;AZ;255.0;GX;0.0;GY;0.0;GZ;0.0;MAGX;86.0;MAGY;-72.0;MAGZ;-10.0
MOT;0;1150.0;1;1150.0;2;1150.0;3;1150.0;4;0.0;5;0.0;6;0.0;7;0.0;
RC;ROLL;1495.0;PITCH;1504.0;YAW;1901.0;THROTTLE;1049.0;AUX1;1680.0;AUX2;1500.0;AUX3;1500.0;AUX4;1500.0
ALTITUDE;0.0
DEBUG;DEBUG10.0;DEBUG2;0.0;DEBUG3;0.0;DEBUG4;0.0
ATTITUDE;ANGX;0.0;ANGY;1.0;HEAD;-118.0
STATUS;CYCLETIME;2796;I2CERR;0;PRESENT;23;MODE;1
RAW_IMU;AX;0.0;AY;1.0;AZ;254.0;GX;0.0;GY;0.0;GZ;0.0;MAGX;86.0;MAGY;-72.0;MAGZ;-9.0
MOT;0;1150.0;1;1150.0;2;1150.0;3;1150.0;4;0.0;5;0.0;6;0.0;7;0.0;
RC;ROLL;1495.0;PITCH;1504.0;YAW;1901.0;THROTTLE;1049.0;AUX1;1680.0;AUX2;1500.0;AUX3;1500.0;AUX4;1500.0
ALTITUDE;0.0
DEBUG;DEBUG10.0;DEBUG2;0.0;DEBUG3;0.0;DEBUG4;0.0
ATTITUDE;ANGX;0.0;ANGY;1.0;HEAD;-118.0
STATUS;CYCLETIME;2836;I2CERR;0;PRESENT;23;MODE;1
RAW_IMU;AX;2.0;AY;0.0;AZ;256.0;GX;0.0;GY;0.0;GZ;0.0;MAGX;86.0;MAGY;-72.0;MAGZ;-9.0
MOT;0;1150.0;1;1150.0;2;1150.0;3;1150.0;4;0.0;5;0.0;6;0.0;7;0.0;
RC;ROLL;1495.0;PITCH;1504.0;YAW;1901.0;THROTTLE;1049.0;AUX1;1680.0;AUX2;1500.0;AUX3;1500.0;AUX4;1500.0
ALTITUDE;0.0
DEBUG;DEBUG10.0;DEBUG2;0.0;DEBUG3;0.0;DEBUG4;0.0
ATTITUDE;ANGX;0.0;ANGY;1.0;HEAD;-119.0
STATUS;CYCLETIME;2868;I2CERR;0;PRESENT;23;MODE;1
RAW_IMU;AX;0.0;AY;0.0;AZ;254.0;GX;0.0;GY;0.0;GZ;0.0;MAGX;85.0;MAGY;-72.0;MAGZ;-10.0
MOT;0;1150.0;1;1150.0;2;1150.0;3;1150.0;4;0.0;5;0.0;6;0.0;7;0.0;
RC;ROLL;1496.0;PITCH;1504.0;YAW;1903.0;THROTTLE;1044.0;AUX1;1680.0;AUX2;1500.0;AUX3;1500.0;AUX4;1500.0
ALTITUDE;0.0
DEBUG;DEBUG10.0;DEBUG2;0.0;DEBUG3;0.0;DEBUG4;0.0
ATTITUDE;ANGX;0.0;ANGY;1.0;HEAD;-119.0
STATUS;CYCLETIME;2844;I2CERR;0;PRESENT;23;MODE;1
RAW_IMU;AX;2.0;AY;1.0;AZ;255.0;GX;0.0;GY;0.0;GZ;0.0;MAGX;85.0;MAGY;-72.0;MAGZ;-10.0
MOT;0;1150.0;1;1150.0;2;1150.0;3;1150.0;4;0.0;5;0.0;6;0.0;7;0.0;
RC;ROLL;1498.0;PITCH;1502.0;YAW;1905.0;THROTTLE;1042.0;AUX1;1685.0;AUX2;1500.0;AUX3;1500.0;AUX4;1500.0
ALTITUDE;0.0
DEBUG;DEBUG10.0;DEBUG2;0.0;DEBUG3;0.0;DEBUG4;0.0
ATTITUDE;ANGX;0.0;ANGY;1.0;HEAD;-119.0
STATUS;CYCLETIME;2844;I2CERR;0;PRESENT;23;MODE;1
RAW_IMU;AX;3.0;AY;-1.0;AZ;257.0;GX;0.0;GY;0.0;GZ;0.0;MAGX;87.0;MAGY;-72.0;MAGZ;-9.0
MOT;0;1150.0;1;1150.0;2;1150.0;3;1150.0;4;0.0;5;0.0;6;0.0;7;0.0;
RC;ROLL;1498.0;PITCH;1502.0;YAW;1903.0;THROTTLE;1042.0;AUX1;1685.0;AUX2;1500.0;AUX3;1500.0;AUX4;1500.0
ALTITUDE;0.0
DEBUG;DEBUG10.0;DEBUG2;0.0;DEBUG3;0.0;DEBUG4;0.0
ATTITUDE;ANGX;0.0;ANGY;1.0;HEAD;-119.0
STATUS;CYCLETIME;2824;I2CERR;0;PRESENT;23;MODE;1
RAW_IMU;AX;-1.0;AY;-1.0;AZ;257.0;GX;0.0;GY;0.0;GZ;0.0;MAGX;87.0;MAGY;-72.0;MAGZ;-9.0
MOT;0;1150.0;1;1150.0;2;1150.0;3;1150.0;4;0.0;5;0.0;6;0.0;7;0.0;
RC;ROLL;1498.0;PITCH;1500.0;YAW;1902.0;THROTTLE;1046.0;AUX1;1681.0;AUX2;1500.0;AUX3;1500.0;AUX4;1500.0
ALTITUDE;0.0
DEBUG;DEBUG10.0;DEBUG2;0.0;DEBUG3;0.0;DEBUG4;0.0
ATTITUDE;ANGX;0.0;ANGY;1.0;HEAD;-119.0
STATUS;CYCLETIME;2816;I2CERR;0;PRESENT;23;MODE;1
RAW_IMU;AX;1.0;AY;0.0;AZ;256.0;GX;0.0;GY;0.0;GZ;0.0;MAGX;86.0;MAGY;-71.0;MAGZ;-9.0
MOT;0;1150.0;1;1150.0;2;1150.0;3;1150.0;4;0.0;5;0.0;6;0.0;7;0.0;
RC;ROLL;1495.0;PITCH;1500.0;YAW;1902.0;THROTTLE;1046.0;AUX1;1681.0;AUX2;1500.0;AUX3;1500.0;AUX4;1500.0
ALTITUDE;0.0
DEBUG;DEBUG10.0;DEBUG2;0.0;DEBUG3;0.0;DEBUG4;0.0
ATTITUDE;ANGX;0.0;ANGY;1.0;HEAD;-119.0
STATUS;CYCLETIME;2820;I2CERR;0;PRESENT;23;MODE;1
RAW_IMU;AX;3.0;AY;2.0;AZ;258.0;GX;0.0;GY;0.0;GZ;0.0;MAGX;86.0;MAGY;-71.0;MAGZ;-9.0
MOT;0;1150.0;1;1150.0;2;1150.0;3;1150.0;4;0.0;5;0.0;6;0.0;7;0.0;
RC;ROLL;1493.0;PITCH;1504.0;YAW;1900.0;THROTTLE;1046.0;AUX1;1681.0;AUX2;1500.0;AUX3;1500.0;AUX4;1500.0
ALTITUDE;0.0
DEBUG;DEBUG10.0;DEBUG2;0.0;DEBUG3;0.0;DEBUG4;0.0
ATTITUDE;ANGX;0.0;ANGY;1.0;HEAD;-119.0
STATUS;CYCLETIME;2800;I2CERR;0;PRESENT;23;MODE;1
RAW_IMU;AX;0.0;AY;2.0;AZ;257.0;GX;0.0;GY;0.0;GZ;0.0;MAGX;86.0;MAGY;-72.0;MAGZ;-9.0
MOT;0;1150.0;1;1150.0;2;1150.0;3;1150.0;4;0.0;5;0.0;6;0.0;7;0.0;
RC;ROLL;1493.0;PITCH;1506.0;YAW;1905.0;THROTTLE;1046.0;AUX1;1681.0;AUX2;1500.0;AUX3;1500.0;AUX4;1500.0
ALTITUDE;0.0
DEBUG;DEBUG10.0;DEBUG2;0.0;DEBUG3;0.0;DEBUG4;0.0
ATTITUDE;ANGX;0.0;ANGY;1.0;HEAD;-119.0
STATUS;CYCLETIME;2876;I2CERR;0;PRESENT;23;MODE;1
RAW_IMU;AX;1.0;AY;1.0;AZ;259.0;GX;0.0;GY;0.0;GZ;0.0;MAGX;86.0;MAGY;-72.0;MAGZ;-9.0
MOT;0;1150.0;1;1150.0;2;1150.0;3;1150.0;4;0.0;5;0.0;6;0.0;7;0.0;
RC;ROLL;1495.0;PITCH;1506.0;YAW;1905.0;THROTTLE;1046.0;AUX1;1681.0;AUX2;1500.0;AUX3;1500.0;AUX4;1500.0
ALTITUDE;0.0
DEBUG;DEBUG10.0;DEBUG2;0.0;DEBUG3;0.0;DEBUG4;0.0
ATTITUDE;ANGX;0.0;ANGY;1.0;HEAD;-119.0
STATUS;CYCLETIME;2784;I2CERR;0;PRESENT;23;MODE;1
RAW_IMU;AX;1.0;AY;-1.0;AZ;259.0;GX;0.0;GY;0.0;GZ;0.0;MAGX;87.0;MAGY;-72.0;MAGZ;-9.0
MOT;0;1150.0;1;1150.0;2;1150.0;3;1150.0;4;0.0;5;0.0;6;0.0;7;0.0;
RC;ROLL;1495.0;PITCH;1504.0;YAW;1905.0;THROTTLE;1046.0;AUX1;1678.0;AUX2;1500.0;AUX3;1500.0;AUX4;1500.0
ALTITUDE;0.0
DEBUG;DEBUG10.0;DEBUG2;0.0;DEBUG3;0.0;DEBUG4;0.0
ATTITUDE;ANGX;0.0;ANGY;1.0;HEAD;-119.0
STATUS;CYCLETIME;2908;I2CERR;0;PRESENT;23;MODE;1
RAW_IMU;AX;2.0;AY;1.0;AZ;258.0;GX;0.0;GY;0.0;GZ;0.0;MAGX;87.0;MAGY;-72.0;MAGZ;-9.0
MOT;0;1150.0;1;1150.0;2;1150.0;3;1150.0;4;0.0;5;0.0;6;0.0;7;0.0;
RC;ROLL;1495.0;PITCH;1502.0;YAW;1903.0;THROTTLE;1048.0;AUX1;1676.0;AUX2;1500.0;AUX3;1500.0;AUX4;1500.0
ALTITUDE;0.0
DEBUG;DEBUG10.0;DEBUG2;0.0;DEBUG3;0.0;DEBUG4;0.0
ATTITUDE;ANGX;0.0;ANGY;1.0;HEAD;-119.0
STATUS;CYCLETIME;2828;I2CERR;0;PRESENT;23;MODE;1
RAW_IMU;AX;1.0;AY;2.0;AZ;258.0;GX;0.0;GY;0.0;GZ;0.0;MAGX;87.0;MAGY;-71.0;MAGZ;-10.0
MOT;0;1150.0;1;1150.0;2;1150.0;3;1150.0;4;0.0;5;0.0;6;0.0;7;0.0;
RC;ROLL;1497.0;PITCH;1500.0;YAW;1891.0;THROTTLE;1051.0;AUX1;1676.0;AUX2;1500.0;AUX3;1500.0;AUX4;1500.0
ALTITUDE;0.0
DEBUG;DEBUG10.0;DEBUG2;0.0;DEBUG3;0.0;DEBUG4;0.0
ATTITUDE;ANGX;0.0;ANGY;1.0;HEAD;-119.0
STATUS;CYCLETIME;2780;I2CERR;0;PRESENT;23;MODE;1
RAW_IMU;AX;2.0;AY;1.0;AZ;258.0;GX;0.0;GY;0.0;GZ;0.0;MAGX;87.0;MAGY;-71.0;MAGZ;-10.0
MOT;0;1150.0;1;1150.0;2;1150.0;3;1150.0;4;0.0;5;0.0;6;0.0;7;0.0;
RC;ROLL;1493.0;PITCH;1500.0;YAW;1861.0;THROTTLE;1054.0;AUX1;1680.0;AUX2;1500.0;AUX3;1500.0;AUX4;1500.0
ALTITUDE;0.0
DEBUG;DEBUG10.0;DEBUG2;0.0;DEBUG3;0.0;DEBUG4;0.0
ATTITUDE;ANGX;0.0;ANGY;1.0;HEAD;-119.0
STATUS;CYCLETIME;2876;I2CERR;0;PRESENT;23;MODE;1
RAW_IMU;AX;0.0;AY;0.0;AZ;258.0;GX;0.0;GY;0.0;GZ;0.0;MAGX;87.0;MAGY;-71.0;MAGZ;-9.0
MOT;0;1150.0;1;1150.0;2;1150.0;3;1150.0;4;0.0;5;0.0;6;0.0;7;0.0;
RC;ROLL;1495.0;PITCH;1500.0;YAW;1793.0;THROTTLE;1054.0;AUX1;1678.0;AUX2;1500.0;AUX3;1500.0;AUX4;1500.0
ALTITUDE;0.0
DEBUG;DEBUG10.0;DEBUG2;0.0;DEBUG3;0.0;DEBUG4;0.0
ATTITUDE;ANGX;0.0;ANGY;1.0;HEAD;-119.0
STATUS;CYCLETIME;2812;I2CERR;0;PRESENT;23;MODE;1
RAW_IMU;AX;1.0;AY;2.0;AZ;258.0;GX;0.0;GY;0.0;GZ;0.0;MAGX;87.0;MAGY;-71.0;MAGZ;-9.0
MOT;0;1150.0;1;1150.0;2;1150.0;3;1150.0;4;0.0;5;0.0;6;0.0;7;0.0;
RC;ROLL;1499.0;PITCH;1500.0;YAW;1749.0;THROTTLE;1054.0;AUX1;1675.0;AUX2;1500.0;AUX3;1500.0;AUX4;1500.0
ALTITUDE;0.0
DEBUG;DEBUG10.0;DEBUG2;0.0;DEBUG3;0.0;DEBUG4;0.0
ATTITUDE;ANGX;0.0;ANGY;1.0;HEAD;-119.0
STATUS;CYCLETIME;2884;I2CERR;0;PRESENT;23;MODE;1
RAW_IMU;AX;1.0;AY;1.0;AZ;257.0;GX;0.0;GY;0.0;GZ;0.0;MAGX;86.0;MAGY;-71.0;MAGZ;-9.0
MOT;0;1150.0;1;1150.0;2;1150.0;3;1150.0;4;0.0;5;0.0;6;0.0;7;0.0;
RC;ROLL;1496.0;PITCH;1500.0;YAW;1664.0;THROTTLE;1057.0;AUX1;1678.0;AUX2;1500.0;AUX3;1500.0;AUX4;1500.0
ALTITUDE;0.0
DEBUG;DEBUG10.0;DEBUG2;0.0;DEBUG3;0.0;DEBUG4;0.0
ATTITUDE;ANGX;0.0;ANGY;1.0;HEAD;-119.0
STATUS;CYCLETIME;2916;I2CERR;0;PRESENT;23;MODE;1
RAW_IMU;AX;4.0;AY;0.0;AZ;257.0;GX;0.0;GY;0.0;GZ;0.0;MAGX;86.0;MAGY;-71.0;MAGZ;-9.0
MOT;0;1150.0;1;1150.0;2;1150.0;3;1150.0;4;0.0;5;0.0;6;0.0;7;0.0;
RC;ROLL;1493.0;PITCH;1502.0;YAW;1615.0;THROTTLE;1057.0;AUX1;1680.0;AUX2;1500.0;AUX3;1500.0;AUX4;1500.0
ALTITUDE;0.0
DEBUG;DEBUG10.0;DEBUG2;0.0;DEBUG3;0.0;DEBUG4;0.0
ATTITUDE;ANGX;0.0;ANGY;1.0;HEAD;-119.0
STATUS;CYCLETIME;2800;I2CERR;0;PRESENT;23;MODE;1
RAW_IMU;AX;3.0;AY;-1.0;AZ;258.0;GX;0.0;GY;0.0;GZ;0.0;MAGX;87.0;MAGY;-71.0;MAGZ;-9.0
MOT;0;1150.0;1;1150.0;2;1150.0;3;1150.0;4;0.0;5;0.0;6;0.0;7;0.0;
RC;ROLL;1495.0;PITCH;1502.0;YAW;1577.0;THROTTLE;1057.0;AUX1;1683.0;AUX2;1500.0;AUX3;1500.0;AUX4;1500.0
ALTITUDE;0.0
DEBUG;DEBUG10.0;DEBUG2;0.0;DEBUG3;0.0;DEBUG4;0.0
ATTITUDE;ANGX;0.0;ANGY;1.0;HEAD;-119.0
STATUS;CYCLETIME;2836;I2CERR;0;PRESENT;23;MODE;1
RAW_IMU;AX;3.0;AY;-1.0;AZ;258.0;GX;0.0;GY;0.0;GZ;0.0;MAGX;87.0;MAGY;-71.0;MAGZ;-9.0
MOT;0;1150.0;1;1150.0;2;1150.0;3;1150.0;4;0.0;5;0.0;6;0.0;7;0.0;
RC;ROLL;1495.0;PITCH;1502.0;YAW;1541.0;THROTTLE;1057.0;AUX1;1683.0;AUX2;1500.0;AUX3;1500.0;AUX4;1500.0
ALTITUDE;0.0
DEBUG;DEBUG10.0;DEBUG2;0.0;DEBUG3;0.0;DEBUG4;0.0
ATTITUDE;ANGX;0.0;ANGY;1.0;HEAD;-118.0
STATUS;CYCLETIME;2848;I2CERR;0;PRESENT;23;MODE;1
RAW_IMU;AX;3.0;AY;1.0;AZ;257.0;GX;0.0;GY;0.0;GZ;0.0;MAGX;87.0;MAGY;-71.0;MAGZ;-9.0
MOT;0;1150.0;1;1150.0;2;1150.0;3;1150.0;4;0.0;5;0.0;6;0.0;7;0.0;
RC;ROLL;1495.0;PITCH;1504.0;YAW;1525.0;THROTTLE;1057.0;AUX1;1683.0;AUX2;1500.0;AUX3;1500.0;AUX4;1500.0
ALTITUDE;0.0
DEBUG;DEBUG10.0;DEBUG2;0.0;DEBUG3;0.0;DEBUG4;0.0
ATTITUDE;ANGX;0.0;ANGY;1.0;HEAD;-118.0
STATUS;CYCLETIME;2860;I2CERR;0;PRESENT;23;MODE;1
RAW_IMU;AX;4.0;AY;1.0;AZ;258.0;GX;0.0;GY;0.0;GZ;0.0;MAGX;88.0;MAGY;-71.0;MAGZ;-10.0
MOT;0;1150.0;1;1150.0;2;1150.0;3;1150.0;4;0.0;5;0.0;6;0.0;7;0.0;
RC;ROLL;1491.0;PITCH;1504.0;YAW;1515.0;THROTTLE;1057.0;AUX1;1683.0;AUX2;1500.0;AUX3;1500.0;AUX4;1500.0
ALTITUDE;0.0
DEBUG;DEBUG10.0;DEBUG2;0.0;DEBUG3;0.0;DEBUG4;0.0
ATTITUDE;ANGX;0.0;ANGY;1.0;HEAD;-118.0
STATUS;CYCLETIME;2812;I2CERR;0;PRESENT;23;MODE;1
RAW_IMU;AX;1.0;AY;0.0;AZ;259.0;GX;0.0;GY;0.0;GZ;0.0;MAGX;88.0;MAGY;-71.0;MAGZ;-10.0
MOT;0;1150.0;1;1150.0;2;1150.0;3;1150.0;4;0.0;5;0.0;6;0.0;7;0.0;
RC;ROLL;1491.0;PITCH;1504.0;YAW;1506.0;THROTTLE;1061.0;AUX1;1679.0;AUX2;1500.0;AUX3;1500.0;AUX4;1500.0
ALTITUDE;0.0
DEBUG;DEBUG10.0;DEBUG2;0.0;DEBUG3;0.0;DEBUG4;0.0
ATTITUDE;ANGX;0.0;ANGY;1.0;HEAD;-118.0
STATUS;CYCLETIME;2880;I2CERR;0;PRESENT;23;MODE;1
RAW_IMU;AX;1.0;AY;-1.0;AZ;257.0;GX;0.0;GY;0.0;GZ;0.0;MAGX;86.0;MAGY;-71.0;MAGZ;-10.0
MOT;0;1150.0;1;1150.0;2;1150.0;3;1150.0;4;0.0;5;0.0;6;0.0;7;0.0;
RC;ROLL;1493.0;PITCH;1502.0;YAW;1508.0;THROTTLE;1061.0;AUX1;1674.0;AUX2;1500.0;AUX3;1500.0;AUX4;1500.0
ALTITUDE;0.0
DEBUG;DEBUG10.0;DEBUG2;0.0;DEBUG3;0.0;DEBUG4;0.0
ATTITUDE;ANGX;0.0;ANGY;1.0;HEAD;-118.0
STATUS;CYCLETIME;2844;I2CERR;0;PRESENT;23;MODE;1
RAW_IMU;AX;1.0;AY;-1.0;AZ;257.0;GX;0.0;GY;0.0;GZ;0.0;MAGX;86.0;MAGY;-71.0;MAGZ;-10.0
MOT;0;1150.0;1;1150.0;2;1150.0;3;1150.0;4;0.0;5;0.0;6;0.0;7;0.0;
RC;ROLL;1495.0;PITCH;1500.0;YAW;1508.0;THROTTLE;1054.0;AUX1;1676.0;AUX2;1500.0;AUX3;1500.0;AUX4;1500.0
ALTITUDE;0.0
DEBUG;DEBUG10.0;DEBUG2;0.0;DEBUG3;0.0;DEBUG4;0.0
ATTITUDE;ANGX;0.0;ANGY;1.0;HEAD;-118.0
STATUS;CYCLETIME;2820;I2CERR;0;PRESENT;23;MODE;1
RAW_IMU;AX;2.0;AY;0.0;AZ;257.0;GX;0.0;GY;0.0;GZ;0.0;MAGX;86.0;MAGY;-72.0;MAGZ;-9.0
MOT;0;1150.0;1;1150.0;2;1150.0;3;1150.0;4;0.0;5;0.0;6;0.0;7;0.0;
RC;ROLL;1495.0;PITCH;1500.0;YAW;1508.0;THROTTLE;1054.0;AUX1;1676.0;AUX2;1500.0;AUX3;1500.0;AUX4;1500.0
ALTITUDE;0.0
DEBUG;DEBUG10.0;DEBUG2;0.0;DEBUG3;0.0;DEBUG4;0.0
ATTITUDE;ANGX;0.0;ANGY;1.0;HEAD;-118.0
STATUS;CYCLETIME;2864;I2CERR;0;PRESENT;23;MODE;1
RAW_IMU;AX;4.0;AY;2.0;AZ;257.0;GX;0.0;GY;0.0;GZ;0.0;MAGX;86.0;MAGY;-72.0;MAGZ;-9.0
MOT;0;1150.0;1;1150.0;2;1150.0;3;1150.0;4;0.0;5;0.0;6;0.0;7;0.0;
RC;ROLL;1495.0;PITCH;1500.0;YAW;1510.0;THROTTLE;1054.0;AUX1;1678.0;AUX2;1500.0;AUX3;1500.0;AUX4;1500.0
ALTITUDE;0.0
DEBUG;DEBUG10.0;DEBUG2;0.0;DEBUG3;0.0;DEBUG4;0.0
ATTITUDE;ANGX;0.0;ANGY;1.0;HEAD;-118.0
STATUS;CYCLETIME;2820;I2CERR;0;PRESENT;23;MODE;1
RAW_IMU;AX;2.0;AY;0.0;AZ;257.0;GX;0.0;GY;0.0;GZ;0.0;MAGX;87.0;MAGY;-71.0;MAGZ;-10.0
MOT;0;1150.0;1;1150.0;2;1150.0;3;1150.0;4;0.0;5;0.0;6;0.0;7;0.0;
RC;ROLL;1495.0;PITCH;1505.0;YAW;1502.0;THROTTLE;1054.0;AUX1;1684.0;AUX2;1500.0;AUX3;1500.0;AUX4;1500.0
ALTITUDE;0.0
DEBUG;DEBUG10.0;DEBUG2;0.0;DEBUG3;0.0;DEBUG4;0.0
ATTITUDE;ANGX;0.0;ANGY;1.0;HEAD;-118.0
STATUS;CYCLETIME;2804;I2CERR;0;PRESENT;23;MODE;1
RAW_IMU;AX;1.0;AY;0.0;AZ;256.0;GX;0.0;GY;0.0;GZ;0.0;MAGX;87.0;MAGY;-71.0;MAGZ;-10.0
MOT;0;1150.0;1;1150.0;2;1150.0;3;1150.0;4;0.0;5;0.0;6;0.0;7;0.0;
RC;ROLL;1495.0;PITCH;1505.0;YAW;1502.0;THROTTLE;1054.0;AUX1;1684.0;AUX2;1500.0;AUX3;1500.0;AUX4;1500.0
ALTITUDE;0.0
DEBUG;DEBUG10.0;DEBUG2;0.0;DEBUG3;0.0;DEBUG4;0.0
ATTITUDE;ANGX;0.0;ANGY;1.0;HEAD;-118.0
STATUS;CYCLETIME;2776;I2CERR;0;PRESENT;23;MODE;1
RAW_IMU;AX;1.0;AY;1.0;AZ;256.0;GX;0.0;GY;0.0;GZ;0.0;MAGX;86.0;MAGY;-70.0;MAGZ;-9.0
MOT;0;1150.0;1;1150.0;2;1150.0;3;1150.0;4;0.0;5;0.0;6;0.0;7;0.0;
RC;ROLL;1495.0;PITCH;1498.0;YAW;1502.0;THROTTLE;1054.0;AUX1;1684.0;AUX2;1500.0;AUX3;1500.0;AUX4;1500.0
ALTITUDE;0.0
DEBUG;DEBUG10.0;DEBUG2;0.0;DEBUG3;0.0;DEBUG4;0.0
ATTITUDE;ANGX;0.0;ANGY;1.0;HEAD;-118.0
STATUS;CYCLETIME;2864;I2CERR;0;PRESENT;23;MODE;1
RAW_IMU;AX;3.0;AY;0.0;AZ;259.0;GX;0.0;GY;0.0;GZ;0.0;MAGX;86.0;MAGY;-70.0;MAGZ;-9.0
MOT;0;1150.0;1;1150.0;2;1150.0;3;1150.0;4;0.0;5;0.0;6;0.0;7;0.0;
RC;ROLL;1492.0;PITCH;1498.0;YAW;1504.0;THROTTLE;1056.0;AUX1;1684.0;AUX2;1500.0;AUX3;1500.0;AUX4;1500.0
ALTITUDE;0.0
DEBUG;DEBUG10.0;DEBUG2;0.0;DEBUG3;0.0;DEBUG4;0.0
ATTITUDE;ANGX;0.0;ANGY;1.0;HEAD;-118.0
STATUS;CYCLETIME;2812;I2CERR;0;PRESENT;23;MODE;1
RAW_IMU;AX;1.0;AY;2.0;AZ;257.0;GX;0.0;GY;0.0;GZ;0.0;MAGX;86.0;MAGY;-71.0;MAGZ;-9.0
MOT;0;1150.0;1;1150.0;2;1150.0;3;1150.0;4;0.0;5;0.0;6;0.0;7;0.0;
RC;ROLL;1492.0;PITCH;1503.0;YAW;1504.0;THROTTLE;1058.0;AUX1;1684.0;AUX2;1500.0;AUX3;1500.0;AUX4;1500.0
ALTITUDE;0.0
DEBUG;DEBUG10.0;DEBUG2;0.0;DEBUG3;0.0;DEBUG4;0.0
ATTITUDE;ANGX;0.0;ANGY;1.0;HEAD;-118.0
STATUS;CYCLETIME;2812;I2CERR;0;PRESENT;23;MODE;1
RAW_IMU;AX;2.0;AY;2.0;AZ;258.0;GX;0.0;GY;0.0;GZ;0.0;MAGX;86.0;MAGY;-71.0;MAGZ;-9.0
MOT;0;1150.0;1;1150.0;2;1150.0;3;1150.0;4;0.0;5;0.0;6;0.0;7;0.0;
RC;ROLL;1495.0;PITCH;1503.0;YAW;1502.0;THROTTLE;1058.0;AUX1;1684.0;AUX2;1500.0;AUX3;1500.0;AUX4;1500.0
ALTITUDE;0.0
DEBUG;DEBUG10.0;DEBUG2;0.0;DEBUG3;0.0;DEBUG4;0.0
ATTITUDE;ANGX;0.0;ANGY;1.0;HEAD;-119.0
STATUS;CYCLETIME;2808;I2CERR;0;PRESENT;23;MODE;1
RAW_IMU;AX;-1.0;AY;1.0;AZ;257.0;GX;0.0;GY;0.0;GZ;0.0;MAGX;86.0;MAGY;-70.0;MAGZ;-10.0
MOT;0;1150.0;1;1150.0;2;1150.0;3;1150.0;4;0.0;5;0.0;6;0.0;7;0.0;
RC;ROLL;1495.0;PITCH;1503.0;YAW;1502.0;THROTTLE;1058.0;AUX1;1684.0;AUX2;1500.0;AUX3;1500.0;AUX4;1500.0
ALTITUDE;0.0
DEBUG;DEBUG10.0;DEBUG2;0.0;DEBUG3;0.0;DEBUG4;0.0
ATTITUDE;ANGX;0.0;ANGY;1.0;HEAD;-119.0
STATUS;CYCLETIME;2780;I2CERR;0;PRESENT;23;MODE;1
RAW_IMU;AX;0.0;AY;0.0;AZ;256.0;GX;0.0;GY;0.0;GZ;0.0;MAGX;86.0;MAGY;-70.0;MAGZ;-10.0
MOT;0;1150.0;1;1150.0;2;1150.0;3;1150.0;4;0.0;5;0.0;6;0.0;7;0.0;
RC;ROLL;1495.0;PITCH;1503.0;YAW;1502.0;THROTTLE;1058.0;AUX1;1682.0;AUX2;1500.0;AUX3;1500.0;AUX4;1500.0
ALTITUDE;0.0
DEBUG;DEBUG10.0;DEBUG2;0.0;DEBUG3;0.0;DEBUG4;0.0
ATTITUDE;ANGX;0.0;ANGY;1.0;HEAD;-119.0
STATUS;CYCLETIME;2828;I2CERR;0;PRESENT;23;MODE;1
RAW_IMU;AX;2.0;AY;1.0;AZ;257.0;GX;0.0;GY;0.0;GZ;0.0;MAGX;87.0;MAGY;-71.0;MAGZ;-9.0
MOT;0;1150.0;1;1150.0;2;1150.0;3;1150.0;4;0.0;5;0.0;6;0.0;7;0.0;
RC;ROLL;1497.0;PITCH;1501.0;YAW;1502.0;THROTTLE;1060.0;AUX1;1682.0;AUX2;1500.0;AUX3;1500.0;AUX4;1500.0
ALTITUDE;0.0
DEBUG;DEBUG10.0;DEBUG2;0.0;DEBUG3;0.0;DEBUG4;0.0
ATTITUDE;ANGX;0.0;ANGY;1.0;HEAD;-119.0
STATUS;CYCLETIME;2844;I2CERR;0;PRESENT;23;MODE;1
RAW_IMU;AX;2.0;AY;1.0;AZ;254.0;GX;0.0;GY;0.0;GZ;0.0;MAGX;87.0;MAGY;-71.0;MAGZ;-9.0
MOT;0;1150.0;1;1150.0;2;1150.0;3;1150.0;4;0.0;5;0.0;6;0.0;7;0.0;
RC;ROLL;1497.0;PITCH;1503.0;YAW;1502.0;THROTTLE;1060.0;AUX1;1682.0;AUX2;1500.0;AUX3;1500.0;AUX4;1500.0
ALTITUDE;0.0
DEBUG;DEBUG10.0;DEBUG2;0.0;DEBUG3;0.0;DEBUG4;0.0
ATTITUDE;ANGX;0.0;ANGY;1.0;HEAD;-118.0
STATUS;CYCLETIME;2804;I2CERR;0;PRESENT;23;MODE;1
RAW_IMU;AX;3.0;AY;0.0;AZ;257.0;GX;0.0;GY;0.0;GZ;0.0;MAGX;87.0;MAGY;-71.0;MAGZ;-9.0
MOT;0;1150.0;1;1150.0;2;1150.0;3;1150.0;4;0.0;5;0.0;6;0.0;7;0.0;
RC;ROLL;1497.0;PITCH;1503.0;YAW;1502.0;THROTTLE;1060.0;AUX1;1682.0;AUX2;1500.0;AUX3;1500.0;AUX4;1500.0
ALTITUDE;0.0
DEBUG;DEBUG10.0;DEBUG2;0.0;DEBUG3;0.0;DEBUG4;0.0
ATTITUDE;ANGX;0.0;ANGY;1.0;HEAD;-118.0
STATUS;CYCLETIME;2840;I2CERR;0;PRESENT;23;MODE;1
RAW_IMU;AX;3.0;AY;1.0;AZ;258.0;GX;0.0;GY;0.0;GZ;0.0;MAGX;87.0;MAGY;-71.0;MAGZ;-9.0
MOT;0;1150.0;1;1150.0;2;1150.0;3;1150.0;4;0.0;5;0.0;6;0.0;7;0.0;
RC;ROLL;1497.0;PITCH;1503.0;YAW;1502.0;THROTTLE;1060.0;AUX1;1682.0;AUX2;1500.0;AUX3;1500.0;AUX4;1500.0
ALTITUDE;0.0
DEBUG;DEBUG10.0;DEBUG2;0.0;DEBUG3;0.0;DEBUG4;0.0
ATTITUDE;ANGX;0.0;ANGY;1.0;HEAD;-118.0
STATUS;CYCLETIME;2928;I2CERR;0;PRESENT;23;MODE;1
