IDENT;V;220;TYPE;3
MSP_MOTOR_PINS
STATUS;CYCLETIME;2940;I2CERR;0;PRESENT;23;MODE;0
RAW_IMU;AX;38.0;AY;-2.0;AZ;253.0;GX;0.0;GY;0.0;GZ;-1.0;MAGX;16.0;MAGY;-104.0;MAGZ;83.0
MOT;0;1000.0;1;1000.0;2;1000.0;3;1000.0;4;0.0;5;0.0;6;0.0;7;0.0;
RC;ROLL;1495.0;PITCH;1515.0;YAW;1540.0;THROTTLE;1058.0;AUX1;1536.0;AUX2;1500.0;AUX3;1500.0;AUX4;1500.0
ALTITUDE;0.0
DEBUG;DEBUG10.0;DEBUG2;0.0;DEBUG3;0.0;DEBUG4;0.0
ATTITUDE;ANGX;7.0;ANGY;-2.0;HEAD;190.0
STATUS;CYCLETIME;2956;I2CERR;0;PRESENT;23;MODE;0
RAW_IMU;AX;39.0;AY;-2.0;AZ;252.0;GX;0.0;GY;0.0;GZ;-1.0;MAGX;16.0;MAGY;-105.0;MAGZ;83.0
MOT;0;1000.0;1;1000.0;2;1000.0;3;1000.0;4;0.0;5;0.0;6;0.0;7;0.0;
RC;ROLL;1497.0;PITCH;1515.0;YAW;1540.0;THROTTLE;1058.0;AUX1;1536.0;AUX2;1500.0;AUX3;1500.0;AUX4;1500.0
ALTITUDE;0.0
DEBUG;DEBUG10.0;DEBUG2;0.0;DEBUG3;0.0;DEBUG4;0.0
ATTITUDE;ANGX;7.0;ANGY;-2.0;HEAD;190.0
STATUS;CYCLETIME;2860;I2CERR;0;PRESENT;23;MODE;0
RAW_IMU;AX;37.0;AY;-3.0;AZ;253.0;GX;0.0;GY;0.0;GZ;-1.0;MAGX;16.0;MAGY;-105.0;MAGZ;83.0
MOT;0;1000.0;1;1000.0;2;1000.0;3;1000.0;4;0.0;5;0.0;6;0.0;7;0.0;
RC;ROLL;1497.0;PITCH;1515.0;YAW;1540.0;THROTTLE;1058.0;AUX1;1536.0;AUX2;1500.0;AUX3;1500.0;AUX4;1500.0
ALTITUDE;0.0
DEBUG;DEBUG10.0;DEBUG2;0.0;DEBUG3;0.0;DEBUG4;0.0
ATTITUDE;ANGX;7.0;ANGY;-2.0;HEAD;190.0
STATUS;CYCLETIME;2872;I2CERR;0;PRESENT;23;MODE;0
RAW_IMU;AX;37.0;AY;-2.0;AZ;252.0;GX;0.0;GY;0.0;GZ;-1.0;MAGX;15.0;MAGY;-104.0;MAGZ;84.0
MOT;0;1000.0;1;1000.0;2;1000.0;3;1000.0;4;0.0;5;0.0;6;0.0;7;0.0;
RC;ROLL;1497.0;PITCH;1515.0;YAW;1540.0;THROTTLE;1058.0;AUX1;1536.0;AUX2;1500.0;AUX3;1500.0;AUX4;1500.0
ALTITUDE;0.0
DEBUG;DEBUG10.0;DEBUG2;0.0;DEBUG3;0.0;DEBUG4;0.0
ATTITUDE;ANGX;7.0;ANGY;-2.0;HEAD;190.0
STATUS;CYCLETIME;2916;I2CERR;0;PRESENT;23;MODE;0
RAW_IMU;AX;37.0;AY;-3.0;AZ;251.0;GX;0.0;GY;0.0;GZ;-1.0;MAGX;15.0;MAGY;-104.0;MAGZ;84.0
MOT;0;1000.0;1;1000.0;2;1000.0;3;1000.0;4;0.0;5;0.0;6;0.0;7;0.0;
RC;ROLL;1497.0;PITCH;1515.0;YAW;1540.0;THROTTLE;1058.0;AUX1;1536.0;AUX2;1500.0;AUX3;1500.0;AUX4;1500.0
ALTITUDE;0.0
DEBUG;DEBUG10.0;DEBUG2;0.0;DEBUG3;0.0;DEBUG4;0.0
ATTITUDE;ANGX;7.0;ANGY;-2.0;HEAD;190.0
STATUS;CYCLETIME;2904;I2CERR;0;PRESENT;23;MODE;0
RAW_IMU;AX;37.0;AY;-4.0;AZ;253.0;GX;0.0;GY;0.0;GZ;-1.0;MAGX;15.0;MAGY;-103.0;MAGZ;84.0
MOT;0;1000.0;1;1000.0;2;1000.0;3;1000.0;4;0.0;5;0.0;6;0.0;7;0.0;
RC;ROLL;1497.0;PITCH;1515.0;YAW;1538.0;THROTTLE;1058.0;AUX1;1536.0;AUX2;1500.0;AUX3;1500.0;AUX4;1500.0
ALTITUDE;0.0
DEBUG;DEBUG10.0;DEBUG2;0.0;DEBUG3;0.0;DEBUG4;0.0
ATTITUDE;ANGX;7.0;ANGY;-2.0;HEAD;190.0
STATUS;CYCLETIME;2888;I2CERR;0;PRESENT;23;MODE;0
RAW_IMU;AX;36.0;AY;-5.0;AZ;251.0;GX;0.0;GY;0.0;GZ;-1.0;MAGX;15.0;MAGY;-103.0;MAGZ;84.0
MOT;0;1000.0;1;1000.0;2;1000.0;3;1000.0;4;0.0;5;0.0;6;0.0;7;0.0;
RC;ROLL;1497.0;PITCH;1515.0;YAW;1538.0;THROTTLE;1060.0;AUX1;1538.0;AUX2;1500.0;AUX3;1500.0;AUX4;1500.0
ALTITUDE;0.0
DEBUG;DEBUG10.0;DEBUG2;0.0;DEBUG3;0.0;DEBUG4;0.0
ATTITUDE;ANGX;7.0;ANGY;-2.0;HEAD;189.0
STATUS;CYCLETIME;3000;I2CERR;0;PRESENT;23;MODE;0
RAW_IMU;AX;37.0;AY;-4.0;AZ;253.0;GX;0.0;GY;0.0;GZ;-1.0;MAGX;16.0;MAGY;-104.0;MAGZ;84.0
MOT;0;1000.0;1;1000.0;2;1000.0;3;1000.0;4;0.0;5;0.0;6;0.0;7;0.0;
RC;ROLL;1497.0;PITCH;1515.0;YAW;1538.0;THROTTLE;1060.0;AUX1;1536.0;AUX2;1500.0;AUX3;1500.0;AUX4;1500.0
ALTITUDE;0.0
DEBUG;DEBUG10.0;DEBUG2;0.0;DEBUG3;0.0;DEBUG4;0.0
ATTITUDE;ANGX;7.0;ANGY;-2.0;HEAD;189.0
STATUS;CYCLETIME;2872;I2CERR;0;PRESENT;23;MODE;0
RAW_IMU;AX;39.0;AY;-6.0;AZ;251.0;GX;0.0;GY;0.0;GZ;-1.0;MAGX;16.0;MAGY;-104.0;MAGZ;84.0
MOT;0;1000.0;1;1000.0;2;1000.0;3;1000.0;4;0.0;5;0.0;6;0.0;7;0.0;
RC;ROLL;1497.0;PITCH;1515.0;YAW;1538.0;THROTTLE;1060.0;AUX1;1536.0;AUX2;1500.0;AUX3;1500.0;AUX4;1500.0
ALTITUDE;0.0
DEBUG;DEBUG10.0;DEBUG2;0.0;DEBUG3;0.0;DEBUG4;0.0
ATTITUDE;ANGX;7.0;ANGY;-2.0;HEAD;189.0
STATUS;CYCLETIME;2872;I2CERR;0;PRESENT;23;MODE;0
RAW_IMU;AX;39.0;AY;-5.0;AZ;252.0;GX;0.0;GY;0.0;GZ;-1.0;MAGX;16.0;MAGY;-104.0;MAGZ;83.0
MOT;0;1000.0;1;1000.0;2;1000.0;3;1000.0;4;0.0;5;0.0;6;0.0;7;0.0;
RC;ROLL;1497.0;PITCH;1515.0;YAW;1538.0;THROTTLE;1060.0;AUX1;1536.0;AUX2;1500.0;AUX3;1500.0;AUX4;1500.0
ALTITUDE;0.0
DEBUG;DEBUG10.0;DEBUG2;0.0;DEBUG3;0.0;DEBUG4;0.0
ATTITUDE;ANGX;7.0;ANGY;-2.0;HEAD;189.0
STATUS;CYCLETIME;2884;I2CERR;0;PRESENT;23;MODE;0
RAW_IMU;AX;39.0;AY;-5.0;AZ;252.0;GX;0.0;GY;0.0;GZ;-1.0;MAGX;16.0;MAGY;-104.0;MAGZ;83.0
MOT;0;1000.0;1;1000.0;2;1000.0;3;1000.0;4;0.0;5;0.0;6;0.0;7;0.0;
RC;ROLL;1497.0;PITCH;1515.0;YAW;1538.0;THROTTLE;1060.0;AUX1;1536.0;AUX2;1500.0;AUX3;1500.0;AUX4;1500.0
ALTITUDE;0.0
DEBUG;DEBUG10.0;DEBUG2;0.0;DEBUG3;0.0;DEBUG4;0.0
ATTITUDE;ANGX;7.0;ANGY;-2.0;HEAD;189.0
STATUS;CYCLETIME;2880;I2CERR;0;PRESENT;23;MODE;0
RAW_IMU;AX;36.0;AY;-3.0;AZ;251.0;GX;0.0;GY;0.0;GZ;-1.0;MAGX;15.0;MAGY;-104.0;MAGZ;83.0
MOT;0;1000.0;1;1000.0;2;1000.0;3;1000.0;4;0.0;5;0.0;6;0.0;7;0.0;
RC;ROLL;1497.0;PITCH;1515.0;YAW;1538.0;THROTTLE;1060.0;AUX1;1536.0;AUX2;1500.0;AUX3;1500.0;AUX4;1500.0
ALTITUDE;0.0
DEBUG;DEBUG10.0;DEBUG2;0.0;DEBUG3;0.0;DEBUG4;0.0
ATTITUDE;ANGX;7.0;ANGY;-2.0;HEAD;190.0
STATUS;CYCLETIME;2880;I2CERR;0;PRESENT;23;MODE;0
RAW_IMU;AX;35.0;AY;-3.0;AZ;252.0;GX;0.0;GY;0.0;GZ;-1.0;MAGX;15.0;MAGY;-104.0;MAGZ;83.0
MOT;0;1000.0;1;1000.0;2;1000.0;3;1000.0;4;0.0;5;0.0;6;0.0;7;0.0;
RC;ROLL;1497.0;PITCH;1515.0;YAW;1540.0;THROTTLE;1060.0;AUX1;1536.0;AUX2;1500.0;AUX3;1500.0;AUX4;1500.0
ALTITUDE;0.0
DEBUG;DEBUG10.0;DEBUG2;0.0;DEBUG3;0.0;DEBUG4;0.0
ATTITUDE;ANGX;7.0;ANGY;-2.0;HEAD;190.0
STATUS;CYCLETIME;2912;I2CERR;0;PRESENT;23;MODE;0
RAW_IMU;AX;35.0;AY;-2.0;AZ;253.0;GX;0.0;GY;0.0;GZ;-1.0;MAGX;15.0;MAGY;-104.0;MAGZ;83.0
MOT;0;1000.0;1;1000.0;2;1000.0;3;1000.0;4;0.0;5;0.0;6;0.0;7;0.0;
RC;ROLL;1497.0;PITCH;1515.0;YAW;1540.0;THROTTLE;1060.0;AUX1;1536.0;AUX2;1500.0;AUX3;1500.0;AUX4;1500.0
ALTITUDE;0.0
DEBUG;DEBUG10.0;DEBUG2;0.0;DEBUG3;0.0;DEBUG4;0.0
ATTITUDE;ANGX;7.0;ANGY;-2.0;HEAD;189.0
STATUS;CYCLETIME;2940;I2CERR;0;PRESENT;23;MODE;0
RAW_IMU;AX;37.0;AY;-4.0;AZ;252.0;GX;0.0;GY;0.0;GZ;-1.0;MAGX;15.0;MAGY;-104.0;MAGZ;84.0
MOT;0;1000.0;1;1000.0;2;1000.0;3;1000.0;4;0.0;5;0.0;6;0.0;7;0.0;
RC;ROLL;1497.0;PITCH;1515.0;YAW;1540.0;THROTTLE;1060.0;AUX1;1536.0;AUX2;1500.0;AUX3;1500.0;AUX4;1500.0
ALTITUDE;0.0
DEBUG;DEBUG10.0;DEBUG2;0.0;DEBUG3;0.0;DEBUG4;0.0
ATTITUDE;ANGX;7.0;ANGY;-2.0;HEAD;189.0
STATUS;CYCLETIME;2860;I2CERR;0;PRESENT;23;MODE;0
RAW_IMU;AX;36.0;AY;-4.0;AZ;252.0;GX;0.0;GY;0.0;GZ;-1.0;MAGX;15.0;MAGY;-104.0;MAGZ;84.0
MOT;0;1000.0;1;1000.0;2;1000.0;3;1000.0;4;0.0;5;0.0;6;0.0;7;0.0;
RC;ROLL;1495.0;PITCH;1519.0;YAW;1540.0;THROTTLE;1060.0;AUX1;1536.0;AUX2;1500.0;AUX3;1500.0;AUX4;1500.0
ALTITUDE;0.0
DEBUG;DEBUG10.0;DEBUG2;0.0;DEBUG3;0.0;DEBUG4;0.0
ATTITUDE;ANGX;7.0;ANGY;-2.0;HEAD;189.0
STATUS;CYCLETIME;2896;I2CERR;0;PRESENT;23;MODE;0
RAW_IMU;AX;37.0;AY;-3.0;AZ;251.0;GX;0.0;GY;0.0;GZ;-1.0;MAGX;16.0;MAGY;-103.0;MAGZ;83.0
MOT;0;1000.0;1;1000.0;2;1000.0;3;1000.0;4;0.0;5;0.0;6;0.0;7;0.0;
RC;ROLL;1495.0;PITCH;1519.0;YAW;1540.0;THROTTLE;1060.0;AUX1;1536.0;AUX2;1500.0;AUX3;1500.0;AUX4;1500.0
ALTITUDE;0.0
DEBUG;DEBUG10.0;DEBUG2;0.0;DEBUG3;0.0;DEBUG4;0.0
ATTITUDE;ANGX;7.0;ANGY;-2.0;HEAD;189.0
STATUS;CYCLETIME;2868;I2CERR;0;PRESENT;23;MODE;0
RAW_IMU;AX;36.0;AY;-1.0;AZ;250.0;GX;0.0;GY;0.0;GZ;-1.0;MAGX;16.0;MAGY;-103.0;MAGZ;83.0
MOT;0;1000.0;1;1000.0;2;1000.0;3;1000.0;4;0.0;5;0.0;6;0.0;7;0.0;
RC;ROLL;1495.0;PITCH;1519.0;YAW;1540.0;THROTTLE;1060.0;AUX1;1536.0;AUX2;1500.0;AUX3;1500.0;AUX4;1500.0
ALTITUDE;0.0
DEBUG;DEBUG10.0;DEBUG2;0.0;DEBUG3;0.0;DEBUG4;0.0
ATTITUDE;ANGX;7.0;ANGY;-1.0;HEAD;189.0
STATUS;CYCLETIME;2932;I2CERR;0;PRESENT;23;MODE;0
RAW_IMU;AX;37.0;AY;-3.0;AZ;253.0;GX;0.0;GY;0.0;GZ;-1.0;MAGX;16.0;MAGY;-104.0;MAGZ;83.0
MOT;0;1000.0;1;1000.0;2;1000.0;3;1000.0;4;0.0;5;0.0;6;0.0;7;0.0;
RC;ROLL;1495.0;PITCH;1519.0;YAW;1540.0;THROTTLE;1057.0;AUX1;1536.0;AUX2;1500.0;AUX3;1500.0;AUX4;1500.0
ALTITUDE;0.0
DEBUG;DEBUG10.0;DEBUG2;0.0;DEBUG3;0.0;DEBUG4;0.0
ATTITUDE;ANGX;7.0;ANGY;-1.0;HEAD;189.0
STATUS;CYCLETIME;2896;I2CERR;0;PRESENT;23;MODE;0
RAW_IMU;AX;38.0;AY;-5.0;AZ;253.0;GX;0.0;GY;0.0;GZ;-1.0;MAGX;16.0;MAGY;-104.0;MAGZ;83.0
MOT;0;1000.0;1;1000.0;2;1000.0;3;1000.0;4;0.0;5;0.0;6;0.0;7;0.0;
RC;ROLL;1495.0;PITCH;1519.0;YAW;1540.0;THROTTLE;1057.0;AUX1;1539.0;AUX2;1500.0;AUX3;1500.0;AUX4;1500.0
ALTITUDE;0.0
DEBUG;DEBUG10.0;DEBUG2;0.0;DEBUG3;0.0;DEBUG4;0.0
ATTITUDE;ANGX;7.0;ANGY;-1.0;HEAD;189.0
STATUS;CYCLETIME;2888;I2CERR;0;PRESENT;23;MODE;0
RAW_IMU;AX;35.0;AY;-4.0;AZ;252.0;GX;0.0;GY;0.0;GZ;-1.0;MAGX;16.0;MAGY;-105.0;MAGZ;83.0
MOT;0;1000.0;1;1000.0;2;1000.0;3;1000.0;4;0.0;5;0.0;6;0.0;7;0.0;
RC;ROLL;1495.0;PITCH;1517.0;YAW;1540.0;THROTTLE;1057.0;AUX1;1539.0;AUX2;1500.0;AUX3;1500.0;AUX4;1500.0
ALTITUDE;0.0
DEBUG;DEBUG10.0;DEBUG2;0.0;DEBUG3;0.0;DEBUG4;0.0
ATTITUDE;ANGX;7.0;ANGY;-1.0;HEAD;190.0
STATUS;CYCLETIME;2988;I2CERR;0;PRESENT;23;MODE;0
RAW_IMU;AX;37.0;AY;-3.0;AZ;250.0;GX;0.0;GY;0.0;GZ;-1.0;MAGX;16.0;MAGY;-105.0;MAGZ;83.0
MOT;0;1000.0;1;1000.0;2;1000.0;3;1000.0;4;0.0;5;0.0;6;0.0;7;0.0;
RC;ROLL;1495.0;PITCH;1517.0;YAW;1540.0;THROTTLE;1057.0;AUX1;1539.0;AUX2;1500.0;AUX3;1500.0;AUX4;1500.0
ALTITUDE;0.0
DEBUG;DEBUG10.0;DEBUG2;0.0;DEBUG3;0.0;DEBUG4;0.0
ATTITUDE;ANGX;7.0;ANGY;-1.0;HEAD;190.0
STATUS;CYCLETIME;2916;I2CERR;0;PRESENT;23;MODE;0
RAW_IMU;AX;37.0;AY;-3.0;AZ;249.0;GX;0.0;GY;0.0;GZ;-1.0;MAGX;16.0;MAGY;-103.0;MAGZ;83.0
MOT;0;1000.0;1;1000.0;2;1000.0;3;1000.0;4;0.0;5;0.0;6;0.0;7;0.0;
RC;ROLL;1497.0;PITCH;1517.0;YAW;1540.0;THROTTLE;1057.0;AUX1;1537.0;AUX2;1500.0;AUX3;1500.0;AUX4;1500.0
ALTITUDE;0.0
DEBUG;DEBUG10.0;DEBUG2;0.0;DEBUG3;0.0;DEBUG4;0.0
ATTITUDE;ANGX;7.0;ANGY;-2.0;HEAD;190.0
STATUS;CYCLETIME;2920;I2CERR;0;PRESENT;23;MODE;0
RAW_IMU;AX;38.0;AY;-4.0;AZ;251.0;GX;0.0;GY;0.0;GZ;-1.0;MAGX;16.0;MAGY;-103.0;MAGZ;83.0
MOT;0;1000.0;1;1000.0;2;1000.0;3;1000.0;4;0.0;5;0.0;6;0.0;7;0.0;
RC;ROLL;1497.0;PITCH;1515.0;YAW;1540.0;THROTTLE;1059.0;AUX1;1537.0;AUX2;1500.0;AUX3;1500.0;AUX4;1500.0
ALTITUDE;0.0
DEBUG;DEBUG10.0;DEBUG2;0.0;DEBUG3;0.0;DEBUG4;0.0
ATTITUDE;ANGX;7.0;ANGY;-2.0;HEAD;190.0
STATUS;CYCLETIME;2880;I2CERR;0;PRESENT;23;MODE;0
RAW_IMU;AX;39.0;AY;-3.0;AZ;250.0;GX;0.0;GY;0.0;GZ;-1.0;MAGX;16.0;MAGY;-103.0;MAGZ;83.0
MOT;0;1000.0;1;1000.0;2;1000.0;3;1000.0;4;0.0;5;0.0;6;0.0;7;0.0;
RC;ROLL;1497.0;PITCH;1515.0;YAW;1540.0;THROTTLE;1059.0;AUX1;1537.0;AUX2;1500.0;AUX3;1500.0;AUX4;1500.0
ALTITUDE;0.0
DEBUG;DEBUG10.0;DEBUG2;0.0;DEBUG3;0.0;DEBUG4;0.0
ATTITUDE;ANGX;7.0;ANGY;-2.0;HEAD;190.0
STATUS;CYCLETIME;2888;I2CERR;0;PRESENT;23;MODE;0
RAW_IMU;AX;36.0;AY;-1.0;AZ;252.0;GX;0.0;GY;0.0;GZ;-1.0;MAGX;14.0;MAGY;-102.0;MAGZ;84.0
MOT;0;1000.0;1;1000.0;2;1000.0;3;1000.0;4;0.0;5;0.0;6;0.0;7;0.0;
RC;ROLL;1497.0;PITCH;1515.0;YAW;1540.0;THROTTLE;1059.0;AUX1;1537.0;AUX2;1500.0;AUX3;1500.0;AUX4;1500.0
ALTITUDE;0.0
DEBUG;DEBUG10.0;DEBUG2;0.0;DEBUG3;0.0;DEBUG4;0.0
ATTITUDE;ANGX;7.0;ANGY;-2.0;HEAD;190.0
STATUS;CYCLETIME;2884;I2CERR;0;PRESENT;23;MODE;0
RAW_IMU;AX;38.0;AY;-2.0;AZ;252.0;GX;0.0;GY;0.0;GZ;-1.0;MAGX;14.0;MAGY;-102.0;MAGZ;84.0
MOT;0;1000.0;1;1000.0;2;1000.0;3;1000.0;4;0.0;5;0.0;6;0.0;7;0.0;
RC;ROLL;1495.0;PITCH;1515.0;YAW;1540.0;THROTTLE;1061.0;AUX1;1535.0;AUX2;1500.0;AUX3;1500.0;AUX4;1500.0
ALTITUDE;0.0
DEBUG;DEBUG10.0;DEBUG2;0.0;DEBUG3;0.0;DEBUG4;0.0
ATTITUDE;ANGX;7.0;ANGY;-2.0;HEAD;189.0
STATUS;CYCLETIME;2936;I2CERR;0;PRESENT;23;MODE;0
RAW_IMU;AX;34.0;AY;-2.0;AZ;251.0;GX;0.0;GY;0.0;GZ;-1.0;MAGX;15.0;MAGY;-104.0;MAGZ;83.0
MOT;0;1000.0;1;1000.0;2;1000.0;3;1000.0;4;0.0;5;0.0;6;0.0;7;0.0;
RC;ROLL;1495.0;PITCH;1517.0;YAW;1540.0;THROTTLE;1061.0;AUX1;1535.0;AUX2;1500.0;AUX3;1500.0;AUX4;1500.0
ALTITUDE;0.0
DEBUG;DEBUG10.0;DEBUG2;0.0;DEBUG3;0.0;DEBUG4;0.0
ATTITUDE;ANGX;7.0;ANGY;-2.0;HEAD;189.0
STATUS;CYCLETIME;2900;I2CERR;0;PRESENT;23;MODE;0
RAW_IMU;AX;37.0;AY;-3.0;AZ;251.0;GX;0.0;GY;0.0;GZ;-1.0;MAGX;15.0;MAGY;-104.0;MAGZ;83.0
MOT;0;1000.0;1;1000.0;2;1000.0;3;1000.0;4;0.0;5;0.0;6;0.0;7;0.0;
RC;ROLL;1495.0;PITCH;1517.0;YAW;1540.0;THROTTLE;1061.0;AUX1;1535.0;AUX2;1500.0;AUX3;1500.0;AUX4;1500.0
ALTITUDE;0.0
DEBUG;DEBUG10.0;DEBUG2;0.0;DEBUG3;0.0;DEBUG4;0.0
ATTITUDE;ANGX;7.0;ANGY;-2.0;HEAD;189.0
STATUS;CYCLETIME;3008;I2CERR;0;PRESENT;23;MODE;0
RAW_IMU;AX;36.0;AY;-4.0;AZ;253.0;GX;0.0;GY;0.0;GZ;-1.0;MAGX;15.0;MAGY;-104.0;MAGZ;84.0
MOT;0;1000.0;1;1000.0;2;1000.0;3;1000.0;4;0.0;5;0.0;6;0.0;7;0.0;
RC;ROLL;1495.0;PITCH;1517.0;YAW;1542.0;THROTTLE;1059.0;AUX1;1535.0;AUX2;1500.0;AUX3;1500.0;AUX4;1500.0
ALTITUDE;0.0
DEBUG;DEBUG10.0;DEBUG2;0.0;DEBUG3;0.0;DEBUG4;0.0
ATTITUDE;ANGX;7.0;ANGY;-2.0;HEAD;189.0
STATUS;CYCLETIME;2872;I2CERR;0;PRESENT;23;MODE;0
RAW_IMU;AX;35.0;AY;-4.0;AZ;252.0;GX;0.0;GY;0.0;GZ;-1.0;MAGX;15.0;MAGY;-104.0;MAGZ;84.0
MOT;0;1000.0;1;1000.0;2;1000.0;3;1000.0;4;0.0;5;0.0;6;0.0;7;0.0;
RC;ROLL;1495.0;PITCH;1517.0;YAW;1542.0;THROTTLE;1056.0;AUX1;1537.0;AUX2;1500.0;AUX3;1500.0;AUX4;1500.0
ALTITUDE;0.0
DEBUG;DEBUG10.0;DEBUG2;0.0;DEBUG3;0.0;DEBUG4;0.0
ATTITUDE;ANGX;7.0;ANGY;-2.0;HEAD;189.0
STATUS;CYCLETIME;2896;I2CERR;0;PRESENT;23;MODE;0
RAW_IMU;AX;36.0;AY;-3.0;AZ;251.0;GX;0.0;GY;0.0;GZ;-1.0;MAGX;16.0;MAGY;-104.0;MAGZ;83.0
MOT;0;1000.0;1;1000.0;2;1000.0;3;1000.0;4;0.0;5;0.0;6;0.0;7;0.0;
RC;ROLL;1495.0;PITCH;1517.0;YAW;1542.0;THROTTLE;1056.0;AUX1;1537.0;AUX2;1500.0;AUX3;1500.0;AUX4;1500.0
ALTITUDE;0.0
DEBUG;DEBUG10.0;DEBUG2;0.0;DEBUG3;0.0;DEBUG4;0.0
ATTITUDE;ANGX;7.0;ANGY;-1.0;HEAD;189.0
STATUS;CYCLETIME;2964;I2CERR;0;PRESENT;23;MODE;0
RAW_IMU;AX;37.0;AY;-3.0;AZ;252.0;GX;0.0;GY;0.0;GZ;-1.0;MAGX;16.0;MAGY;-104.0;MAGZ;83.0
MOT;0;1000.0;1;1000.0;2;1000.0;3;1000.0;4;0.0;5;0.0;6;0.0;7;0.0;
RC;ROLL;1495.0;PITCH;1517.0;YAW;1539.0;THROTTLE;1056.0;AUX1;1537.0;AUX2;1500.0;AUX3;1500.0;AUX4;1500.0
ALTITUDE;0.0
DEBUG;DEBUG10.0;DEBUG2;0.0;DEBUG3;0.0;DEBUG4;0.0
ATTITUDE;ANGX;7.0;ANGY;-1.0;HEAD;189.0
STATUS;CYCLETIME;2896;I2CERR;0;PRESENT;23;MODE;0
RAW_IMU;AX;35.0;AY;-3.0;AZ;252.0;GX;0.0;GY;0.0;GZ;-2.0;MAGX;16.0;MAGY;-104.0;MAGZ;84.0
MOT;0;1000.0;1;1000.0;2;1000.0;3;1000.0;4;0.0;5;0.0;6;0.0;7;0.0;
RC;ROLL;1495.0;PITCH;1517.0;YAW;1539.0;THROTTLE;1056.0;AUX1;1537.0;AUX2;1500.0;AUX3;1500.0;AUX4;1500.0
ALTITUDE;0.0
DEBUG;DEBUG10.0;DEBUG2;0.0;DEBUG3;0.0;DEBUG4;0.0
ATTITUDE;ANGX;7.0;ANGY;-1.0;HEAD;189.0
STATUS;CYCLETIME;2900;I2CERR;0;PRESENT;23;MODE;0
RAW_IMU;AX;36.0;AY;-2.0;AZ;255.0;GX;0.0;GY;0.0;GZ;-1.0;MAGX;16.0;MAGY;-104.0;MAGZ;84.0
MOT;0;1000.0;1;1000.0;2;1000.0;3;1000.0;4;0.0;5;0.0;6;0.0;7;0.0;
RC;ROLL;1497.0;PITCH;1517.0;YAW;1539.0;THROTTLE;1058.0;AUX1;1537.0;AUX2;1500.0;AUX3;1500.0;AUX4;1500.0
ALTITUDE;0.0
DEBUG;DEBUG10.0;DEBUG2;0.0;DEBUG3;0.0;DEBUG4;0.0
ATTITUDE;ANGX;7.0;ANGY;-1.0;HEAD;189.0
STATUS;CYCLETIME;2900;I2CERR;0;PRESENT;23;MODE;0
RAW_IMU;AX;35.0;AY;-4.0;AZ;253.0;GX;0.0;GY;0.0;GZ;-1.0;MAGX;16.0;MAGY;-104.0;MAGZ;84.0
MOT;0;1000.0;1;1000.0;2;1000.0;3;1000.0;4;0.0;5;0.0;6;0.0;7;0.0;
RC;ROLL;1497.0;PITCH;1517.0;YAW;1539.0;THROTTLE;1058.0;AUX1;1537.0;AUX2;1500.0;AUX3;1500.0;AUX4;1500.0
ALTITUDE;0.0
DEBUG;DEBUG10.0;DEBUG2;0.0;DEBUG3;0.0;DEBUG4;0.0
ATTITUDE;ANGX;7.0;ANGY;-2.0;HEAD;189.0
STATUS;CYCLETIME;2916;I2CERR;0;PRESENT;23;MODE;0
RAW_IMU;AX;37.0;AY;-5.0;AZ;254.0;GX;0.0;GY;0.0;GZ;-1.0;MAGX;16.0;MAGY;-104.0;MAGZ;83.0
MOT;0;1000.0;1;1000.0;2;1000.0;3;1000.0;4;0.0;5;0.0;6;0.0;7;0.0;
RC;ROLL;1497.0;PITCH;1517.0;YAW;1539.0;THROTTLE;1058.0;AUX1;1537.0;AUX2;1500.0;AUX3;1500.0;AUX4;1500.0
ALTITUDE;0.0
DEBUG;DEBUG10.0;DEBUG2;0.0;DEBUG3;0.0;DEBUG4;0.0
ATTITUDE;ANGX;7.0;ANGY;-2.0;HEAD;189.0
STATUS;CYCLETIME;2976;I2CERR;0;PRESENT;23;MODE;0
RAW_IMU;AX;36.0;AY;-2.0;AZ;254.0;GX;0.0;GY;0.0;GZ;-1.0;MAGX;16.0;MAGY;-104.0;MAGZ;83.0
MOT;0;1000.0;1;1000.0;2;1000.0;3;1000.0;4;0.0;5;0.0;6;0.0;7;0.0;
RC;ROLL;1497.0;PITCH;1517.0;YAW;1539.0;THROTTLE;1058.0;AUX1;1537.0;AUX2;1500.0;AUX3;1500.0;AUX4;1500.0
ALTITUDE;0.0
DEBUG;DEBUG10.0;DEBUG2;0.0;DEBUG3;0.0;DEBUG4;0.0
ATTITUDE;ANGX;7.0;ANGY;-2.0;HEAD;189.0
STATUS;CYCLETIME;2840;I2CERR;0;PRESENT;23;MODE;0
RAW_IMU;AX;38.0;AY;-2.0;AZ;254.0;GX;0.0;GY;0.0;GZ;-1.0;MAGX;15.0;MAGY;-104.0;MAGZ;84.0
MOT;0;1000.0;1;1000.0;2;1000.0;3;1000.0;4;0.0;5;0.0;6;0.0;7;0.0;
RC;ROLL;1497.0;PITCH;1517.0;YAW;1539.0;THROTTLE;1058.0;AUX1;1537.0;AUX2;1500.0;AUX3;1500.0;AUX4;1500.0
ALTITUDE;0.0
DEBUG;DEBUG10.0;DEBUG2;0.0;DEBUG3;0.0;DEBUG4;0.0
ATTITUDE;ANGX;7.0;ANGY;-2.0;HEAD;189.0
STATUS;CYCLETIME;2900;I2CERR;0;PRESENT;23;MODE;0
RAW_IMU;AX;39.0;AY;-1.0;AZ;254.0;GX;0.0;GY;0.0;GZ;-1.0;MAGX;15.0;MAGY;-104.0;MAGZ;84.0
MOT;0;1000.0;1;1000.0;2;1000.0;3;1000.0;4;0.0;5;0.0;6;0.0;7;0.0;
RC;ROLL;1497.0;PITCH;1517.0;YAW;1539.0;THROTTLE;1058.0;AUX1;1537.0;AUX2;1500.0;AUX3;1500.0;AUX4;1500.0
ALTITUDE;0.0
DEBUG;DEBUG10.0;DEBUG2;0.0;DEBUG3;0.0;DEBUG4;0.0
ATTITUDE;ANGX;7.0;ANGY;-1.0;HEAD;189.0
STATUS;CYCLETIME;2860;I2CERR;0;PRESENT;23;MODE;0
RAW_IMU;AX;35.0;AY;-4.0;AZ;254.0;GX;0.0;GY;0.0;GZ;-2.0;MAGX;16.0;MAGY;-104.0;MAGZ;83.0
MOT;0;1000.0;1;1000.0;2;1000.0;3;1000.0;4;0.0;5;0.0;6;0.0;7;0.0;
RC;ROLL;1497.0;PITCH;1517.0;YAW;1537.0;THROTTLE;1058.0;AUX1;1537.0;AUX2;1500.0;AUX3;1500.0;AUX4;1500.0
ALTITUDE;0.0
DEBUG;DEBUG10.0;DEBUG2;0.0;DEBUG3;0.0;DEBUG4;0.0
ATTITUDE;ANGX;7.0;ANGY;-1.0;HEAD;189.0
STATUS;CYCLETIME;2952;I2CERR;0;PRESENT;23;MODE;0
RAW_IMU;AX;37.0;AY;-5.0;AZ;253.0;GX;0.0;GY;0.0;GZ;-1.0;MAGX;16.0;MAGY;-104.0;MAGZ;83.0
MOT;0;1000.0;1;1000.0;2;1000.0;3;1000.0;4;0.0;5;0.0;6;0.0;7;0.0;
RC;ROLL;1495.0;PITCH;1517.0;YAW;1537.0;THROTTLE;1058.0;AUX1;1537.0;AUX2;1500.0;AUX3;1500.0;AUX4;1500.0
ALTITUDE;0.0
DEBUG;DEBUG10.0;DEBUG2;0.0;DEBUG3;0.0;DEBUG4;0.0
ATTITUDE;ANGX;7.0;ANGY;-1.0;HEAD;189.0
STATUS;CYCLETIME;3016;I2CERR;0;PRESENT;23;MODE;0
RAW_IMU;AX;37.0;AY;-3.0;AZ;253.0;GX;0.0;GY;0.0;GZ;-1.0;MAGX;15.0;MAGY;-104.0;MAGZ;83.0
MOT;0;1000.0;1;1000.0;2;1000.0;3;1000.0;4;0.0;5;0.0;6;0.0;7;0.0;
RC;ROLL;1495.0;PITCH;1517.0;YAW;1537.0;THROTTLE;1058.0;AUX1;1537.0;AUX2;1500.0;AUX3;1500.0;AUX4;1500.0
ALTITUDE;0.0
DEBUG;DEBUG10.0;DEBUG2;0.0;DEBUG3;0.0;DEBUG4;0.0
ATTITUDE;ANGX;7.0;ANGY;-2.0;HEAD;189.0
STATUS;CYCLETIME;2872;I2CERR;0;PRESENT;23;MODE;0
RAW_IMU;AX;40.0;AY;-1.0;AZ;254.0;GX;0.0;GY;0.0;GZ;-1.0;MAGX;15.0;MAGY;-104.0;MAGZ;83.0
MOT;0;1000.0;1;1000.0;2;1000.0;3;1000.0;4;0.0;5;0.0;6;0.0;7;0.0;
RC;ROLL;1495.0;PITCH;1517.0;YAW;1537.0;THROTTLE;1058.0;AUX1;1537.0;AUX2;1500.0;AUX3;1500.0;AUX4;1500.0
ALTITUDE;0.0
DEBUG;DEBUG10.0;DEBUG2;0.0;DEBUG3;0.0;DEBUG4;0.0
ATTITUDE;ANGX;7.0;ANGY;-2.0;HEAD;189.0
STATUS;CYCLETIME;2872;I2CERR;0;PRESENT;23;MODE;0
RAW_IMU;AX;37.0;AY;-4.0;AZ;253.0;GX;0.0;GY;0.0;GZ;-1.0;MAGX;15.0;MAGY;-105.0;MAGZ;83.0
MOT;0;1000.0;1;1000.0;2;1000.0;3;1000.0;4;0.0;5;0.0;6;0.0;7;0.0;
RC;ROLL;1495.0;PITCH;1517.0;YAW;1537.0;THROTTLE;1058.0;AUX1;1537.0;AUX2;1500.0;AUX3;1500.0;AUX4;1500.0
ALTITUDE;0.0
DEBUG;DEBUG10.0;DEBUG2;0.0;DEBUG3;0.0;DEBUG4;0.0
ATTITUDE;ANGX;7.0;ANGY;-2.0;HEAD;189.0
STATUS;CYCLETIME;2908;I2CERR;0;PRESENT;23;MODE;0
RAW_IMU;AX;39.0;AY;-3.0;AZ;251.0;GX;0.0;GY;0.0;GZ;-1.0;MAGX;15.0;MAGY;-105.0;MAGZ;83.0
MOT;0;1000.0;1;1000.0;2;1000.0;3;1000.0;4;0.0;5;0.0;6;0.0;7;0.0;
RC;ROLL;1495.0;PITCH;1517.0;YAW;1537.0;THROTTLE;1058.0;AUX1;1535.0;AUX2;1500.0;AUX3;1500.0;AUX4;1500.0
ALTITUDE;0.0
DEBUG;DEBUG10.0;DEBUG2;0.0;DEBUG3;0.0;DEBUG4;0.0
ATTITUDE;ANGX;7.0;ANGY;-2.0;HEAD;189.0
STATUS;CYCLETIME;3236;I2CERR;0;PRESENT;23;MODE;0
RAW_IMU;AX;39.0;AY;-3.0;AZ;251.0;GX;0.0;GY;0.0;GZ;-1.0;MAGX;17.0;MAGY;-104.0;MAGZ;84.0
MOT;0;1000.0;1;1000.0;2;1000.0;3;1000.0;4;0.0;5;0.0;6;0.0;7;0.0;
RC;ROLL;1495.0;PITCH;1517.0;YAW;1537.0;THROTTLE;1058.0;AUX1;1535.0;AUX2;1500.0;AUX3;1500.0;AUX4;1500.0
ALTITUDE;0.0
DEBUG;DEBUG10.0;DEBUG2;0.0;DEBUG3;0.0;DEBUG4;0.0
ATTITUDE;ANGX;7.0;ANGY;-1.0;HEAD;189.0
STATUS;CYCLETIME;2936;I2CERR;0;PRESENT;23;MODE;0
RAW_IMU;AX;39.0;AY;-4.0;AZ;254.0;GX;0.0;GY;0.0;GZ;-1.0;MAGX;17.0;MAGY;-104.0;MAGZ;84.0
MOT;0;1000.0;1;1000.0;2;1000.0;3;1000.0;4;0.0;5;0.0;6;0.0;7;0.0;
RC;ROLL;1495.0;PITCH;1517.0;YAW;1537.0;THROTTLE;1058.0;AUX1;1537.0;AUX2;1500.0;AUX3;1500.0;AUX4;1500.0
ALTITUDE;0.0
DEBUG;DEBUG10.0;DEBUG2;0.0;DEBUG3;0.0;DEBUG4;0.0
ATTITUDE;ANGX;7.0;ANGY;-2.0;HEAD;189.0
STATUS;CYCLETIME;2872;I2CERR;0;PRESENT;23;MODE;0
RAW_IMU;AX;38.0;AY;-5.0;AZ;253.0;GX;0.0;GY;0.0;GZ;-1.0;MAGX;17.0;MAGY;-104.0;MAGZ;84.0
MOT;0;1000.0;1;1000.0;2;1000.0;3;1000.0;4;0.0;5;0.0;6;0.0;7;0.0;
RC;ROLL;1495.0;PITCH;1517.0;YAW;1537.0;THROTTLE;1058.0;AUX1;1537.0;AUX2;1500.0;AUX3;1500.0;AUX4;1500.0
ALTITUDE;0.0
DEBUG;DEBUG10.0;DEBUG2;0.0;DEBUG3;0.0;DEBUG4;0.0
ATTITUDE;ANGX;7.0;ANGY;-2.0;HEAD;189.0
STATUS;CYCLETIME;2824;I2CERR;0;PRESENT;23;MODE;0
RAW_IMU;AX;37.0;AY;-4.0;AZ;252.0;GX;0.0;GY;0.0;GZ;-1.0;MAGX;15.0;MAGY;-103.0;MAGZ;83.0
MOT;0;1000.0;1;1000.0;2;1000.0;3;1000.0;4;0.0;5;0.0;6;0.0;7;0.0;
RC;ROLL;1495.0;PITCH;1517.0;YAW;1537.0;THROTTLE;1058.0;AUX1;1537.0;AUX2;1500.0;AUX3;1500.0;AUX4;1500.0
ALTITUDE;0.0
DEBUG;DEBUG10.0;DEBUG2;0.0;DEBUG3;0.0;DEBUG4;0.0
ATTITUDE;ANGX;7.0;ANGY;-2.0;HEAD;189.0
STATUS;CYCLETIME;2984;I2CERR;0;PRESENT;23;MODE;0
RAW_IMU;AX;38.0;AY;-3.0;AZ;252.0;GX;0.0;GY;0.0;GZ;-1.0;MAGX;15.0;MAGY;-103.0;MAGZ;83.0
MOT;0;1000.0;1;1000.0;2;1000.0;3;1000.0;4;0.0;5;0.0;6;0.0;7;0.0;
RC;ROLL;1495.0;PITCH;1517.0;YAW;1537.0;THROTTLE;1058.0;AUX1;1537.0;AUX2;1500.0;AUX3;1500.0;AUX4;1500.0
ALTITUDE;0.0
DEBUG;DEBUG10.0;DEBUG2;0.0;DEBUG3;0.0;DEBUG4;0.0
ATTITUDE;ANGX;7.0;ANGY;-2.0;HEAD;189.0
STATUS;CYCLETIME;2916;I2CERR;0;PRESENT;23;MODE;0
RAW_IMU;AX;39.0;AY;-3.0;AZ;253.0;GX;0.0;GY;0.0;GZ;-1.0;MAGX;16.0;MAGY;-104.0;MAGZ;83.0
MOT;0;1000.0;1;1000.0;2;1000.0;3;1000.0;4;0.0;5;0.0;6;0.0;7;0.0;
RC;ROLL;1495.0;PITCH;1517.0;YAW;1537.0;THROTTLE;1058.0;AUX1;1537.0;AUX2;1500.0;AUX3;1500.0;AUX4;1500.0
ALTITUDE;0.0
DEBUG;DEBUG10.0;DEBUG2;0.0;DEBUG3;0.0;DEBUG4;0.0
ATTITUDE;ANGX;7.0;ANGY;-2.0;HEAD;189.0
STATUS;CYCLETIME;2912;I2CERR;0;PRESENT;23;MODE;0
RAW_IMU;AX;39.0;AY;-3.0;AZ;253.0;GX;0.0;GY;0.0;GZ;-1.0;MAGX;16.0;MAGY;-104.0;MAGZ;83.0
MOT;0;1000.0;1;1000.0;2;1000.0;3;1000.0;4;0.0;5;0.0;6;0.0;7;0.0;
RC;ROLL;1495.0;PITCH;1517.0;YAW;1537.0;THROTTLE;1060.0;AUX1;1537.0;AUX2;1500.0;AUX3;1500.0;AUX4;1500.0
ALTITUDE;0.0
DEBUG;DEBUG10.0;DEBUG2;0.0;DEBUG3;0.0;DEBUG4;0.0
ATTITUDE;ANGX;7.0;ANGY;-2.0;HEAD;189.0
STATUS;CYCLETIME;2916;I2CERR;0;PRESENT;23;MODE;0
RAW_IMU;AX;39.0;AY;-2.0;AZ;254.0;GX;0.0;GY;0.0;GZ;-1.0;MAGX;15.0;MAGY;-104.0;MAGZ;82.0
MOT;0;1000.0;1;1000.0;2;1000.0;3;1000.0;4;0.0;5;0.0;6;0.0;7;0.0;
RC;ROLL;1495.0;PITCH;1517.0;YAW;1537.0;THROTTLE;1060.0;AUX1;1537.0;AUX2;1500.0;AUX3;1500.0;AUX4;1500.0
ALTITUDE;0.0
DEBUG;DEBUG10.0;DEBUG2;0.0;DEBUG3;0.0;DEBUG4;0.0
ATTITUDE;ANGX;7.0;ANGY;-1.0;HEAD;190.0
STATUS;CYCLETIME;2912;I2CERR;0;PRESENT;23;MODE;0
RAW_IMU;AX;37.0;AY;-3.0;AZ;251.0;GX;0.0;GY;0.0;GZ;-1.0;MAGX;15.0;MAGY;-104.0;MAGZ;82.0
MOT;0;1000.0;1;1000.0;2;1000.0;3;1000.0;4;0.0;5;0.0;6;0.0;7;0.0;
RC;ROLL;1495.0;PITCH;1517.0;YAW;1537.0;THROTTLE;1060.0;AUX1;1537.0;AUX2;1500.0;AUX3;1500.0;AUX4;1500.0
ALTITUDE;0.0
DEBUG;DEBUG10.0;DEBUG2;0.0;DEBUG3;0.0;DEBUG4;0.0
ATTITUDE;ANGX;7.0;ANGY;-2.0;HEAD;190.0
STATUS;CYCLETIME;2904;I2CERR;0;PRESENT;23;MODE;0
RAW_IMU;AX;38.0;AY;-3.0;AZ;251.0;GX;0.0;GY;0.0;GZ;-1.0;MAGX;15.0;MAGY;-103.0;MAGZ;84.0
MOT;0;1000.0;1;1000.0;2;1000.0;3;1000.0;4;0.0;5;0.0;6;0.0;7;0.0;
RC;ROLL;1495.0;PITCH;1517.0;YAW;1535.0;THROTTLE;1060.0;AUX1;1537.0;AUX2;1500.0;AUX3;1500.0;AUX4;1500.0
ALTITUDE;0.0
DEBUG;DEBUG10.0;DEBUG2;0.0;DEBUG3;0.0;DEBUG4;0.0
ATTITUDE;ANGX;7.0;ANGY;-1.0;HEAD;190.0
STATUS;CYCLETIME;2840;I2CERR;0;PRESENT;23;MODE;0
RAW_IMU;AX;38.0;AY;-3.0;AZ;253.0;GX;0.0;GY;0.0;GZ;-1.0;MAGX;15.0;MAGY;-103.0;MAGZ;84.0
MOT;0;1000.0;1;1000.0;2;1000.0;3;1000.0;4;0.0;5;0.0;6;0.0;7;0.0;
RC;ROLL;1495.0;PITCH;1517.0;YAW;1535.0;THROTTLE;1060.0;AUX1;1537.0;AUX2;1500.0;AUX3;1500.0;AUX4;1500.0
ALTITUDE;0.0
DEBUG;DEBUG10.0;DEBUG2;0.0;DEBUG3;0.0;DEBUG4;0.0
ATTITUDE;ANGX;7.0;ANGY;-1.0;HEAD;190.0
STATUS;CYCLETIME;2880;I2CERR;0;PRESENT;23;MODE;0
RAW_IMU;AX;37.0;AY;-3.0;AZ;254.0;GX;0.0;GY;0.0;GZ;-1.0;MAGX;16.0;MAGY;-104.0;MAGZ;83.0
MOT;0;1000.0;1;1000.0;2;1000.0;3;1000.0;4;0.0;5;0.0;6;0.0;7;0.0;
RC;ROLL;1495.0;PITCH;1517.0;YAW;1535.0;THROTTLE;1060.0;AUX1;1537.0;AUX2;1500.0;AUX3;1500.0;AUX4;1500.0
ALTITUDE;0.0
DEBUG;DEBUG10.0;DEBUG2;0.0;DEBUG3;0.0;DEBUG4;0.0
ATTITUDE;ANGX;7.0;ANGY;-1.0;HEAD;190.0
STATUS;CYCLETIME;2864;I2CERR;0;PRESENT;23;MODE;0
RAW_IMU;AX;39.0;AY;-2.0;AZ;251.0;GX;0.0;GY;0.0;GZ;-1.0;MAGX;16.0;MAGY;-104.0;MAGZ;83.0
MOT;0;1000.0;1;1000.0;2;1000.0;3;1000.0;4;0.0;5;0.0;6;0.0;7;0.0;
RC;ROLL;1495.0;PITCH;1517.0;YAW;1535.0;THROTTLE;1060.0;AUX1;1537.0;AUX2;1500.0;AUX3;1500.0;AUX4;1500.0
ALTITUDE;0.0
DEBUG;DEBUG10.0;DEBUG2;0.0;DEBUG3;0.0;DEBUG4;0.0
ATTITUDE;ANGX;7.0;ANGY;-1.0;HEAD;190.0
STATUS;CYCLETIME;2880;I2CERR;0;PRESENT;23;MODE;0
RAW_IMU;AX;37.0;AY;-3.0;AZ;253.0;GX;0.0;GY;0.0;GZ;-1.0;MAGX;16.0;MAGY;-104.0;MAGZ;84.0
MOT;0;1000.0;1;1000.0;2;1000.0;3;1000.0;4;0.0;5;0.0;6;0.0;7;0.0;
RC;ROLL;1495.0;PITCH;1517.0;YAW;1535.0;THROTTLE;1060.0;AUX1;1537.0;AUX2;1500.0;AUX3;1500.0;AUX4;1500.0
ALTITUDE;0.0
DEBUG;DEBUG10.0;DEBUG2;0.0;DEBUG3;0.0;DEBUG4;0.0
ATTITUDE;ANGX;7.0;ANGY;-1.0;HEAD;190.0
STATUS;CYCLETIME;2884;I2CERR;0;PRESENT;23;MODE;0
RAW_IMU;AX;39.0;AY;-4.0;AZ;253.0;GX;0.0;GY;0.0;GZ;-1.0;MAGX;16.0;MAGY;-104.0;MAGZ;84.0
MOT;0;1000.0;1;1000.0;2;1000.0;3;1000.0;4;0.0;5;0.0;6;0.0;7;0.0;
RC;ROLL;1495.0;PITCH;1517.0;YAW;1537.0;THROTTLE;1060.0;AUX1;1537.0;AUX2;1500.0;AUX3;1500.0;AUX4;1500.0
ALTITUDE;0.0
DEBUG;DEBUG10.0;DEBUG2;0.0;DEBUG3;0.0;DEBUG4;0.0
ATTITUDE;ANGX;7.0;ANGY;-1.0;HEAD;189.0
STATUS;CYCLETIME;2904;I2CERR;0;PRESENT;23;MODE;0
RAW_IMU;AX;37.0;AY;-5.0;AZ;254.0;GX;0.0;GY;0.0;GZ;-1.0;MAGX;16.0;MAGY;-104.0;MAGZ;84.0
MOT;0;1000.0;1;1000.0;2;1000.0;3;1000.0;4;0.0;5;0.0;6;0.0;7;0.0;
RC;ROLL;1497.0;PITCH;1515.0;YAW;1537.0;THROTTLE;1060.0;AUX1;1537.0;AUX2;1500.0;AUX3;1500.0;AUX4;1500.0
ALTITUDE;0.0
DEBUG;DEBUG10.0;DEBUG2;0.0;DEBUG3;0.0;DEBUG4;0.0
ATTITUDE;ANGX;7.0;ANGY;-1.0;HEAD;189.0
STATUS;CYCLETIME;2912;I2CERR;0;PRESENT;23;MODE;0
RAW_IMU;AX;36.0;AY;-4.0;AZ;254.0;GX;0.0;GY;0.0;GZ;-1.0;MAGX;15.0;MAGY;-104.0;MAGZ;82.0
MOT;0;1000.0;1;1000.0;2;1000.0;3;1000.0;4;0.0;5;0.0;6;0.0;7;0.0;
RC;ROLL;1497.0;PITCH;1515.0;YAW;1537.0;THROTTLE;1060.0;AUX1;1537.0;AUX2;1500.0;AUX3;1500.0;AUX4;1500.0
ALTITUDE;0.0
DEBUG;DEBUG10.0;DEBUG2;0.0;DEBUG3;0.0;DEBUG4;0.0
ATTITUDE;ANGX;7.0;ANGY;-1.0;HEAD;190.0
STATUS;CYCLETIME;2904;I2CERR;0;PRESENT;23;MODE;0
RAW_IMU;AX;37.0;AY;-3.0;AZ;256.0;GX;0.0;GY;0.0;GZ;-1.0;MAGX;15.0;MAGY;-104.0;MAGZ;82.0
MOT;0;1000.0;1;1000.0;2;1000.0;3;1000.0;4;0.0;5;0.0;6;0.0;7;0.0;
RC;ROLL;1497.0;PITCH;1515.0;YAW;1537.0;THROTTLE;1060.0;AUX1;1537.0;AUX2;1500.0;AUX3;1500.0;AUX4;1500.0
ALTITUDE;0.0
DEBUG;DEBUG10.0;DEBUG2;0.0;DEBUG3;0.0;DEBUG4;0.0
ATTITUDE;ANGX;7.0;ANGY;-1.0;HEAD;190.0
STATUS;CYCLETIME;2864;I2CERR;0;PRESENT;23;MODE;0
RAW_IMU;AX;40.0;AY;-3.0;AZ;254.0;GX;0.0;GY;0.0;GZ;-1.0;MAGX;16.0;MAGY;-104.0;MAGZ;83.0
MOT;0;1000.0;1;1000.0;2;1000.0;3;1000.0;4;0.0;5;0.0;6;0.0;7;0.0;
RC;ROLL;1497.0;PITCH;1515.0;YAW;1537.0;THROTTLE;1060.0;AUX1;1537.0;AUX2;1500.0;AUX3;1500.0;AUX4;1500.0
ALTITUDE;0.0
DEBUG;DEBUG10.0;DEBUG2;0.0;DEBUG3;0.0;DEBUG4;0.0
ATTITUDE;ANGX;7.0;ANGY;-1.0;HEAD;190.0
STATUS;CYCLETIME;2944;I2CERR;0;PRESENT;23;MODE;0
RAW_IMU;AX;38.0;AY;-3.0;AZ;252.0;GX;0.0;GY;0.0;GZ;-1.0;MAGX;16.0;MAGY;-104.0;MAGZ;83.0
MOT;0;1000.0;1;1000.0;2;1000.0;3;1000.0;4;0.0;5;0.0;6;0.0;7;0.0;
RC;ROLL;1495.0;PITCH;1515.0;YAW;1537.0;THROTTLE;1060.0;AUX1;1537.0;AUX2;1500.0;AUX3;1500.0;AUX4;1500.0
ALTITUDE;0.0
DEBUG;DEBUG10.0;DEBUG2;0.0;DEBUG3;0.0;DEBUG4;0.0
ATTITUDE;ANGX;7.0;ANGY;-1.0;HEAD;190.0
STATUS;CYCLETIME;2896;I2CERR;0;PRESENT;23;MODE;0
RAW_IMU;AX;37.0;AY;-5.0;AZ;254.0;GX;0.0;GY;0.0;GZ;-1.0;MAGX;16.0;MAGY;-104.0;MAGZ;83.0
MOT;0;1000.0;1;1000.0;2;1000.0;3;1000.0;4;0.0;5;0.0;6;0.0;7;0.0;
RC;ROLL;1495.0;PITCH;1515.0;YAW;1559.0;THROTTLE;1060.0;AUX1;1535.0;AUX2;1500.0;AUX3;1500.0;AUX4;1500.0
ALTITUDE;0.0
DEBUG;DEBUG10.0;DEBUG2;0.0;DEBUG3;0.0;DEBUG4;0.0
ATTITUDE;ANGX;7.0;ANGY;-2.0;HEAD;190.0
STATUS;CYCLETIME;2876;I2CERR;0;PRESENT;23;MODE;0
RAW_IMU;AX;37.0;AY;-4.0;AZ;253.0;GX;0.0;GY;0.0;GZ;-1.0;MAGX;16.0;MAGY;-104.0;MAGZ;83.0
MOT;0;1000.0;1;1000.0;2;1000.0;3;1000.0;4;0.0;5;0.0;6;0.0;7;0.0;
RC;ROLL;1495.0;PITCH;1515.0;YAW;1596.0;THROTTLE;1060.0;AUX1;1535.0;AUX2;1500.0;AUX3;1500.0;AUX4;1500.0
ALTITUDE;0.0
DEBUG;DEBUG10.0;DEBUG2;0.0;DEBUG3;0.0;DEBUG4;0.0
ATTITUDE;ANGX;7.0;ANGY;-2.0;HEAD;190.0
STATUS;CYCLETIME;3012;I2CERR;0;PRESENT;23;MODE;0
RAW_IMU;AX;37.0;AY;-3.0;AZ;254.0;GX;0.0;GY;0.0;GZ;-1.0;MAGX;17.0;MAGY;-104.0;MAGZ;83.0
MOT;0;1000.0;1;1000.0;2;1000.0;3;1000.0;4;0.0;5;0.0;6;0.0;7;0.0;
RC;ROLL;1495.0;PITCH;1515.0;YAW;1657.0;THROTTLE;1060.0;AUX1;1535.0;AUX2;1500.0;AUX3;1500.0;AUX4;1500.0
ALTITUDE;0.0
DEBUG;DEBUG10.0;DEBUG2;0.0;DEBUG3;0.0;DEBUG4;0.0
ATTITUDE;ANGX;7.0;ANGY;-2.0;HEAD;190.0
STATUS;CYCLETIME;2912;I2CERR;0;PRESENT;23;MODE;0
RAW_IMU;AX;38.0;AY;-2.0;AZ;253.0;GX;0.0;GY;0.0;GZ;-1.0;MAGX;17.0;MAGY;-104.0;MAGZ;83.0
MOT;0;1000.0;1;1000.0;2;1000.0;3;1000.0;4;0.0;5;0.0;6;0.0;7;0.0;
RC;ROLL;1495.0;PITCH;1515.0;YAW;1697.0;THROTTLE;1060.0;AUX1;1535.0;AUX2;1500.0;AUX3;1500.0;AUX4;1500.0
ALTITUDE;0.0
DEBUG;DEBUG10.0;DEBUG2;0.0;DEBUG3;0.0;DEBUG4;0.0
ATTITUDE;ANGX;7.0;ANGY;-2.0;HEAD;190.0
STATUS;CYCLETIME;2884;I2CERR;0;PRESENT;23;MODE;0
RAW_IMU;AX;36.0;AY;-3.0;AZ;255.0;GX;0.0;GY;0.0;GZ;-1.0;MAGX;16.0;MAGY;-103.0;MAGZ;83.0
MOT;0;1000.0;1;1000.0;2;1000.0;3;1000.0;4;0.0;5;0.0;6;0.0;7;0.0;
RC;ROLL;1495.0;PITCH;1515.0;YAW;1713.0;THROTTLE;1060.0;AUX1;1535.0;AUX2;1500.0;AUX3;1500.0;AUX4;1500.0
ALTITUDE;0.0
DEBUG;DEBUG10.0;DEBUG2;0.0;DEBUG3;0.0;DEBUG4;0.0
ATTITUDE;ANGX;7.0;ANGY;-2.0;HEAD;190.0
STATUS;CYCLETIME;2884;I2CERR;0;PRESENT;23;MODE;0
RAW_IMU;AX;37.0;AY;-3.0;AZ;252.0;GX;0.0;GY;0.0;GZ;-1.0;MAGX;16.0;MAGY;-103.0;MAGZ;83.0
MOT;0;1000.0;1;1000.0;2;1000.0;3;1000.0;4;0.0;5;0.0;6;0.0;7;0.0;
RC;ROLL;1495.0;PITCH;1515.0;YAW;1741.0;THROTTLE;1060.0;AUX1;1535.0;AUX2;1500.0;AUX3;1500.0;AUX4;1500.0
ALTITUDE;0.0
DEBUG;DEBUG10.0;DEBUG2;0.0;DEBUG3;0.0;DEBUG4;0.0
ATTITUDE;ANGX;7.0;ANGY;-2.0;HEAD;190.0
STATUS;CYCLETIME;3152;I2CERR;0;PRESENT;23;MODE;0
RAW_IMU;AX;38.0;AY;-1.0;AZ;253.0;GX;0.0;GY;0.0;GZ;-1.0;MAGX;16.0;MAGY;-104.0;MAGZ;83.0
MOT;0;1000.0;1;1000.0;2;1000.0;3;1000.0;4;0.0;5;0.0;6;0.0;7;0.0;
RC;ROLL;1495.0;PITCH;1515.0;YAW;1745.0;THROTTLE;1058.0;AUX1;1535.0;AUX2;1500.0;AUX3;1500.0;AUX4;1500.0
ALTITUDE;0.0
DEBUG;DEBUG10.0;DEBUG2;0.0;DEBUG3;0.0;DEBUG4;0.0
ATTITUDE;ANGX;7.0;ANGY;-1.0;HEAD;190.0
STATUS;CYCLETIME;2896;I2CERR;0;PRESENT;23;MODE;0
RAW_IMU;AX;36.0;AY;-4.0;AZ;252.0;GX;0.0;GY;0.0;GZ;-1.0;MAGX;16.0;MAGY;-104.0;MAGZ;83.0
MOT;0;1000.0;1;1000.0;2;1000.0;3;1000.0;4;0.0;5;0.0;6;0.0;7;0.0;
RC;ROLL;1495.0;PITCH;1515.0;YAW;1757.0;THROTTLE;1054.0;AUX1;1535.0;AUX2;1500.0;AUX3;1500.0;AUX4;1500.0
ALTITUDE;0.0
DEBUG;DEBUG10.0;DEBUG2;0.0;DEBUG3;0.0;DEBUG4;0.0
ATTITUDE;ANGX;7.0;ANGY;-1.0;HEAD;190.0
STATUS;CYCLETIME;2916;I2CERR;0;PRESENT;23;MODE;0
RAW_IMU;AX;37.0;AY;-3.0;AZ;254.0;GX;0.0;GY;0.0;GZ;-1.0;MAGX;16.0;MAGY;-104.0;MAGZ;83.0
MOT;0;1000.0;1;1000.0;2;1000.0;3;1000.0;4;0.0;5;0.0;6;0.0;7;0.0;
RC;ROLL;1495.0;PITCH;1515.0;YAW;1781.0;THROTTLE;1054.0;AUX1;1538.0;AUX2;1500.0;AUX3;1500.0;AUX4;1500.0
ALTITUDE;0.0
DEBUG;DEBUG10.0;DEBUG2;0.0;DEBUG3;0.0;DEBUG4;0.0
ATTITUDE;ANGX;7.0;ANGY;-2.0;HEAD;190.0
STATUS;CYCLETIME;2908;I2CERR;0;PRESENT;23;MODE;0
RAW_IMU;AX;38.0;AY;-3.0;AZ;252.0;GX;0.0;GY;0.0;GZ;-1.0;MAGX;15.0;MAGY;-103.0;MAGZ;85.0
MOT;0;1000.0;1;1000.0;2;1000.0;3;1000.0;4;0.0;5;0.0;6;0.0;7;0.0;
RC;ROLL;1498.0;PITCH;1515.0;YAW;1818.0;THROTTLE;1054.0;AUX1;1538.0;AUX2;1500.0;AUX3;1500.0;AUX4;1500.0
ALTITUDE;0.0
DEBUG;DEBUG10.0;DEBUG2;0.0;DEBUG3;0.0;DEBUG4;0.0
ATTITUDE;ANGX;7.0;ANGY;-2.0;HEAD;190.0
STATUS;CYCLETIME;3024;I2CERR;0;PRESENT;23;MODE;0
RAW_IMU;AX;39.0;AY;-2.0;AZ;253.0;GX;0.0;GY;0.0;GZ;-1.0;MAGX;15.0;MAGY;-103.0;MAGZ;85.0
MOT;0;1000.0;1;1000.0;2;1000.0;3;1000.0;4;0.0;5;0.0;6;0.0;7;0.0;
RC;ROLL;1498.0;PITCH;1515.0;YAW;1886.0;THROTTLE;1054.0;AUX1;1540.0;AUX2;1500.0;AUX3;1500.0;AUX4;1500.0
ALTITUDE;0.0
DEBUG;DEBUG10.0;DEBUG2;0.0;DEBUG3;0.0;DEBUG4;0.0
ATTITUDE;ANGX;7.0;ANGY;-2.0;HEAD;189.0
STATUS;CYCLETIME;2892;I2CERR;0;PRESENT;23;MODE;0
RAW_IMU;AX;37.0;AY;0.0;AZ;253.0;GX;0.0;GY;0.0;GZ;-1.0;MAGX;15.0;MAGY;-103.0;MAGZ;83.0
MOT;0;1000.0;1;1000.0;2;1000.0;3;1000.0;4;0.0;5;0.0;6;0.0;7;0.0;
RC;ROLL;1498.0;PITCH;1515.0;YAW;1909.0;THROTTLE;1054.0;AUX1;1540.0;AUX2;1500.0;AUX3;1500.0;AUX4;1500.0
ALTITUDE;0.0
DEBUG;DEBUG10.0;DEBUG2;0.0;DEBUG3;0.0;DEBUG4;0.0
ATTITUDE;ANGX;7.0;ANGY;-1.0;HEAD;189.0
STATUS;CYCLETIME;2928;I2CERR;0;PRESENT;23;MODE;0
RAW_IMU;AX;36.0;AY;-3.0;AZ;254.0;GX;0.0;GY;0.0;GZ;-1.0;MAGX;15.0;MAGY;-103.0;MAGZ;83.0
MOT;0;1000.0;1;1000.0;2;1000.0;3;1000.0;4;0.0;5;0.0;6;0.0;7;0.0;
RC;ROLL;1496.0;PITCH;1515.0;YAW;1915.0;THROTTLE;1054.0;AUX1;1543.0;AUX2;1500.0;AUX3;1500.0;AUX4;1500.0
ALTITUDE;0.0
DEBUG;DEBUG10.0;DEBUG2;0.0;DEBUG3;0.0;DEBUG4;0.0
ATTITUDE;ANGX;7.0;ANGY;-1.0;HEAD;189.0
STATUS;CYCLETIME;3012;I2CERR;0;PRESENT;23;MODE;0
RAW_IMU;AX;38.0;AY;0.0;AZ;253.0;GX;0.0;GY;0.0;GZ;-1.0;MAGX;16.0;MAGY;-104.0;MAGZ;83.0
MOT;0;1000.0;1;1000.0;2;1000.0;3;1000.0;4;0.0;5;0.0;6;0.0;7;0.0;
RC;ROLL;1496.0;PITCH;1515.0;YAW;1915.0;THROTTLE;1054.0;AUX1;1543.0;AUX2;1500.0;AUX3;1500.0;AUX4;1500.0
ALTITUDE;0.0
DEBUG;DEBUG10.0;DEBUG2;0.0;DEBUG3;0.0;DEBUG4;0.0
ATTITUDE;ANGX;7.0;ANGY;-1.0;HEAD;189.0
STATUS;CYCLETIME;2892;I2CERR;0;PRESENT;23;MODE;0
RAW_IMU;AX;38.0;AY;-4.0;AZ;251.0;GX;0.0;GY;0.0;GZ;-1.0;MAGX;16.0;MAGY;-104.0;MAGZ;83.0
MOT;0;1000.0;1;1000.0;2;1000.0;3;1000.0;4;0.0;5;0.0;6;0.0;7;0.0;
RC;ROLL;1496.0;PITCH;1515.0;YAW;1915.0;THROTTLE;1054.0;AUX1;1543.0;AUX2;1500.0;AUX3;1500.0;AUX4;1500.0
ALTITUDE;0.0
DEBUG;DEBUG10.0;DEBUG2;0.0;DEBUG3;0.0;DEBUG4;0.0
ATTITUDE;ANGX;7.0;ANGY;-1.0;HEAD;189.0
STATUS;CYCLETIME;2900;I2CERR;0;PRESENT;23;MODE;0
RAW_IMU;AX;38.0;AY;-4.0;AZ;251.0;GX;0.0;GY;0.0;GZ;-1.0;MAGX;17.0;MAGY;-104.0;MAGZ;83.0
MOT;0;1000.0;1;1000.0;2;1000.0;3;1000.0;4;0.0;5;0.0;6;0.0;7;0.0;
RC;ROLL;1496.0;PITCH;1515.0;YAW;1915.0;THROTTLE;1054.0;AUX1;1543.0;AUX2;1500.0;AUX3;1500.0;AUX4;1500.0
ALTITUDE;0.0
DEBUG;DEBUG10.0;DEBUG2;0.0;DEBUG3;0.0;DEBUG4;0.0
ATTITUDE;ANGX;7.0;ANGY;-1.0;HEAD;189.0
STATUS;CYCLETIME;2924;I2CERR;0;PRESENT;23;MODE;0
RAW_IMU;AX;38.0;AY;-3.0;AZ;253.0;GX;0.0;GY;0.0;GZ;-1.0;MAGX;17.0;MAGY;-104.0;MAGZ;83.0
MOT;0;1000.0;1;1000.0;2;1000.0;3;1000.0;4;0.0;5;0.0;6;0.0;7;0.0;
RC;ROLL;1496.0;PITCH;1515.0;YAW;1915.0;THROTTLE;1054.0;AUX1;1541.0;AUX2;1500.0;AUX3;1500.0;AUX4;1500.0
ALTITUDE;0.0
DEBUG;DEBUG10.0;DEBUG2;0.0;DEBUG3;0.0;DEBUG4;0.0
ATTITUDE;ANGX;7.0;ANGY;-1.0;HEAD;190.0
STATUS;CYCLETIME;2944;I2CERR;0;PRESENT;23;MODE;0
RAW_IMU;AX;37.0;AY;-5.0;AZ;251.0;GX;0.0;GY;0.0;GZ;-1.0;MAGX;16.0;MAGY;-104.0;MAGZ;84.0
MOT;0;1000.0;1;1000.0;2;1000.0;3;1000.0;4;0.0;5;0.0;6;0.0;7;0.0;
RC;ROLL;1496.0;PITCH;1515.0;YAW;1915.0;THROTTLE;1054.0;AUX1;1541.0;AUX2;1500.0;AUX3;1500.0;AUX4;1500.0
ALTITUDE;0.0
DEBUG;DEBUG10.0;DEBUG2;0.0;DEBUG3;0.0;DEBUG4;0.0
ATTITUDE;ANGX;7.0;ANGY;-1.0;HEAD;190.0
STATUS;CYCLETIME;3016;I2CERR;0;PRESENT;23;MODE;0
RAW_IMU;AX;34.0;AY;-4.0;AZ;254.0;GX;0.0;GY;0.0;GZ;-1.0;MAGX;16.0;MAGY;-104.0;MAGZ;84.0
MOT;0;1000.0;1;1000.0;2;1000.0;3;1000.0;4;0.0;5;0.0;6;0.0;7;0.0;
RC;ROLL;1496.0;PITCH;1515.0;YAW;1915.0;THROTTLE;1052.0;AUX1;1543.0;AUX2;1500.0;AUX3;1500.0;AUX4;1500.0
ALTITUDE;0.0
DEBUG;DEBUG10.0;DEBUG2;0.0;DEBUG3;0.0;DEBUG4;0.0
ATTITUDE;ANGX;7.0;ANGY;-2.0;HEAD;190.0
STATUS;CYCLETIME;3152;I2CERR;0;PRESENT;23;MODE;1
RAW_IMU;AX;39.0;AY;-3.0;AZ;252.0;GX;0.0;GY;0.0;GZ;-1.0;MAGX;16.0;MAGY;-104.0;MAGZ;84.0
MOT;0;1150.0;1;1150.0;2;1150.0;3;1150.0;4;0.0;5;0.0;6;0.0;7;0.0;
RC;ROLL;1496.0;PITCH;1515.0;YAW;1915.0;THROTTLE;1052.0;AUX1;1543.0;AUX2;1500.0;AUX3;1500.0;AUX4;1500.0
ALTITUDE;0.0
DEBUG;DEBUG10.0;DEBUG2;0.0;DEBUG3;0.0;DEBUG4;0.0
ATTITUDE;ANGX;7.0;ANGY;-2.0;HEAD;190.0
STATUS;CYCLETIME;2876;I2CERR;0;PRESENT;23;MODE;1
RAW_IMU;AX;37.0;AY;-4.0;AZ;254.0;GX;0.0;GY;0.0;GZ;-1.0;MAGX;16.0;MAGY;-104.0;MAGZ;84.0
MOT;0;1150.0;1;1150.0;2;1150.0;3;1150.0;4;0.0;5;0.0;6;0.0;7;0.0;
RC;ROLL;1496.0;PITCH;1515.0;YAW;1915.0;THROTTLE;1052.0;AUX1;1543.0;AUX2;1500.0;AUX3;1500.0;AUX4;1500.0
ALTITUDE;0.0
DEBUG;DEBUG10.0;DEBUG2;0.0;DEBUG3;0.0;DEBUG4;0.0
ATTITUDE;ANGX;7.0;ANGY;-2.0;HEAD;190.0
STATUS;CYCLETIME;2888;I2CERR;0;PRESENT;23;MODE;1
RAW_IMU;AX;39.0;AY;-5.0;AZ;253.0;GX;0.0;GY;0.0;GZ;-1.0;MAGX;16.0;MAGY;-104.0;MAGZ;84.0
MOT;0;1150.0;1;1150.0;2;1150.0;3;1150.0;4;0.0;5;0.0;6;0.0;7;0.0;
RC;ROLL;1496.0;PITCH;1515.0;YAW;1915.0;THROTTLE;1052.0;AUX1;1546.0;AUX2;1500.0;AUX3;1500.0;AUX4;1500.0
ALTITUDE;0.0
DEBUG;DEBUG10.0;DEBUG2;0.0;DEBUG3;0.0;DEBUG4;0.0
ATTITUDE;ANGX;7.0;ANGY;-2.0;HEAD;190.0
STATUS;CYCLETIME;2936;I2CERR;0;PRESENT;23;MODE;1
RAW_IMU;AX;37.0;AY;-3.0;AZ;252.0;GX;0.0;GY;0.0;GZ;-1.0;MAGX;16.0;MAGY;-104.0;MAGZ;84.0
MOT;0;1150.0;1;1150.0;2;1150.0;3;1150.0;4;0.0;5;0.0;6;0.0;7;0.0;
RC;ROLL;1496.0;PITCH;1515.0;YAW;1915.0;THROTTLE;1052.0;AUX1;1546.0;AUX2;1500.0;AUX3;1500.0;AUX4;1500.0
ALTITUDE;0.0
DEBUG;DEBUG10.0;DEBUG2;0.0;DEBUG3;0.0;DEBUG4;0.0
ATTITUDE;ANGX;7.0;ANGY;-2.0;HEAD;190.0
STATUS;CYCLETIME;2892;I2CERR;0;PRESENT;23;MODE;1
RAW_IMU;AX;38.0;AY;-4.0;AZ;252.0;GX;0.0;GY;0.0;GZ;-1.0;MAGX;16.0;MAGY;-104.0;MAGZ;84.0
MOT;0;1150.0;1;1150.0;2;1150.0;3;1150.0;4;0.0;5;0.0;6;0.0;7;0.0;
RC;ROLL;1496.0;PITCH;1515.0;YAW;1915.0;THROTTLE;1054.0;AUX1;1544.0;AUX2;1500.0;AUX3;1500.0;AUX4;1500.0
ALTITUDE;0.0
DEBUG;DEBUG10.0;DEBUG2;0.0;DEBUG3;0.0;DEBUG4;0.0
ATTITUDE;ANGX;7.0;ANGY;-2.0;HEAD;190.0
STATUS;CYCLETIME;2912;I2CERR;0;PRESENT;23;MODE;1
RAW_IMU;AX;39.0;AY;-3.0;AZ;253.0;GX;0.0;GY;0.0;GZ;-1.0;MAGX;15.0;MAGY;-104.0;MAGZ;84.0
MOT;0;1150.0;1;1150.0;2;1150.0;3;1150.0;4;0.0;5;0.0;6;0.0;7;0.0;
RC;ROLL;1496.0;PITCH;1515.0;YAW;1915.0;THROTTLE;1054.0;AUX1;1544.0;AUX2;1500.0;AUX3;1500.0;AUX4;1500.0
ALTITUDE;0.0
DEBUG;DEBUG10.0;DEBUG2;0.0;DEBUG3;0.0;DEBUG4;0.0
ATTITUDE;ANGX;7.0;ANGY;-2.0;HEAD;190.0
STATUS;CYCLETIME;2876;I2CERR;0;PRESENT;23;MODE;1
RAW_IMU;AX;38.0;AY;-4.0;AZ;255.0;GX;0.0;GY;0.0;GZ;-1.0;MAGX;15.0;MAGY;-104.0;MAGZ;84.0
MOT;0;1150.0;1;1150.0;2;1150.0;3;1150.0;4;0.0;5;0.0;6;0.0;7;0.0;
RC;ROLL;1496.0;PITCH;1515.0;YAW;1915.0;THROTTLE;1054.0;AUX1;1544.0;AUX2;1500.0;AUX3;1500.0;AUX4;1500.0
ALTITUDE;0.0
DEBUG;DEBUG10.0;DEBUG2;0.0;DEBUG3;0.0;DEBUG4;0.0
ATTITUDE;ANGX;7.0;ANGY;-2.0;HEAD;190.0
STATUS;CYCLETIME;3016;I2CERR;0;PRESENT;23;MODE;1
RAW_IMU;AX;38.0;AY;-3.0;AZ;255.0;GX;0.0;GY;0.0;GZ;-1.0;MAGX;16.0;MAGY;-103.0;MAGZ;83.0
MOT;0;1150.0;1;1150.0;2;1150.0;3;1150.0;4;0.0;5;0.0;6;0.0;7;0.0;
RC;ROLL;1496.0;PITCH;1515.0;YAW;1915.0;THROTTLE;1054.0;AUX1;1544.0;AUX2;1500.0;AUX3;1500.0;AUX4;1500.0
ALTITUDE;0.0
DEBUG;DEBUG10.0;DEBUG2;0.0;DEBUG3;0.0;DEBUG4;0.0
ATTITUDE;ANGX;7.0;ANGY;-2.0;HEAD;190.0
STATUS;CYCLETIME;2940;I2CERR;0;PRESENT;23;MODE;1
RAW_IMU;AX;37.0;AY;-4.0;AZ;253.0;GX;0.0;GY;0.0;GZ;-1.0;MAGX;16.0;MAGY;-103.0;MAGZ;83.0
MOT;0;1150.0;1;1150.0;2;1150.0;3;1150.0;4;0.0;5;0.0;6;0.0;7;0.0;
RC;ROLL;1496.0;PITCH;1515.0;YAW;1915.0;THROTTLE;1054.0;AUX1;1544.0;AUX2;1500.0;AUX3;1500.0;AUX4;1500.0
ALTITUDE;0.0
DEBUG;DEBUG10.0;DEBUG2;0.0;DEBUG3;0.0;DEBUG4;0.0
ATTITUDE;ANGX;7.0;ANGY;-2.0;HEAD;190.0
STATUS;CYCLETIME;2880;I2CERR;0;PRESENT;23;MODE;1
RAW_IMU;AX;36.0;AY;-2.0;AZ;253.0;GX;0.0;GY;0.0;GZ;-1.0;MAGX;16.0;MAGY;-103.0;MAGZ;83.0
MOT;0;1150.0;1;1150.0;2;1150.0;3;1150.0;4;0.0;5;0.0;6;0.0;7;0.0;
RC;ROLL;1496.0;PITCH;1517.0;YAW;1919.0;THROTTLE;1052.0;AUX1;1544.0;AUX2;1500.0;AUX3;1500.0;AUX4;1500.0
ALTITUDE;0.0
DEBUG;DEBUG10.0;DEBUG2;0.0;DEBUG3;0.0;DEBUG4;0.0
ATTITUDE;ANGX;7.0;ANGY;-2.0;HEAD;190.0
STATUS;CYCLETIME;2980;I2CERR;0;PRESENT;23;MODE;1
RAW_IMU;AX;41.0;AY;-3.0;AZ;253.0;GX;0.0;GY;0.0;GZ;-1.0;MAGX;16.0;MAGY;-103.0;MAGZ;83.0
MOT;0;1150.0;1;1150.0;2;1150.0;3;1150.0;4;0.0;5;0.0;6;0.0;7;0.0;
RC;ROLL;1496.0;PITCH;1517.0;YAW;1919.0;THROTTLE;1052.0;AUX1;1544.0;AUX2;1500.0;AUX3;1500.0;AUX4;1500.0
ALTITUDE;0.0
DEBUG;DEBUG10.0;DEBUG2;0.0;DEBUG3;0.0;DEBUG4;0.0
ATTITUDE;ANGX;7.0;ANGY;-2.0;HEAD;190.0
STATUS;CYCLETIME;2888;I2CERR;0;PRESENT;23;MODE;1
RAW_IMU;AX;40.0;AY;-4.0;AZ;255.0;GX;0.0;GY;0.0;GZ;-1.0;MAGX;15.0;MAGY;-104.0;MAGZ;84.0
MOT;0;1150.0;1;1150.0;2;1150.0;3;1150.0;4;0.0;5;0.0;6;0.0;7;0.0;
RC;ROLL;1496.0;PITCH;1515.0;YAW;1919.0;THROTTLE;1052.0;AUX1;1544.0;AUX2;1500.0;AUX3;1500.0;AUX4;1500.0
ALTITUDE;0.0
DEBUG;DEBUG10.0;DEBUG2;0.0;DEBUG3;0.0;DEBUG4;0.0
ATTITUDE;ANGX;7.0;ANGY;-2.0;HEAD;190.0
STATUS;CYCLETIME;2872;I2CERR;0;PRESENT;23;MODE;1
RAW_IMU;AX;39.0;AY;-4.0;AZ;253.0;GX;0.0;GY;0.0;GZ;-1.0;MAGX;15.0;MAGY;-104.0;MAGZ;84.0
MOT;0;1150.0;1;1150.0;2;1150.0;3;1150.0;4;0.0;5;0.0;6;0.0;7;0.0;
RC;ROLL;1496.0;PITCH;1515.0;YAW;1917.0;THROTTLE;1052.0;AUX1;1547.0;AUX2;1500.0;AUX3;1500.0;AUX4;1500.0
ALTITUDE;0.0
DEBUG;DEBUG10.0;DEBUG2;0.0;DEBUG3;0.0;DEBUG4;0.0
ATTITUDE;ANGX;7.0;ANGY;-2.0;HEAD;190.0
STATUS;CYCLETIME;2908;I2CERR;0;PRESENT;23;MODE;1
RAW_IMU;AX;38.0;AY;-3.0;AZ;252.0;GX;0.0;GY;0.0;GZ;-1.0;MAGX;16.0;MAGY;-104.0;MAGZ;83.0
MOT;0;1150.0;1;1150.0;2;1150.0;3;1150.0;4;0.0;5;0.0;6;0.0;7;0.0;
RC;ROLL;1496.0;PITCH;1515.0;YAW;1892.0;THROTTLE;1052.0;AUX1;1547.0;AUX2;1500.0;AUX3;1500.0;AUX4;1500.0
ALTITUDE;0.0
DEBUG;DEBUG10.0;DEBUG2;0.0;DEBUG3;0.0;DEBUG4;0.0
ATTITUDE;ANGX;7.0;ANGY;-2.0;HEAD;189.0
STATUS;CYCLETIME;2884;I2CERR;0;PRESENT;23;MODE;1
RAW_IMU;AX;38.0;AY;-3.0;AZ;252.0;GX;0.0;GY;0.0;GZ;-1.0;MAGX;16.0;MAGY;-104.0;MAGZ;83.0
MOT;0;1150.0;1;1150.0;2;1150.0;3;1150.0;4;0.0;5;0.0;6;0.0;7;0.0;
RC;ROLL;1496.0;PITCH;1515.0;YAW;1834.0;THROTTLE;1052.0;AUX1;1547.0;AUX2;1500.0;AUX3;1500.0;AUX4;1500.0
ALTITUDE;0.0
DEBUG;DEBUG10.0;DEBUG2;0.0;DEBUG3;0.0;DEBUG4;0.0
ATTITUDE;ANGX;7.0;ANGY;-2.0;HEAD;189.0
STATUS;CYCLETIME;2868;I2CERR;0;PRESENT;23;MODE;1
RAW_IMU;AX;37.0;AY;-4.0;AZ;252.0;GX;0.0;GY;0.0;GZ;-1.0;MAGX;16.0;MAGY;-104.0;MAGZ;83.0
MOT;0;1150.0;1;1150.0;2;1150.0;3;1150.0;4;0.0;5;0.0;6;0.0;7;0.0;
RC;ROLL;1496.0;PITCH;1515.0;YAW;1708.0;THROTTLE;1052.0;AUX1;1545.0;AUX2;1500.0;AUX3;1500.0;AUX4;1500.0
ALTITUDE;0.0
DEBUG;DEBUG10.0;DEBUG2;0.0;DEBUG3;0.0;DEBUG4;0.0
ATTITUDE;ANGX;7.0;ANGY;-2.0;HEAD;189.0
STATUS;CYCLETIME;2900;I2CERR;0;PRESENT;23;MODE;1
RAW_IMU;AX;35.0;AY;-6.0;AZ;251.0;GX;0.0;GY;0.0;GZ;-1.0;MAGX;16.0;MAGY;-104.0;MAGZ;83.0
MOT;0;1150.0;1;1150.0;2;1150.0;3;1150.0;4;0.0;5;0.0;6;0.0;7;0.0;
RC;ROLL;1496.0;PITCH;1515.0;YAW;1608.0;THROTTLE;1056.0;AUX1;1545.0;AUX2;1500.0;AUX3;1500.0;AUX4;1500.0
ALTITUDE;0.0
DEBUG;DEBUG10.0;DEBUG2;0.0;DEBUG3;0.0;DEBUG4;0.0
ATTITUDE;ANGX;7.0;ANGY;-2.0;HEAD;190.0
STATUS;CYCLETIME;2916;I2CERR;0;PRESENT;23;MODE;1
RAW_IMU;AX;37.0;AY;-4.0;AZ;250.0;GX;0.0;GY;0.0;GZ;-1.0;MAGX;16.0;MAGY;-104.0;MAGZ;83.0
MOT;0;1150.0;1;1150.0;2;1150.0;3;1150.0;4;0.0;5;0.0;6;0.0;7;0.0;
RC;ROLL;1496.0;PITCH;1515.0;YAW;1549.0;THROTTLE;1056.0;AUX1;1545.0;AUX2;1500.0;AUX3;1500.0;AUX4;1500.0
ALTITUDE;0.0
DEBUG;DEBUG10.0;DEBUG2;0.0;DEBUG3;0.0;DEBUG4;0.0
ATTITUDE;ANGX;7.0;ANGY;-2.0;HEAD;190.0
STATUS;CYCLETIME;2904;I2CERR;0;PRESENT;23;MODE;1
RAW_IMU;AX;38.0;AY;-4.0;AZ;251.0;GX;0.0;GY;0.0;GZ;-1.0;MAGX;16.0;MAGY;-104.0;MAGZ;83.0
MOT;0;1150.0;1;1150.0;2;1150.0;3;1150.0;4;0.0;5;0.0;6;0.0;7;0.0;
RC;ROLL;1498.0;PITCH;1515.0;YAW;1540.0;THROTTLE;1056.0;AUX1;1545.0;AUX2;1500.0;AUX3;1500.0;AUX4;1500.0
ALTITUDE;0.0
DEBUG;DEBUG10.0;DEBUG2;0.0;DEBUG3;0.0;DEBUG4;0.0
ATTITUDE;ANGX;7.0;ANGY;-2.0;HEAD;190.0
STATUS;CYCLETIME;2876;I2CERR;0;PRESENT;23;MODE;1
RAW_IMU;AX;37.0;AY;-2.0;AZ;252.0;GX;0.0;GY;0.0;GZ;-2.0;MAGX;16.0;MAGY;-104.0;MAGZ;83.0
MOT;0;1150.0;1;1150.0;2;1150.0;3;1150.0;4;0.0;5;0.0;6;0.0;7;0.0;
RC;ROLL;1498.0;PITCH;1515.0;YAW;1538.0;THROTTLE;1056.0;AUX1;1545.0;AUX2;1500.0;AUX3;1500.0;AUX4;1500.0
ALTITUDE;0.0
DEBUG;DEBUG10.0;DEBUG2;0.0;DEBUG3;0.0;DEBUG4;0.0
ATTITUDE;ANGX;7.0;ANGY;-2.0;HEAD;190.0
STATUS;CYCLETIME;3012;I2CERR;0;PRESENT;23;MODE;1
RAW_IMU;AX;38.0;AY;-4.0;AZ;255.0;GX;0.0;GY;0.0;GZ;-1.0;MAGX;16.0;MAGY;-103.0;MAGZ;83.0
MOT;0;1150.0;1;1150.0;2;1150.0;3;1150.0;4;0.0;5;0.0;6;0.0;7;0.0;
RC;ROLL;1498.0;PITCH;1515.0;YAW;1538.0;THROTTLE;1056.0;AUX1;1545.0;AUX2;1500.0;AUX3;1500.0;AUX4;1500.0
ALTITUDE;0.0
DEBUG;DEBUG10.0;DEBUG2;0.0;DEBUG3;0.0;DEBUG4;0.0
ATTITUDE;ANGX;7.0;ANGY;-2.0;HEAD;190.0
STATUS;CYCLETIME;2900;I2CERR;0;PRESENT;23;MODE;1
RAW_IMU;AX;36.0;AY;-4.0;AZ;252.0;GX;0.0;GY;0.0;GZ;-1.0;MAGX;16.0;MAGY;-103.0;MAGZ;83.0
MOT;0;1150.0;1;1150.0;2;1150.0;3;1150.0;4;0.0;5;0.0;6;0.0;7;0.0;
RC;ROLL;1498.0;PITCH;1515.0;YAW;1538.0;THROTTLE;1056.0;AUX1;1545.0;AUX2;1500.0;AUX3;1500.0;AUX4;1500.0
ALTITUDE;0.0
DEBUG;DEBUG10.0;DEBUG2;0.0;DEBUG3;0.0;DEBUG4;0.0
ATTITUDE;ANGX;7.0;ANGY;-2.0;HEAD;190.0
STATUS;CYCLETIME;2944;I2CERR;0;PRESENT;23;MODE;1
RAW_IMU;AX;38.0;AY;-4.0;AZ;250.0;GX;0.0;GY;0.0;GZ;-1.0;MAGX;15.0;MAGY;-103.0;MAGZ;83.0
MOT;0;1150.0;1;1150.0;2;1150.0;3;1150.0;4;0.0;5;0.0;6;0.0;7;0.0;
RC;ROLL;1498.0;PITCH;1515.0;YAW;1538.0;THROTTLE;1058.0;AUX1;1545.0;AUX2;1500.0;AUX3;1500.0;AUX4;1500.0
ALTITUDE;0.0
DEBUG;DEBUG10.0;DEBUG2;0.0;DEBUG3;0.0;DEBUG4;0.0
ATTITUDE;ANGX;7.0;ANGY;-2.0;HEAD;190.0
STATUS;CYCLETIME;2904;I2CERR;0;PRESENT;23;MODE;1
RAW_IMU;AX;39.0;AY;-4.0;AZ;251.0;GX;0.0;GY;0.0;GZ;-1.0;MAGX;15.0;MAGY;-103.0;MAGZ;83.0
MOT;0;1150.0;1;1150.0;2;1150.0;3;1150.0;4;0.0;5;0.0;6;0.0;7;0.0;
RC;ROLL;1498.0;PITCH;1515.0;YAW;1538.0;THROTTLE;1058.0;AUX1;1543.0;AUX2;1500.0;AUX3;1500.0;AUX4;1500.0
ALTITUDE;0.0
DEBUG;DEBUG10.0;DEBUG2;0.0;DEBUG3;0.0;DEBUG4;0.0
ATTITUDE;ANGX;7.0;ANGY;-2.0;HEAD;190.0
STATUS;CYCLETIME;2904;I2CERR;0;PRESENT;23;MODE;1
RAW_IMU;AX;38.0;AY;-6.0;AZ;254.0;GX;0.0;GY;0.0;GZ;-1.0;MAGX;16.0;MAGY;-104.0;MAGZ;83.0
MOT;0;1150.0;1;1150.0;2;1150.0;3;1150.0;4;0.0;5;0.0;6;0.0;7;0.0;
RC;ROLL;1498.0;PITCH;1515.0;YAW;1538.0;THROTTLE;1058.0;AUX1;1543.0;AUX2;1500.0;AUX3;1500.0;AUX4;1500.0
ALTITUDE;0.0
DEBUG;DEBUG10.0;DEBUG2;0.0;DEBUG3;0.0;DEBUG4;0.0
ATTITUDE;ANGX;7.0;ANGY;-2.0;HEAD;189.0
STATUS;CYCLETIME;2904;I2CERR;0;PRESENT;23;MODE;1
RAW_IMU;AX;39.0;AY;-6.0;AZ;254.0;GX;0.0;GY;0.0;GZ;-1.0;MAGX;16.0;MAGY;-104.0;MAGZ;83.0
MOT;0;1150.0;1;1150.0;2;1150.0;3;1150.0;4;0.0;5;0.0;6;0.0;7;0.0;
RC;ROLL;1498.0;PITCH;1515.0;YAW;1538.0;THROTTLE;1058.0;AUX1;1543.0;AUX2;1500.0;AUX3;1500.0;AUX4;1500.0
ALTITUDE;0.0
DEBUG;DEBUG10.0;DEBUG2;0.0;DEBUG3;0.0;DEBUG4;0.0
ATTITUDE;ANGX;7.0;ANGY;-2.0;HEAD;189.0
STATUS;CYCLETIME;2940;I2CERR;0;PRESENT;23;MODE;1
RAW_IMU;AX;39.0;AY;-3.0;AZ;254.0;GX;0.0;GY;0.0;GZ;-1.0;MAGX;16.0;MAGY;-104.0;MAGZ;83.0
MOT;0;1150.0;1;1150.0;2;1150.0;3;1150.0;4;0.0;5;0.0;6;0.0;7;0.0;
RC;ROLL;1496.0;PITCH;1515.0;YAW;1536.0;THROTTLE;1058.0;AUX1;1543.0;AUX2;1500.0;AUX3;1500.0;AUX4;1500.0
ALTITUDE;0.0
DEBUG;DEBUG10.0;DEBUG2;0.0;DEBUG3;0.0;DEBUG4;0.0
ATTITUDE;ANGX;7.0;ANGY;-2.0;HEAD;189.0
STATUS;CYCLETIME;2832;I2CERR;0;PRESENT;23;MODE;1
RAW_IMU;AX;38.0;AY;-4.0;AZ;255.0;GX;0.0;GY;0.0;GZ;-1.0;MAGX;15.0;MAGY;-103.0;MAGZ;83.0
MOT;0;1150.0;1;1150.0;2;1150.0;3;1150.0;4;0.0;5;0.0;6;0.0;7;0.0;
RC;ROLL;1496.0;PITCH;1517.0;YAW;1534.0;THROTTLE;1060.0;AUX1;1543.0;AUX2;1500.0;AUX3;1500.0;AUX4;1500.0
ALTITUDE;0.0
DEBUG;DEBUG10.0;DEBUG2;0.0;DEBUG3;0.0;DEBUG4;0.0
ATTITUDE;ANGX;7.0;ANGY;-2.0;HEAD;189.0
STATUS;CYCLETIME;2980;I2CERR;0;PRESENT;23;MODE;1
RAW_IMU;AX;36.0;AY;-3.0;AZ;253.0;GX;0.0;GY;0.0;GZ;-1.0;MAGX;15.0;MAGY;-103.0;MAGZ;83.0
MOT;0;1150.0;1;1150.0;2;1150.0;3;1150.0;4;0.0;5;0.0;6;0.0;7;0.0;
RC;ROLL;1496.0;PITCH;1515.0;YAW;1534.0;THROTTLE;1060.0;AUX1;1543.0;AUX2;1500.0;AUX3;1500.0;AUX4;1500.0
ALTITUDE;0.0
DEBUG;DEBUG10.0;DEBUG2;0.0;DEBUG3;0.0;DEBUG4;0.0
ATTITUDE;ANGX;7.0;ANGY;-2.0;HEAD;189.0
STATUS;CYCLETIME;2908;I2CERR;0;PRESENT;23;MODE;1
RAW_IMU;AX;36.0;AY;-4.0;AZ;253.0;GX;0.0;GY;0.0;GZ;-1.0;MAGX;16.0;MAGY;-103.0;MAGZ;83.0
MOT;0;1150.0;1;1150.0;2;1150.0;3;1150.0;4;0.0;5;0.0;6;0.0;7;0.0;
RC;ROLL;1496.0;PITCH;1515.0;YAW;1534.0;THROTTLE;1060.0;AUX1;1541.0;AUX2;1500.0;AUX3;1500.0;AUX4;1500.0
ALTITUDE;0.0
DEBUG;DEBUG10.0;DEBUG2;0.0;DEBUG3;0.0;DEBUG4;0.0
ATTITUDE;ANGX;7.0;ANGY;-2.0;HEAD;189.0
STATUS;CYCLETIME;2896;I2CERR;0;PRESENT;23;MODE;1
RAW_IMU;AX;38.0;AY;-2.0;AZ;254.0;GX;0.0;GY;0.0;GZ;-1.0;MAGX;16.0;MAGY;-103.0;MAGZ;83.0
MOT;0;1150.0;1;1150.0;2;1150.0;3;1150.0;4;0.0;5;0.0;6;0.0;7;0.0;
RC;ROLL;1496.0;PITCH;1515.0;YAW;1537.0;THROTTLE;1060.0;AUX1;1541.0;AUX2;1500.0;AUX3;1500.0;AUX4;1500.0
ALTITUDE;0.0
DEBUG;DEBUG10.0;DEBUG2;0.0;DEBUG3;0.0;DEBUG4;0.0
ATTITUDE;ANGX;7.0;ANGY;-2.0;HEAD;189.0
STATUS;CYCLETIME;2884;I2CERR;0;PRESENT;23;MODE;1
RAW_IMU;AX;39.0;AY;-4.0;AZ;254.0;GX;0.0;GY;0.0;GZ;-1.0;MAGX;15.0;MAGY;-103.0;MAGZ;83.0
MOT;0;1150.0;1;1150.0;2;1150.0;3;1150.0;4;0.0;5;0.0;6;0.0;7;0.0;
RC;ROLL;1496.0;PITCH;1515.0;YAW;1537.0;THROTTLE;1060.0;AUX1;1541.0;AUX2;1500.0;AUX3;1500.0;AUX4;1500.0
ALTITUDE;0.0
DEBUG;DEBUG10.0;DEBUG2;0.0;DEBUG3;0.0;DEBUG4;0.0
ATTITUDE;ANGX;7.0;ANGY;-2.0;HEAD;189.0
STATUS;CYCLETIME;2912;I2CERR;0;PRESENT;23;MODE;1
RAW_IMU;AX;39.0;AY;-4.0;AZ;251.0;GX;0.0;GY;0.0;GZ;-1.0;MAGX;15.0;MAGY;-103.0;MAGZ;83.0
MOT;0;1150.0;1;1150.0;2;1150.0;3;1150.0;4;0.0;5;0.0;6;0.0;7;0.0;
RC;ROLL;1499.0;PITCH;1515.0;YAW;1537.0;THROTTLE;1060.0;AUX1;1543.0;AUX2;1500.0;AUX3;1500.0;AUX4;1500.0
ALTITUDE;0.0
DEBUG;DEBUG10.0;DEBUG2;0.0;DEBUG3;0.0;DEBUG4;0.0
ATTITUDE;ANGX;7.0;ANGY;-2.0;HEAD;189.0
STATUS;CYCLETIME;2916;I2CERR;0;PRESENT;23;MODE;1
RAW_IMU;AX;38.0;AY;-2.0;AZ;252.0;GX;0.0;GY;0.0;GZ;-1.0;MAGX;16.0;MAGY;-104.0;MAGZ;82.0
MOT;0;1150.0;1;1150.0;2;1150.0;3;1150.0;4;0.0;5;0.0;6;0.0;7;0.0;
RC;ROLL;1499.0;PITCH;1515.0;YAW;1535.0;THROTTLE;1060.0;AUX1;1543.0;AUX2;1500.0;AUX3;1500.0;AUX4;1500.0
ALTITUDE;0.0
DEBUG;DEBUG10.0;DEBUG2;0.0;DEBUG3;0.0;DEBUG4;0.0
ATTITUDE;ANGX;7.0;ANGY;-2.0;HEAD;189.0
STATUS;CYCLETIME;2896;I2CERR;0;PRESENT;23;MODE;1
RAW_IMU;AX;39.0;AY;-5.0;AZ;254.0;GX;0.0;GY;0.0;GZ;-1.0;MAGX;16.0;MAGY;-104.0;MAGZ;82.0
MOT;0;1150.0;1;1150.0;2;1150.0;3;1150.0;4;0.0;5;0.0;6;0.0;7;0.0;
RC;ROLL;1499.0;PITCH;1515.0;YAW;1535.0;THROTTLE;1060.0;AUX1;1543.0;AUX2;1500.0;AUX3;1500.0;AUX4;1500.0
ALTITUDE;0.0
DEBUG;DEBUG10.0;DEBUG2;0.0;DEBUG3;0.0;DEBUG4;0.0
ATTITUDE;ANGX;7.0;ANGY;-2.0;HEAD;189.0
STATUS;CYCLETIME;2876;I2CERR;0;PRESENT;23;MODE;1
RAW_IMU;AX;38.0;AY;-4.0;AZ;256.0;GX;0.0;GY;0.0;GZ;-1.0;MAGX;15.0;MAGY;-104.0;MAGZ;84.0
MOT;0;1150.0;1;1150.0;2;1150.0;3;1150.0;4;0.0;5;0.0;6;0.0;7;0.0;
RC;ROLL;1497.0;PITCH;1515.0;YAW;1535.0;THROTTLE;1060.0;AUX1;1543.0;AUX2;1500.0;AUX3;1500.0;AUX4;1500.0
ALTITUDE;0.0
DEBUG;DEBUG10.0;DEBUG2;0.0;DEBUG3;0.0;DEBUG4;0.0
ATTITUDE;ANGX;7.0;ANGY;-2.0;HEAD;189.0
STATUS;CYCLETIME;2912;I2CERR;0;PRESENT;23;MODE;1
RAW_IMU;AX;38.0;AY;-5.0;AZ;255.0;GX;0.0;GY;0.0;GZ;-1.0;MAGX;15.0;MAGY;-104.0;MAGZ;84.0
MOT;0;1150.0;1;1150.0;2;1150.0;3;1150.0;4;0.0;5;0.0;6;0.0;7;0.0;
RC;ROLL;1495.0;PITCH;1515.0;YAW;1535.0;THROTTLE;1060.0;AUX1;1543.0;AUX2;1500.0;AUX3;1500.0;AUX4;1500.0
ALTITUDE;0.0
DEBUG;DEBUG10.0;DEBUG2;0.0;DEBUG3;0.0;DEBUG4;0.0
ATTITUDE;ANGX;7.0;ANGY;-2.0;HEAD;189.0
STATUS;CYCLETIME;3176;I2CERR;0;PRESENT;23;MODE;1
RAW_IMU;AX;38.0;AY;-3.0;AZ;253.0;GX;0.0;GY;0.0;GZ;-1.0;MAGX;16.0;MAGY;-104.0;MAGZ;83.0
MOT;0;1150.0;1;1150.0;2;1150.0;3;1150.0;4;0.0;5;0.0;6;0.0;7;0.0;
RC;ROLL;1495.0;PITCH;1515.0;YAW;1535.0;THROTTLE;1060.0;AUX1;1543.0;AUX2;1500.0;AUX3;1500.0;AUX4;1500.0
ALTITUDE;0.0
DEBUG;DEBUG10.0;DEBUG2;0.0;DEBUG3;0.0;DEBUG4;0.0
ATTITUDE;ANGX;7.0;ANGY;-2.0;HEAD;189.0
STATUS;CYCLETIME;2884;I2CERR;0;PRESENT;23;MODE;1
RAW_IMU;AX;38.0;AY;-3.0;AZ;252.0;GX;0.0;GY;0.0;GZ;-1.0;MAGX;16.0;MAGY;-104.0;MAGZ;83.0
MOT;0;1150.0;1;1150.0;2;1150.0;3;1150.0;4;0.0;5;0.0;6;0.0;7;0.0;
RC;ROLL;1495.0;PITCH;1515.0;YAW;1535.0;THROTTLE;1060.0;AUX1;1543.0;AUX2;1500.0;AUX3;1500.0;AUX4;1500.0
ALTITUDE;0.0
DEBUG;DEBUG10.0;DEBUG2;0.0;DEBUG3;0.0;DEBUG4;0.0
ATTITUDE;ANGX;7.0;ANGY;-2.0;HEAD;189.0
STATUS;CYCLETIME;2872;I2CERR;0;PRESENT;23;MODE;1
RAW_IMU;AX;39.0;AY;-5.0;AZ;254.0;GX;0.0;GY;0.0;GZ;-1.0;MAGX;16.0;MAGY;-104.0;MAGZ;83.0
MOT;0;1150.0;1;1150.0;2;1150.0;3;1150.0;4;0.0;5;0.0;6;0.0;7;0.0;
RC;ROLL;1495.0;PITCH;1515.0;YAW;1535.0;THROTTLE;1060.0;AUX1;1543.0;AUX2;1500.0;AUX3;1500.0;AUX4;1500.0
ALTITUDE;0.0
DEBUG;DEBUG10.0;DEBUG2;0.0;DEBUG3;0.0;DEBUG4;0.0
ATTITUDE;ANGX;7.0;ANGY;-2.0;HEAD;189.0
STATUS;CYCLETIME;2912;I2CERR;0;PRESENT;23;MODE;1
RAW_IMU;AX;36.0;AY;-3.0;AZ;253.0;GX;0.0;GY;0.0;GZ;-1.0;MAGX;15.0;MAGY;-103.0;MAGZ;83.0
MOT;0;1150.0;1;1150.0;2;1150.0;3;1150.0;4;0.0;5;0.0;6;0.0;7;0.0;
RC;ROLL;1495.0;PITCH;1515.0;YAW;1535.0;THROTTLE;1060.0;AUX1;1543.0;AUX2;1500.0;AUX3;1500.0;AUX4;1500.0
ALTITUDE;0.0
DEBUG;DEBUG10.0;DEBUG2;0.0;DEBUG3;0.0;DEBUG4;0.0
ATTITUDE;ANGX;7.0;ANGY;-2.0;HEAD;189.0
STATUS;CYCLETIME;3064;I2CERR;0;PRESENT;23;MODE;1
RAW_IMU;AX;38.0;AY;-3.0;AZ;253.0;GX;0.0;GY;0.0;GZ;-1.0;MAGX;15.0;MAGY;-103.0;MAGZ;83.0
MOT;0;1150.0;1;1150.0;2;1150.0;3;1150.0;4;0.0;5;0.0;6;0.0;7;0.0;
RC;ROLL;1497.0;PITCH;1513.0;YAW;1537.0;THROTTLE;1060.0;AUX1;1543.0;AUX2;1500.0;AUX3;1500.0;AUX4;1500.0
ALTITUDE;0.0
DEBUG;DEBUG10.0;DEBUG2;0.0;DEBUG3;0.0;DEBUG4;0.0
ATTITUDE;ANGX;7.0;ANGY;-2.0;HEAD;189.0
STATUS;CYCLETIME;2908;I2CERR;0;PRESENT;23;MODE;1
RAW_IMU;AX;39.0;AY;-3.0;AZ;253.0;GX;0.0;GY;0.0;GZ;-1.0;MAGX;16.0;MAGY;-104.0;MAGZ;83.0
MOT;0;1150.0;1;1150.0;2;1150.0;3;1150.0;4;0.0;5;0.0;6;0.0;7;0.0;
RC;ROLL;1497.0;PITCH;1513.0;YAW;1537.0;THROTTLE;1060.0;AUX1;1543.0;AUX2;1500.0;AUX3;1500.0;AUX4;1500.0
ALTITUDE;0.0
DEBUG;DEBUG10.0;DEBUG2;0.0;DEBUG3;0.0;DEBUG4;0.0
ATTITUDE;ANGX;7.0;ANGY;-2.0;HEAD;189.0
STATUS;CYCLETIME;2884;I2CERR;0;PRESENT;23;MODE;1
RAW_IMU;AX;36.0;AY;-4.0;AZ;254.0;GX;0.0;GY;0.0;GZ;-1.0;MAGX;16.0;MAGY;-104.0;MAGZ;83.0
MOT;0;1150.0;1;1150.0;2;1150.0;3;1150.0;4;0.0;5;0.0;6;0.0;7;0.0;
RC;ROLL;1497.0;PITCH;1513.0;YAW;1537.0;THROTTLE;1060.0;AUX1;1543.0;AUX2;1500.0;AUX3;1500.0;AUX4;1500.0
ALTITUDE;0.0
DEBUG;DEBUG10.0;DEBUG2;0.0;DEBUG3;0.0;DEBUG4;0.0
ATTITUDE;ANGX;7.0;ANGY;-2.0;HEAD;189.0
STATUS;CYCLETIME;2952;I2CERR;0;PRESENT;23;MODE;1
RAW_IMU;AX;36.0;AY;-5.0;AZ;254.0;GX;0.0;GY;0.0;GZ;-1.0;MAGX;16.0;MAGY;-104.0;MAGZ;84.0
MOT;0;1150.0;1;1150.0;2;1150.0;3;1150.0;4;0.0;5;0.0;6;0.0;7;0.0;
RC;ROLL;1497.0;PITCH;1513.0;YAW;1537.0;THROTTLE;1060.0;AUX1;1541.0;AUX2;1500.0;AUX3;1500.0;AUX4;1500.0
ALTITUDE;0.0
DEBUG;DEBUG10.0;DEBUG2;0.0;DEBUG3;0.0;DEBUG4;0.0
ATTITUDE;ANGX;7.0;ANGY;-2.0;HEAD;189.0
STATUS;CYCLETIME;2944;I2CERR;0;PRESENT;23;MODE;1
RAW_IMU;AX;36.0;AY;-4.0;AZ;253.0;GX;0.0;GY;0.0;GZ;-1.0;MAGX;16.0;MAGY;-104.0;MAGZ;84.0
MOT;0;1150.0;1;1150.0;2;1150.0;3;1150.0;4;0.0;5;0.0;6;0.0;7;0.0;
RC;ROLL;1497.0;PITCH;1515.0;YAW;1535.0;THROTTLE;1060.0;AUX1;1541.0;AUX2;1500.0;AUX3;1500.0;AUX4;1500.0
ALTITUDE;0.0
DEBUG;DEBUG10.0;DEBUG2;0.0;DEBUG3;0.0;DEBUG4;0.0
ATTITUDE;ANGX;7.0;ANGY;-2.0;HEAD;189.0
STATUS;CYCLETIME;2904;I2CERR;0;PRESENT;23;MODE;1
RAW_IMU;AX;37.0;AY;-6.0;AZ;255.0;GX;0.0;GY;0.0;GZ;-1.0;MAGX;16.0;MAGY;-104.0;MAGZ;83.0
MOT;0;1150.0;1;1150.0;2;1150.0;3;1150.0;4;0.0;5;0.0;6;0.0;7;0.0;
RC;ROLL;1497.0;PITCH;1515.0;YAW;1535.0;THROTTLE;1067.0;AUX1;1544.0;AUX2;1500.0;AUX3;1500.0;AUX4;1500.0
ALTITUDE;0.0
DEBUG;DEBUG10.0;DEBUG2;0.0;DEBUG3;0.0;DEBUG4;0.0
ATTITUDE;ANGX;7.0;ANGY;-2.0;HEAD;190.0
STATUS;CYCLETIME;2900;I2CERR;0;PRESENT;23;MODE;1
RAW_IMU;AX;37.0;AY;-3.0;AZ;255.0;GX;0.0;GY;0.0;GZ;-1.0;MAGX;16.0;MAGY;-104.0;MAGZ;83.0
MOT;0;1150.0;1;1150.0;2;1150.0;3;1150.0;4;0.0;5;0.0;6;0.0;7;0.0;
RC;ROLL;1497.0;PITCH;1515.0;YAW;1535.0;THROTTLE;1078.0;AUX1;1544.0;AUX2;1500.0;AUX3;1500.0;AUX4;1500.0
ALTITUDE;0.0
DEBUG;DEBUG10.0;DEBUG2;0.0;DEBUG3;0.0;DEBUG4;0.0
ATTITUDE;ANGX;7.0;ANGY;-2.0;HEAD;190.0
STATUS;CYCLETIME;2896;I2CERR;0;PRESENT;23;MODE;1
RAW_IMU;AX;40.0;AY;-2.0;AZ;253.0;GX;0.0;GY;0.0;GZ;-1.0;MAGX;15.0;MAGY;-104.0;MAGZ;84.0
MOT;0;1150.0;1;1150.0;2;1150.0;3;1150.0;4;0.0;5;0.0;6;0.0;7;0.0;
RC;ROLL;1497.0;PITCH;1515.0;YAW;1535.0;THROTTLE;1085.0;AUX1;1544.0;AUX2;1500.0;AUX3;1500.0;AUX4;1500.0
ALTITUDE;0.0
DEBUG;DEBUG10.0;DEBUG2;0.0;DEBUG3;0.0;DEBUG4;0.0
ATTITUDE;ANGX;7.0;ANGY;-2.0;HEAD;190.0
STATUS;CYCLETIME;2992;I2CERR;0;PRESENT;23;MODE;1
RAW_IMU;AX;38.0;AY;-3.0;AZ;256.0;GX;0.0;GY;0.0;GZ;-1.0;MAGX;15.0;MAGY;-104.0;MAGZ;84.0
MOT;0;1150.0;1;1150.0;2;1150.0;3;1150.0;4;0.0;5;0.0;6;0.0;7;0.0;
RC;ROLL;1494.0;PITCH;1515.0;YAW;1535.0;THROTTLE;1088.0;AUX1;1544.0;AUX2;1500.0;AUX3;1500.0;AUX4;1500.0
ALTITUDE;0.0
DEBUG;DEBUG10.0;DEBUG2;0.0;DEBUG3;0.0;DEBUG4;0.0
ATTITUDE;ANGX;7.0;ANGY;-2.0;HEAD;190.0
STATUS;CYCLETIME;2904;I2CERR;0;PRESENT;23;MODE;1
RAW_IMU;AX;36.0;AY;-4.0;AZ;254.0;GX;0.0;GY;0.0;GZ;-1.0;MAGX;15.0;MAGY;-104.0;MAGZ;83.0
MOT;0;1150.0;1;1150.0;2;1150.0;3;1150.0;4;0.0;5;0.0;6;0.0;7;0.0;
RC;ROLL;1494.0;PITCH;1515.0;YAW;1535.0;THROTTLE;1090.0;AUX1;1544.0;AUX2;1500.0;AUX3;1500.0;AUX4;1500.0
ALTITUDE;0.0
DEBUG;DEBUG10.0;DEBUG2;0.0;DEBUG3;0.0;DEBUG4;0.0
ATTITUDE;ANGX;7.0;ANGY;-2.0;HEAD;190.0
STATUS;CYCLETIME;2884;I2CERR;0;PRESENT;23;MODE;1
RAW_IMU;AX;34.0;AY;-3.0;AZ;254.0;GX;0.0;GY;0.0;GZ;-1.0;MAGX;15.0;MAGY;-104.0;MAGZ;83.0
MOT;0;1150.0;1;1150.0;2;1150.0;3;1150.0;4;0.0;5;0.0;6;0.0;7;0.0;
RC;ROLL;1494.0;PITCH;1515.0;YAW;1535.0;THROTTLE;1090.0;AUX1;1542.0;AUX2;1500.0;AUX3;1500.0;AUX4;1500.0
ALTITUDE;0.0
DEBUG;DEBUG10.0;DEBUG2;0.0;DEBUG3;0.0;DEBUG4;0.0
ATTITUDE;ANGX;7.0;ANGY;-2.0;HEAD;190.0
STATUS;CYCLETIME;2876;I2CERR;0;PRESENT;23;MODE;1
RAW_IMU;AX;35.0;AY;-5.0;AZ;253.0;GX;0.0;GY;0.0;GZ;-1.0;MAGX;15.0;MAGY;-104.0;MAGZ;83.0
MOT;0;1150.0;1;1150.0;2;1150.0;3;1150.0;4;0.0;5;0.0;6;0.0;7;0.0;
RC;ROLL;1494.0;PITCH;1515.0;YAW;1535.0;THROTTLE;1090.0;AUX1;1542.0;AUX2;1500.0;AUX3;1500.0;AUX4;1500.0
ALTITUDE;0.0
DEBUG;DEBUG10.0;DEBUG2;0.0;DEBUG3;0.0;DEBUG4;0.0
ATTITUDE;ANGX;7.0;ANGY;-2.0;HEAD;190.0
STATUS;CYCLETIME;2876;I2CERR;0;PRESENT;23;MODE;1
RAW_IMU;AX;37.0;AY;-5.0;AZ;252.0;GX;0.0;GY;0.0;GZ;-1.0;MAGX;15.0;MAGY;-104.0;MAGZ;83.0
MOT;0;1150.0;1;1150.0;2;1150.0;3;1150.0;4;0.0;5;0.0;6;0.0;7;0.0;
RC;ROLL;1494.0;PITCH;1515.0;YAW;1535.0;THROTTLE;1088.0;AUX1;1542.0;AUX2;1500.0;AUX3;1500.0;AUX4;1500.0
ALTITUDE;0.0
DEBUG;DEBUG10.0;DEBUG2;0.0;DEBUG3;0.0;DEBUG4;0.0
ATTITUDE;ANGX;7.0;ANGY;-2.0;HEAD;190.0
STATUS;CYCLETIME;2864;I2CERR;0;PRESENT;23;MODE;1
RAW_IMU;AX;37.0;AY;-3.0;AZ;252.0;GX;0.0;GY;0.0;GZ;-1.0;MAGX;15.0;MAGY;-104.0;MAGZ;83.0
MOT;0;1150.0;1;1150.0;2;1150.0;3;1150.0;4;0.0;5;0.0;6;0.0;7;0.0;
RC;ROLL;1494.0;PITCH;1515.0;YAW;1535.0;THROTTLE;1086.0;AUX1;1542.0;AUX2;1500.0;AUX3;1500.0;AUX4;1500.0
ALTITUDE;0.0
DEBUG;DEBUG10.0;DEBUG2;0.0;DEBUG3;0.0;DEBUG4;0.0
ATTITUDE;ANGX;7.0;ANGY;-2.0;HEAD;190.0
STATUS;CYCLETIME;2892;I2CERR;0;PRESENT;23;MODE;1
RAW_IMU;AX;38.0;AY;-3.0;AZ;253.0;GX;0.0;GY;0.0;GZ;-1.0;MAGX;16.0;MAGY;-103.0;MAGZ;83.0
MOT;0;1150.0;1;1150.0;2;1150.0;3;1150.0;4;0.0;5;0.0;6;0.0;7;0.0;
RC;ROLL;1494.0;PITCH;1515.0;YAW;1535.0;THROTTLE;1086.0;AUX1;1542.0;AUX2;1500.0;AUX3;1500.0;AUX4;1500.0
ALTITUDE;0.0
DEBUG;DEBUG10.0;DEBUG2;0.0;DEBUG3;0.0;DEBUG4;0.0
ATTITUDE;ANGX;7.0;ANGY;-2.0;HEAD;190.0
STATUS;CYCLETIME;2884;I2CERR;0;PRESENT;23;MODE;1
RAW_IMU;AX;37.0;AY;-5.0;AZ;252.0;GX;0.0;GY;0.0;GZ;-1.0;MAGX;16.0;MAGY;-103.0;MAGZ;83.0
MOT;0;1150.0;1;1150.0;2;1150.0;3;1150.0;4;0.0;5;0.0;6;0.0;7;0.0;
RC;ROLL;1494.0;PITCH;1515.0;YAW;1535.0;THROTTLE;1086.0;AUX1;1542.0;AUX2;1500.0;AUX3;1500.0;AUX4;1500.0
ALTITUDE;0.0
DEBUG;DEBUG10.0;DEBUG2;0.0;DEBUG3;0.0;DEBUG4;0.0
ATTITUDE;ANGX;7.0;ANGY;-2.0;HEAD;190.0
STATUS;CYCLETIME;2944;I2CERR;0;PRESENT;23;MODE;1
RAW_IMU;AX;37.0;AY;-5.0;AZ;252.0;GX;0.0;GY;0.0;GZ;-1.0;MAGX;16.0;MAGY;-103.0;MAGZ;84.0
MOT;0;1150.0;1;1150.0;2;1150.0;3;1150.0;4;0.0;5;0.0;6;0.0;7;0.0;
RC;ROLL;1494.0;PITCH;1515.0;YAW;1535.0;THROTTLE;1086.0;AUX1;1544.0;AUX2;1500.0;AUX3;1500.0;AUX4;1500.0
ALTITUDE;0.0
DEBUG;DEBUG10.0;DEBUG2;0.0;DEBUG3;0.0;DEBUG4;0.0
ATTITUDE;ANGX;7.0;ANGY;-2.0;HEAD;190.0
STATUS;CYCLETIME;2876;I2CERR;0;PRESENT;23;MODE;1
RAW_IMU;AX;37.0;AY;-4.0;AZ;252.0;GX;0.0;GY;0.0;GZ;-1.0;MAGX;16.0;MAGY;-103.0;MAGZ;84.0
MOT;0;1150.0;1;1150.0;2;1150.0;3;1150.0;4;0.0;5;0.0;6;0.0;7;0.0;
RC;ROLL;1494.0;PITCH;1515.0;YAW;1535.0;THROTTLE;1086.0;AUX1;1544.0;AUX2;1500.0;AUX3;1500.0;AUX4;1500.0
ALTITUDE;0.0
DEBUG;DEBUG10.0;DEBUG2;0.0;DEBUG3;0.0;DEBUG4;0.0
ATTITUDE;ANGX;7.0;ANGY;-2.0;HEAD;190.0
STATUS;CYCLETIME;2948;I2CERR;0;PRESENT;23;MODE;1
RAW_IMU;AX;37.0;AY;-4.0;AZ;252.0;GX;0.0;GY;0.0;GZ;-1.0;MAGX;15.0;MAGY;-103.0;MAGZ;83.0
MOT;0;1150.0;1;1150.0;2;1150.0;3;1150.0;4;0.0;5;0.0;6;0.0;7;0.0;
RC;ROLL;1494.0;PITCH;1515.0;YAW;1535.0;THROTTLE;1086.0;AUX1;1544.0;AUX2;1500.0;AUX3;1500.0;AUX4;1500.0
ALTITUDE;0.0
DEBUG;DEBUG10.0;DEBUG2;0.0;DEBUG3;0.0;DEBUG4;0.0
ATTITUDE;ANGX;7.0;ANGY;-2.0;HEAD;190.0
STATUS;CYCLETIME;2924;I2CERR;0;PRESENT;23;MODE;1
RAW_IMU;AX;37.0;AY;-3.0;AZ;253.0;GX;0.0;GY;0.0;GZ;-1.0;MAGX;15.0;MAGY;-103.0;MAGZ;83.0
MOT;0;1150.0;1;1150.0;2;1150.0;3;1150.0;4;0.0;5;0.0;6;0.0;7;0.0;
RC;ROLL;1496.0;PITCH;1515.0;YAW;1535.0;THROTTLE;1086.0;AUX1;1544.0;AUX2;1500.0;AUX3;1500.0;AUX4;1500.0
ALTITUDE;0.0
DEBUG;DEBUG10.0;DEBUG2;0.0;DEBUG3;0.0;DEBUG4;0.0
ATTITUDE;ANGX;7.0;ANGY;-2.0;HEAD;190.0
STATUS;CYCLETIME;2900;I2CERR;0;PRESENT;23;MODE;1
RAW_IMU;AX;38.0;AY;-4.0;AZ;252.0;GX;0.0;GY;0.0;GZ;-1.0;MAGX;16.0;MAGY;-104.0;MAGZ;84.0
MOT;0;1150.0;1;1150.0;2;1150.0;3;1150.0;4;0.0;5;0.0;6;0.0;7;0.0;
RC;ROLL;1496.0;PITCH;1515.0;YAW;1535.0;THROTTLE;1086.0;AUX1;1544.0;AUX2;1500.0;AUX3;1500.0;AUX4;1500.0
ALTITUDE;0.0
DEBUG;DEBUG10.0;DEBUG2;0.0;DEBUG3;0.0;DEBUG4;0.0
ATTITUDE;ANGX;7.0;ANGY;-2.0;HEAD;190.0
STATUS;CYCLETIME;3008;I2CERR;0;PRESENT;23;MODE;1
RAW_IMU;AX;39.0;AY;-3.0;AZ;253.0;GX;0.0;GY;0.0;GZ;-1.0;MAGX;16.0;MAGY;-104.0;MAGZ;84.0
MOT;0;1150.0;1;1150.0;2;1150.0;3;1150.0;4;0.0;5;0.0;6;0.0;7;0.0;
RC;ROLL;1496.0;PITCH;1515.0;YAW;1535.0;THROTTLE;1086.0;AUX1;1544.0;AUX2;1500.0;AUX3;1500.0;AUX4;1500.0
ALTITUDE;0.0
DEBUG;DEBUG10.0;DEBUG2;0.0;DEBUG3;0.0;DEBUG4;0.0
ATTITUDE;ANGX;7.0;ANGY;-2.0;HEAD;190.0
