IDENT;V;220;TYPE;3
MSP_MOTOR_PINS
STATUS;CYCLETIME;2820;I2CERR;0;PRESENT;23;MODE;2
RAW_IMU;AX;4.0;AY;0.0;AZ;254.0;GX;0.0;GY;0.0;GZ;0.0;MAGX;4.0;MAGY;-56.0;MAGZ;-6.0
MOT;0;1000.0;1;1000.0;2;1000.0;3;1000.0;4;0.0;5;0.0;6;0.0;7;0.0;
RC;ROLL;1542.0;PITCH;1504.0;YAW;1491.0;THROTTLE;1063.0;AUX1;1534.0;AUX2;1500.0;AUX3;1500.0;AUX4;1500.0
ALTITUDE;20.0
DEBUG;DEBUG120.0;DEBUG2;190.0;DEBUG3;109.0;DEBUG4;0.0
ATTITUDE;ANGX;1.0;ANGY;0.0;HEAD;-165.0
STATUS;CYCLETIME;2996;I2CERR;0;PRESENT;23;MODE;2
RAW_IMU;AX;3.0;AY;0.0;AZ;255.0;GX;0.0;GY;0.0;GZ;0.0;MAGX;4.0;MAGY;-56.0;MAGZ;-6.0
MOT;0;1000.0;1;1000.0;2;1000.0;3;1000.0;4;0.0;5;0.0;6;0.0;7;0.0;
RC;ROLL;1542.0;PITCH;1504.0;YAW;1491.0;THROTTLE;1061.0;AUX1;1534.0;AUX2;1500.0;AUX3;1500.0;AUX4;1500.0
ALTITUDE;20.0
DEBUG;DEBUG120.0;DEBUG2;190.0;DEBUG3;109.0;DEBUG4;0.0
ATTITUDE;ANGX;1.0;ANGY;0.0;HEAD;-165.0
STATUS;CYCLETIME;2736;I2CERR;0;PRESENT;23;MODE;2
RAW_IMU;AX;3.0;AY;1.0;AZ;255.0;GX;0.0;GY;0.0;GZ;0.0;MAGX;3.0;MAGY;-55.0;MAGZ;-6.0
MOT;0;1000.0;1;1000.0;2;1000.0;3;1000.0;4;0.0;5;0.0;6;0.0;7;0.0;
RC;ROLL;1540.0;PITCH;1499.0;YAW;1489.0;THROTTLE;1071.0;AUX1;1534.0;AUX2;1500.0;AUX3;1500.0;AUX4;1500.0
ALTITUDE;20.0
DEBUG;DEBUG120.0;DEBUG2;190.0;DEBUG3;109.0;DEBUG4;0.0
ATTITUDE;ANGX;1.0;ANGY;0.0;HEAD;-165.0
STATUS;CYCLETIME;2800;I2CERR;0;PRESENT;23;MODE;2
RAW_IMU;AX;3.0;AY;1.0;AZ;255.0;GX;0.0;GY;0.0;GZ;0.0;MAGX;3.0;MAGY;-55.0;MAGZ;-6.0
MOT;0;1000.0;1;1000.0;2;1000.0;3;1000.0;4;0.0;5;0.0;6;0.0;7;0.0;
RC;ROLL;1540.0;PITCH;1487.0;YAW;1489.0;THROTTLE;1072.0;AUX1;1532.0;AUX2;1500.0;AUX3;1500.0;AUX4;1500.0
ALTITUDE;20.0
DEBUG;DEBUG120.0;DEBUG2;190.0;DEBUG3;109.0;DEBUG4;0.0
ATTITUDE;ANGX;1.0;ANGY;0.0;HEAD;-165.0
STATUS;CYCLETIME;2808;I2CERR;0;PRESENT;23;MODE;2
RAW_IMU;AX;3.0;AY;1.0;AZ;255.0;GX;0.0;GY;0.0;GZ;0.0;MAGX;3.0;MAGY;-56.0;MAGZ;-7.0
MOT;0;1000.0;1;1000.0;2;1000.0;3;1000.0;4;0.0;5;0.0;6;0.0;7;0.0;
RC;ROLL;1533.0;PITCH;1493.0;YAW;1489.0;THROTTLE;1067.0;AUX1;1532.0;AUX2;1500.0;AUX3;1500.0;AUX4;1500.0
ALTITUDE;20.0
DEBUG;DEBUG120.0;DEBUG2;190.0;DEBUG3;109.0;DEBUG4;0.0
ATTITUDE;ANGX;1.0;ANGY;0.0;HEAD;-165.0
STATUS;CYCLETIME;2776;I2CERR;0;PRESENT;23;MODE;2
RAW_IMU;AX;3.0;AY;1.0;AZ;255.0;GX;0.0;GY;0.0;GZ;0.0;MAGX;3.0;MAGY;-56.0;MAGZ;-7.0
MOT;0;1000.0;1;1000.0;2;1000.0;3;1000.0;4;0.0;5;0.0;6;0.0;7;0.0;
RC;ROLL;1534.0;PITCH;1502.0;YAW;1485.0;THROTTLE;1060.0;AUX1;1535.0;AUX2;1500.0;AUX3;1500.0;AUX4;1500.0
ALTITUDE;20.0
DEBUG;DEBUG120.0;DEBUG2;190.0;DEBUG3;109.0;DEBUG4;0.0
ATTITUDE;ANGX;1.0;ANGY;0.0;HEAD;-165.0
STATUS;CYCLETIME;2772;I2CERR;0;PRESENT;23;MODE;2
RAW_IMU;AX;3.0;AY;1.0;AZ;255.0;GX;0.0;GY;0.0;GZ;0.0;MAGX;2.0;MAGY;-57.0;MAGZ;-6.0
MOT;0;1000.0;1;1000.0;2;1000.0;3;1000.0;4;0.0;5;0.0;6;0.0;7;0.0;
RC;ROLL;1536.0;PITCH;1502.0;YAW;1485.0;THROTTLE;1064.0;AUX1;1535.0;AUX2;1500.0;AUX3;1500.0;AUX4;1500.0
ALTITUDE;20.0
DEBUG;DEBUG120.0;DEBUG2;190.0;DEBUG3;109.0;DEBUG4;0.0
ATTITUDE;ANGX;1.0;ANGY;0.0;HEAD;-165.0
STATUS;CYCLETIME;2796;I2CERR;0;PRESENT;23;MODE;2
RAW_IMU;AX;3.0;AY;1.0;AZ;254.0;GX;0.0;GY;0.0;GZ;0.0;MAGX;2.0;MAGY;-57.0;MAGZ;-6.0
MOT;0;1000.0;1;1000.0;2;1000.0;3;1000.0;4;0.0;5;0.0;6;0.0;7;0.0;
RC;ROLL;1534.0;PITCH;1502.0;YAW;1472.0;THROTTLE;1076.0;AUX1;1535.0;AUX2;1500.0;AUX3;1500.0;AUX4;1500.0
ALTITUDE;20.0
DEBUG;DEBUG120.0;DEBUG2;190.0;DEBUG3;109.0;DEBUG4;0.0
ATTITUDE;ANGX;1.0;ANGY;0.0;HEAD;-165.0
STATUS;CYCLETIME;2748;I2CERR;0;PRESENT;23;MODE;2
RAW_IMU;AX;4.0;AY;1.0;AZ;255.0;GX;0.0;GY;0.0;GZ;0.0;MAGX;2.0;MAGY;-56.0;MAGZ;-6.0
MOT;0;1000.0;1;1000.0;2;1000.0;3;1000.0;4;0.0;5;0.0;6;0.0;7;0.0;
RC;ROLL;1528.0;PITCH;1518.0;YAW;1470.0;THROTTLE;1075.0;AUX1;1531.0;AUX2;1500.0;AUX3;1500.0;AUX4;1500.0
ALTITUDE;20.0
DEBUG;DEBUG120.0;DEBUG2;190.0;DEBUG3;109.0;DEBUG4;0.0
ATTITUDE;ANGX;1.0;ANGY;0.0;HEAD;-165.0
STATUS;CYCLETIME;2820;I2CERR;0;PRESENT;23;MODE;2
RAW_IMU;AX;5.0;AY;1.0;AZ;255.0;GX;0.0;GY;0.0;GZ;0.0;MAGX;2.0;MAGY;-56.0;MAGZ;-6.0
MOT;0;1000.0;1;1000.0;2;1000.0;3;1000.0;4;0.0;5;0.0;6;0.0;7;0.0;
RC;ROLL;1528.0;PITCH;1521.0;YAW;1475.0;THROTTLE;1067.0;AUX1;1534.0;AUX2;1500.0;AUX3;1500.0;AUX4;1500.0
ALTITUDE;20.0
DEBUG;DEBUG120.0;DEBUG2;190.0;DEBUG3;109.0;DEBUG4;0.0
ATTITUDE;ANGX;1.0;ANGY;0.0;HEAD;-165.0
STATUS;CYCLETIME;2780;I2CERR;0;PRESENT;23;MODE;2
RAW_IMU;AX;4.0;AY;1.0;AZ;255.0;GX;0.0;GY;0.0;GZ;0.0;MAGX;3.0;MAGY;-56.0;MAGZ;-6.0
MOT;0;1000.0;1;1000.0;2;1000.0;3;1000.0;4;0.0;5;0.0;6;0.0;7;0.0;
RC;ROLL;1539.0;PITCH;1504.0;YAW;1483.0;THROTTLE;1067.0;AUX1;1537.0;AUX2;1500.0;AUX3;1500.0;AUX4;1500.0
ALTITUDE;20.0
DEBUG;DEBUG120.0;DEBUG2;190.0;DEBUG3;109.0;DEBUG4;0.0
ATTITUDE;ANGX;1.0;ANGY;0.0;HEAD;-165.0
STATUS;CYCLETIME;2744;I2CERR;0;PRESENT;23;MODE;2
RAW_IMU;AX;4.0;AY;0.0;AZ;255.0;GX;0.0;GY;0.0;GZ;0.0;MAGX;3.0;MAGY;-56.0;MAGZ;-6.0
MOT;0;1000.0;1;1000.0;2;1000.0;3;1000.0;4;0.0;5;0.0;6;0.0;7;0.0;
RC;ROLL;1536.0;PITCH;1504.0;YAW;1489.0;THROTTLE;1067.0;AUX1;1531.0;AUX2;1500.0;AUX3;1500.0;AUX4;1500.0
ALTITUDE;20.0
DEBUG;DEBUG120.0;DEBUG2;190.0;DEBUG3;109.0;DEBUG4;0.0
ATTITUDE;ANGX;1.0;ANGY;0.0;HEAD;-165.0
STATUS;CYCLETIME;2728;I2CERR;0;PRESENT;23;MODE;2
RAW_IMU;AX;4.0;AY;0.0;AZ;255.0;GX;0.0;GY;0.0;GZ;0.0;MAGX;3.0;MAGY;-56.0;MAGZ;-6.0
MOT;0;1000.0;1;1000.0;2;1000.0;3;1000.0;4;0.0;5;0.0;6;0.0;7;0.0;
RC;ROLL;1536.0;PITCH;1502.0;YAW;1486.0;THROTTLE;1067.0;AUX1;1534.0;AUX2;1500.0;AUX3;1500.0;AUX4;1500.0
ALTITUDE;20.0
DEBUG;DEBUG120.0;DEBUG2;190.0;DEBUG3;109.0;DEBUG4;0.0
ATTITUDE;ANGX;1.0;ANGY;0.0;HEAD;-165.0
STATUS;CYCLETIME;2740;I2CERR;0;PRESENT;23;MODE;2
RAW_IMU;AX;4.0;AY;0.0;AZ;255.0;GX;0.0;GY;0.0;GZ;0.0;MAGX;3.0;MAGY;-56.0;MAGZ;-6.0
MOT;0;1000.0;1;1000.0;2;1000.0;3;1000.0;4;0.0;5;0.0;6;0.0;7;0.0;
RC;ROLL;1531.0;PITCH;1502.0;YAW;1483.0;THROTTLE;1067.0;AUX1;1536.0;AUX2;1500.0;AUX3;1500.0;AUX4;1500.0
ALTITUDE;20.0
DEBUG;DEBUG120.0;DEBUG2;190.0;DEBUG3;109.0;DEBUG4;0.0
ATTITUDE;ANGX;1.0;ANGY;0.0;HEAD;-165.0
STATUS;CYCLETIME;2824;I2CERR;0;PRESENT;23;MODE;2
RAW_IMU;AX;4.0;AY;1.0;AZ;255.0;GX;0.0;GY;0.0;GZ;0.0;MAGX;3.0;MAGY;-56.0;MAGZ;-6.0
MOT;0;1000.0;1;1000.0;2;1000.0;3;1000.0;4;0.0;5;0.0;6;0.0;7;0.0;
RC;ROLL;1537.0;PITCH;1505.0;YAW;1483.0;THROTTLE;1067.0;AUX1;1536.0;AUX2;1500.0;AUX3;1500.0;AUX4;1500.0
ALTITUDE;20.0
DEBUG;DEBUG120.0;DEBUG2;190.0;DEBUG3;77.0;DEBUG4;0.0
ATTITUDE;ANGX;1.0;ANGY;0.0;HEAD;-165.0
STATUS;CYCLETIME;2748;I2CERR;0;PRESENT;23;MODE;2
RAW_IMU;AX;4.0;AY;0.0;AZ;255.0;GX;0.0;GY;0.0;GZ;0.0;MAGX;3.0;MAGY;-56.0;MAGZ;-6.0
MOT;0;1000.0;1;1000.0;2;1000.0;3;1000.0;4;0.0;5;0.0;6;0.0;7;0.0;
RC;ROLL;1537.0;PITCH;1505.0;YAW;1483.0;THROTTLE;1067.0;AUX1;1534.0;AUX2;1500.0;AUX3;1500.0;AUX4;1500.0
ALTITUDE;20.0
DEBUG;DEBUG120.0;DEBUG2;190.0;DEBUG3;77.0;DEBUG4;0.0
ATTITUDE;ANGX;1.0;ANGY;0.0;HEAD;-165.0
STATUS;CYCLETIME;3016;I2CERR;0;PRESENT;23;MODE;2
RAW_IMU;AX;4.0;AY;1.0;AZ;254.0;GX;0.0;GY;0.0;GZ;0.0;MAGX;3.0;MAGY;-57.0;MAGZ;-6.0
MOT;0;1000.0;1;1000.0;2;1000.0;3;1000.0;4;0.0;5;0.0;6;0.0;7;0.0;
RC;ROLL;1537.0;PITCH;1505.0;YAW;1483.0;THROTTLE;1065.0;AUX1;1534.0;AUX2;1500.0;AUX3;1500.0;AUX4;1500.0
ALTITUDE;20.0
DEBUG;DEBUG120.0;DEBUG2;190.0;DEBUG3;77.0;DEBUG4;0.0
ATTITUDE;ANGX;1.0;ANGY;0.0;HEAD;-165.0
STATUS;CYCLETIME;2780;I2CERR;0;PRESENT;23;MODE;2
RAW_IMU;AX;4.0;AY;0.0;AZ;255.0;GX;0.0;GY;0.0;GZ;0.0;MAGX;3.0;MAGY;-57.0;MAGZ;-6.0
MOT;0;1000.0;1;1000.0;2;1000.0;3;1000.0;4;0.0;5;0.0;6;0.0;7;0.0;
RC;ROLL;1537.0;PITCH;1505.0;YAW;1483.0;THROTTLE;1067.0;AUX1;1534.0;AUX2;1500.0;AUX3;1500.0;AUX4;1500.0
ALTITUDE;20.0
DEBUG;DEBUG120.0;DEBUG2;190.0;DEBUG3;77.0;DEBUG4;0.0
ATTITUDE;ANGX;1.0;ANGY;0.0;HEAD;-165.0
STATUS;CYCLETIME;3056;I2CERR;0;PRESENT;23;MODE;2
RAW_IMU;AX;4.0;AY;1.0;AZ;255.0;GX;0.0;GY;0.0;GZ;0.0;MAGX;3.0;MAGY;-56.0;MAGZ;-5.0
MOT;0;1000.0;1;1000.0;2;1000.0;3;1000.0;4;0.0;5;0.0;6;0.0;7;0.0;
RC;ROLL;1537.0;PITCH;1503.0;YAW;1483.0;THROTTLE;1067.0;AUX1;1534.0;AUX2;1500.0;AUX3;1500.0;AUX4;1500.0
ALTITUDE;20.0
DEBUG;DEBUG120.0;DEBUG2;190.0;DEBUG3;77.0;DEBUG4;0.0
ATTITUDE;ANGX;1.0;ANGY;0.0;HEAD;-165.0
STATUS;CYCLETIME;2744;I2CERR;0;PRESENT;23;MODE;2
RAW_IMU;AX;4.0;AY;1.0;AZ;254.0;GX;0.0;GY;0.0;GZ;0.0;MAGX;3.0;MAGY;-56.0;MAGZ;-5.0
MOT;0;1000.0;1;1000.0;2;1000.0;3;1000.0;4;0.0;5;0.0;6;0.0;7;0.0;
RC;ROLL;1537.0;PITCH;1501.0;YAW;1485.0;THROTTLE;1063.0;AUX1;1534.0;AUX2;1500.0;AUX3;1500.0;AUX4;1500.0
ALTITUDE;20.0
DEBUG;DEBUG120.0;DEBUG2;190.0;DEBUG3;77.0;DEBUG4;0.0
ATTITUDE;ANGX;1.0;ANGY;0.0;HEAD;-165.0
STATUS;CYCLETIME;2780;I2CERR;0;PRESENT;23;MODE;2
RAW_IMU;AX;4.0;AY;1.0;AZ;255.0;GX;0.0;GY;0.0;GZ;0.0;MAGX;3.0;MAGY;-55.0;MAGZ;-6.0
MOT;0;1000.0;1;1000.0;2;1000.0;3;1000.0;4;0.0;5;0.0;6;0.0;7;0.0;
RC;ROLL;1537.0;PITCH;1501.0;YAW;1485.0;THROTTLE;1067.0;AUX1;1534.0;AUX2;1500.0;AUX3;1500.0;AUX4;1500.0
ALTITUDE;20.0
DEBUG;DEBUG120.0;DEBUG2;190.0;DEBUG3;77.0;DEBUG4;0.0
ATTITUDE;ANGX;1.0;ANGY;0.0;HEAD;-165.0
STATUS;CYCLETIME;2744;I2CERR;0;PRESENT;23;MODE;2
RAW_IMU;AX;4.0;AY;1.0;AZ;255.0;GX;0.0;GY;0.0;GZ;0.0;MAGX;3.0;MAGY;-55.0;MAGZ;-6.0
MOT;0;1000.0;1;1000.0;2;1000.0;3;1000.0;4;0.0;5;0.0;6;0.0;7;0.0;
RC;ROLL;1539.0;PITCH;1499.0;YAW;1485.0;THROTTLE;1067.0;AUX1;1534.0;AUX2;1500.0;AUX3;1500.0;AUX4;1500.0
ALTITUDE;20.0
DEBUG;DEBUG120.0;DEBUG2;190.0;DEBUG3;77.0;DEBUG4;0.0
ATTITUDE;ANGX;1.0;ANGY;0.0;HEAD;-165.0
STATUS;CYCLETIME;2768;I2CERR;0;PRESENT;23;MODE;2
RAW_IMU;AX;4.0;AY;1.0;AZ;255.0;GX;0.0;GY;0.0;GZ;0.0;MAGX;3.0;MAGY;-56.0;MAGZ;-5.0
MOT;0;1000.0;1;1000.0;2;1000.0;3;1000.0;4;0.0;5;0.0;6;0.0;7;0.0;
RC;ROLL;1539.0;PITCH;1501.0;YAW;1485.0;THROTTLE;1067.0;AUX1;1532.0;AUX2;1500.0;AUX3;1500.0;AUX4;1500.0
ALTITUDE;20.0
DEBUG;DEBUG120.0;DEBUG2;190.0;DEBUG3;77.0;DEBUG4;0.0
ATTITUDE;ANGX;1.0;ANGY;0.0;HEAD;-165.0
STATUS;CYCLETIME;2744;I2CERR;0;PRESENT;23;MODE;2
RAW_IMU;AX;4.0;AY;1.0;AZ;255.0;GX;0.0;GY;0.0;GZ;0.0;MAGX;3.0;MAGY;-56.0;MAGZ;-5.0
MOT;0;1000.0;1;1000.0;2;1000.0;3;1000.0;4;0.0;5;0.0;6;0.0;7;0.0;
RC;ROLL;1539.0;PITCH;1501.0;YAW;1485.0;THROTTLE;1067.0;AUX1;1532.0;AUX2;1500.0;AUX3;1500.0;AUX4;1500.0
ALTITUDE;20.0
DEBUG;DEBUG120.0;DEBUG2;190.0;DEBUG3;77.0;DEBUG4;0.0
ATTITUDE;ANGX;1.0;ANGY;0.0;HEAD;-165.0
STATUS;CYCLETIME;2836;I2CERR;0;PRESENT;23;MODE;2
RAW_IMU;AX;4.0;AY;1.0;AZ;255.0;GX;0.0;GY;0.0;GZ;0.0;MAGX;3.0;MAGY;-56.0;MAGZ;-5.0
MOT;0;1000.0;1;1000.0;2;1000.0;3;1000.0;4;0.0;5;0.0;6;0.0;7;0.0;
RC;ROLL;1539.0;PITCH;1501.0;YAW;1485.0;THROTTLE;1069.0;AUX1;1534.0;AUX2;1500.0;AUX3;1500.0;AUX4;1500.0
ALTITUDE;20.0
DEBUG;DEBUG120.0;DEBUG2;190.0;DEBUG3;77.0;DEBUG4;0.0
ATTITUDE;ANGX;1.0;ANGY;0.0;HEAD;-165.0
STATUS;CYCLETIME;2776;I2CERR;0;PRESENT;23;MODE;2
RAW_IMU;AX;4.0;AY;1.0;AZ;255.0;GX;0.0;GY;0.0;GZ;0.0;MAGX;3.0;MAGY;-56.0;MAGZ;-7.0
MOT;0;1000.0;1;1000.0;2;1000.0;3;1000.0;4;0.0;5;0.0;6;0.0;7;0.0;
RC;ROLL;1539.0;PITCH;1493.0;YAW;1485.0;THROTTLE;1077.0;AUX1;1534.0;AUX2;1500.0;AUX3;1500.0;AUX4;1500.0
ALTITUDE;20.0
DEBUG;DEBUG120.0;DEBUG2;190.0;DEBUG3;77.0;DEBUG4;0.0
ATTITUDE;ANGX;1.0;ANGY;0.0;HEAD;-165.0
STATUS;CYCLETIME;2768;I2CERR;0;PRESENT;23;MODE;2
RAW_IMU;AX;4.0;AY;1.0;AZ;255.0;GX;0.0;GY;0.0;GZ;0.0;MAGX;3.0;MAGY;-56.0;MAGZ;-7.0
MOT;0;1000.0;1;1000.0;2;1000.0;3;1000.0;4;0.0;5;0.0;6;0.0;7;0.0;
RC;ROLL;1537.0;PITCH;1499.0;YAW;1491.0;THROTTLE;1070.0;AUX1;1537.0;AUX2;1500.0;AUX3;1500.0;AUX4;1500.0
ALTITUDE;20.0
DEBUG;DEBUG120.0;DEBUG2;190.0;DEBUG3;77.0;DEBUG4;0.0
ATTITUDE;ANGX;1.0;ANGY;0.0;HEAD;-165.0
STATUS;CYCLETIME;2844;I2CERR;0;PRESENT;23;MODE;2
RAW_IMU;AX;4.0;AY;1.0;AZ;255.0;GX;0.0;GY;0.0;GZ;0.0;MAGX;3.0;MAGY;-55.0;MAGZ;-6.0
MOT;0;1000.0;1;1000.0;2;1000.0;3;1000.0;4;0.0;5;0.0;6;0.0;7;0.0;
RC;ROLL;1528.0;PITCH;1514.0;YAW;1489.0;THROTTLE;1070.0;AUX1;1516.0;AUX2;1500.0;AUX3;1500.0;AUX4;1500.0
ALTITUDE;20.0
DEBUG;DEBUG120.0;DEBUG2;190.0;DEBUG3;77.0;DEBUG4;0.0
ATTITUDE;ANGX;1.0;ANGY;0.0;HEAD;-165.0
STATUS;CYCLETIME;2928;I2CERR;0;PRESENT;23;MODE;2
RAW_IMU;AX;4.0;AY;1.0;AZ;255.0;GX;0.0;GY;0.0;GZ;0.0;MAGX;3.0;MAGY;-55.0;MAGZ;-6.0
MOT;0;1000.0;1;1000.0;2;1000.0;3;1000.0;4;0.0;5;0.0;6;0.0;7;0.0;
RC;ROLL;1538.0;PITCH;1512.0;YAW;1479.0;THROTTLE;1070.0;AUX1;1529.0;AUX2;1500.0;AUX3;1500.0;AUX4;1500.0
ALTITUDE;20.0
DEBUG;DEBUG120.0;DEBUG2;190.0;DEBUG3;77.0;DEBUG4;0.0
ATTITUDE;ANGX;1.0;ANGY;0.0;HEAD;-165.0
STATUS;CYCLETIME;2716;I2CERR;0;PRESENT;23;MODE;2
RAW_IMU;AX;4.0;AY;1.0;AZ;255.0;GX;0.0;GY;0.0;GZ;0.0;MAGX;2.0;MAGY;-56.0;MAGZ;-5.0
MOT;0;1000.0;1;1000.0;2;1000.0;3;1000.0;4;0.0;5;0.0;6;0.0;7;0.0;
RC;ROLL;1543.0;PITCH;1506.0;YAW;1485.0;THROTTLE;1063.0;AUX1;1537.0;AUX2;1500.0;AUX3;1500.0;AUX4;1500.0
ALTITUDE;20.0
DEBUG;DEBUG120.0;DEBUG2;190.0;DEBUG3;77.0;DEBUG4;0.0
ATTITUDE;ANGX;1.0;ANGY;0.0;HEAD;-165.0
STATUS;CYCLETIME;2872;I2CERR;0;PRESENT;23;MODE;2
RAW_IMU;AX;4.0;AY;1.0;AZ;255.0;GX;0.0;GY;0.0;GZ;0.0;MAGX;2.0;MAGY;-56.0;MAGZ;-5.0
MOT;0;1000.0;1;1000.0;2;1000.0;3;1000.0;4;0.0;5;0.0;6;0.0;7;0.0;
RC;ROLL;1533.0;PITCH;1516.0;YAW;1497.0;THROTTLE;1056.0;AUX1;1527.0;AUX2;1500.0;AUX3;1500.0;AUX4;1500.0
ALTITUDE;20.0
DEBUG;DEBUG120.0;DEBUG2;183.0;DEBUG3;77.0;DEBUG4;0.0
ATTITUDE;ANGX;1.0;ANGY;0.0;HEAD;-165.0
STATUS;CYCLETIME;3004;I2CERR;0;PRESENT;23;MODE;2
RAW_IMU;AX;4.0;AY;1.0;AZ;255.0;GX;0.0;GY;0.0;GZ;0.0;MAGX;3.0;MAGY;-55.0;MAGZ;-6.0
MOT;0;1000.0;1;1000.0;2;1000.0;3;1000.0;4;0.0;5;0.0;6;0.0;7;0.0;
RC;ROLL;1548.0;PITCH;1504.0;YAW;1489.0;THROTTLE;1071.0;AUX1;1527.0;AUX2;1500.0;AUX3;1500.0;AUX4;1500.0
ALTITUDE;20.0
DEBUG;DEBUG120.0;DEBUG2;183.0;DEBUG3;77.0;DEBUG4;0.0
ATTITUDE;ANGX;1.0;ANGY;0.0;HEAD;-165.0
STATUS;CYCLETIME;2824;I2CERR;0;PRESENT;23;MODE;2
RAW_IMU;AX;4.0;AY;1.0;AZ;255.0;GX;0.0;GY;0.0;GZ;0.0;MAGX;3.0;MAGY;-55.0;MAGZ;-6.0
MOT;0;1000.0;1;1000.0;2;1000.0;3;1000.0;4;0.0;5;0.0;6;0.0;7;0.0;
RC;ROLL;1549.0;PITCH;1495.0;YAW;1496.0;THROTTLE;1067.0;AUX1;1527.0;AUX2;1500.0;AUX3;1500.0;AUX4;1500.0
ALTITUDE;20.0
DEBUG;DEBUG120.0;DEBUG2;183.0;DEBUG3;57.0;DEBUG4;0.0
ATTITUDE;ANGX;1.0;ANGY;0.0;HEAD;-165.0
STATUS;CYCLETIME;2812;I2CERR;0;PRESENT;23;MODE;2
RAW_IMU;AX;4.0;AY;1.0;AZ;255.0;GX;0.0;GY;0.0;GZ;0.0;MAGX;3.0;MAGY;-55.0;MAGZ;-5.0
MOT;0;1000.0;1;1000.0;2;1000.0;3;1000.0;4;0.0;5;0.0;6;0.0;7;0.0;
RC;ROLL;1542.0;PITCH;1501.0;YAW;1496.0;THROTTLE;1067.0;AUX1;1532.0;AUX2;1500.0;AUX3;1500.0;AUX4;1500.0
ALTITUDE;20.0
DEBUG;DEBUG120.0;DEBUG2;183.0;DEBUG3;57.0;DEBUG4;0.0
ATTITUDE;ANGX;1.0;ANGY;0.0;HEAD;-165.0
STATUS;CYCLETIME;2756;I2CERR;0;PRESENT;23;MODE;2
RAW_IMU;AX;4.0;AY;1.0;AZ;255.0;GX;0.0;GY;0.0;GZ;0.0;MAGX;3.0;MAGY;-55.0;MAGZ;-5.0
MOT;0;1000.0;1;1000.0;2;1000.0;3;1000.0;4;0.0;5;0.0;6;0.0;7;0.0;
RC;ROLL;1538.0;PITCH;1503.0;YAW;1496.0;THROTTLE;1069.0;AUX1;1532.0;AUX2;1500.0;AUX3;1500.0;AUX4;1500.0
ALTITUDE;20.0
DEBUG;DEBUG120.0;DEBUG2;183.0;DEBUG3;57.0;DEBUG4;0.0
ATTITUDE;ANGX;1.0;ANGY;0.0;HEAD;-165.0
STATUS;CYCLETIME;2744;I2CERR;0;PRESENT;23;MODE;2
RAW_IMU;AX;4.0;AY;1.0;AZ;255.0;GX;0.0;GY;0.0;GZ;0.0;MAGX;3.0;MAGY;-56.0;MAGZ;-6.0
MOT;0;1000.0;1;1000.0;2;1000.0;3;1000.0;4;0.0;5;0.0;6;0.0;7;0.0;
RC;ROLL;1541.0;PITCH;1503.0;YAW;1486.0;THROTTLE;1069.0;AUX1;1532.0;AUX2;1500.0;AUX3;1500.0;AUX4;1500.0
ALTITUDE;20.0
DEBUG;DEBUG120.0;DEBUG2;183.0;DEBUG3;57.0;DEBUG4;0.0
ATTITUDE;ANGX;1.0;ANGY;0.0;HEAD;-165.0
STATUS;CYCLETIME;2860;I2CERR;0;PRESENT;23;MODE;2
RAW_IMU;AX;5.0;AY;0.0;AZ;255.0;GX;0.0;GY;0.0;GZ;0.0;MAGX;3.0;MAGY;-56.0;MAGZ;-6.0
MOT;0;1000.0;1;1000.0;2;1000.0;3;1000.0;4;0.0;5;0.0;6;0.0;7;0.0;
RC;ROLL;1541.0;PITCH;1497.0;YAW;1486.0;THROTTLE;1069.0;AUX1;1530.0;AUX2;1500.0;AUX3;1500.0;AUX4;1500.0
ALTITUDE;20.0
DEBUG;DEBUG120.0;DEBUG2;183.0;DEBUG3;57.0;DEBUG4;0.0
ATTITUDE;ANGX;1.0;ANGY;0.0;HEAD;-165.0
STATUS;CYCLETIME;2792;I2CERR;0;PRESENT;23;MODE;2
RAW_IMU;AX;5.0;AY;1.0;AZ;254.0;GX;0.0;GY;0.0;GZ;0.0;MAGX;3.0;MAGY;-56.0;MAGZ;-5.0
MOT;0;1000.0;1;1000.0;2;1000.0;3;1000.0;4;0.0;5;0.0;6;0.0;7;0.0;
RC;ROLL;1537.0;PITCH;1499.0;YAW;1489.0;THROTTLE;1069.0;AUX1;1530.0;AUX2;1500.0;AUX3;1500.0;AUX4;1500.0
ALTITUDE;20.0
DEBUG;DEBUG120.0;DEBUG2;183.0;DEBUG3;57.0;DEBUG4;0.0
ATTITUDE;ANGX;1.0;ANGY;0.0;HEAD;-165.0
STATUS;CYCLETIME;2748;I2CERR;0;PRESENT;23;MODE;2
RAW_IMU;AX;5.0;AY;1.0;AZ;255.0;GX;0.0;GY;0.0;GZ;0.0;MAGX;3.0;MAGY;-56.0;MAGZ;-5.0
MOT;0;1000.0;1;1000.0;2;1000.0;3;1000.0;4;0.0;5;0.0;6;0.0;7;0.0;
RC;ROLL;1537.0;PITCH;1499.0;YAW;1485.0;THROTTLE;1073.0;AUX1;1535.0;AUX2;1500.0;AUX3;1500.0;AUX4;1500.0
ALTITUDE;20.0
DEBUG;DEBUG120.0;DEBUG2;183.0;DEBUG3;68.0;DEBUG4;0.0
ATTITUDE;ANGX;1.0;ANGY;0.0;HEAD;-165.0
STATUS;CYCLETIME;2848;I2CERR;0;PRESENT;23;MODE;2
RAW_IMU;AX;5.0;AY;1.0;AZ;254.0;GX;0.0;GY;0.0;GZ;0.0;MAGX;3.0;MAGY;-56.0;MAGZ;-6.0
MOT;0;1000.0;1;1000.0;2;1000.0;3;1000.0;4;0.0;5;0.0;6;0.0;7;0.0;
RC;ROLL;1537.0;PITCH;1499.0;YAW;1479.0;THROTTLE;1073.0;AUX1;1544.0;AUX2;1500.0;AUX3;1500.0;AUX4;1500.0
ALTITUDE;20.0
DEBUG;DEBUG120.0;DEBUG2;183.0;DEBUG3;68.0;DEBUG4;0.0
ATTITUDE;ANGX;1.0;ANGY;0.0;HEAD;-165.0
STATUS;CYCLETIME;3016;I2CERR;0;PRESENT;23;MODE;2
RAW_IMU;AX;4.0;AY;1.0;AZ;255.0;GX;0.0;GY;0.0;GZ;0.0;MAGX;3.0;MAGY;-56.0;MAGZ;-6.0
MOT;0;1000.0;1;1000.0;2;1000.0;3;1000.0;4;0.0;5;0.0;6;0.0;7;0.0;
RC;ROLL;1561.0;PITCH;1502.0;YAW;1483.0;THROTTLE;1073.0;AUX1;1540.0;AUX2;1500.0;AUX3;1500.0;AUX4;1500.0
ALTITUDE;20.0
DEBUG;DEBUG120.0;DEBUG2;183.0;DEBUG3;68.0;DEBUG4;0.0
ATTITUDE;ANGX;1.0;ANGY;0.0;HEAD;-165.0
STATUS;CYCLETIME;3024;I2CERR;0;PRESENT;23;MODE;2
RAW_IMU;AX;4.0;AY;1.0;AZ;255.0;GX;0.0;GY;0.0;GZ;0.0;MAGX;4.0;MAGY;-56.0;MAGZ;-6.0
MOT;0;1000.0;1;1000.0;2;1000.0;3;1000.0;4;0.0;5;0.0;6;0.0;7;0.0;
RC;ROLL;1561.0;PITCH;1502.0;YAW;1493.0;THROTTLE;1068.0;AUX1;1535.0;AUX2;1500.0;AUX3;1500.0;AUX4;1500.0
ALTITUDE;20.0
DEBUG;DEBUG120.0;DEBUG2;183.0;DEBUG3;68.0;DEBUG4;0.0
ATTITUDE;ANGX;1.0;ANGY;0.0;HEAD;-165.0
STATUS;CYCLETIME;2916;I2CERR;0;PRESENT;23;MODE;2
RAW_IMU;AX;4.0;AY;1.0;AZ;255.0;GX;0.0;GY;0.0;GZ;0.0;MAGX;4.0;MAGY;-56.0;MAGZ;-6.0
MOT;0;1000.0;1;1000.0;2;1000.0;3;1000.0;4;0.0;5;0.0;6;0.0;7;0.0;
RC;ROLL;1538.0;PITCH;1500.0;YAW;1485.0;THROTTLE;1068.0;AUX1;1535.0;AUX2;1500.0;AUX3;1500.0;AUX4;1500.0
ALTITUDE;20.0
DEBUG;DEBUG120.0;DEBUG2;183.0;DEBUG3;68.0;DEBUG4;0.0
ATTITUDE;ANGX;1.0;ANGY;0.0;HEAD;-165.0
STATUS;CYCLETIME;2748;I2CERR;0;PRESENT;23;MODE;2
RAW_IMU;AX;4.0;AY;1.0;AZ;255.0;GX;0.0;GY;0.0;GZ;0.0;MAGX;3.0;MAGY;-55.0;MAGZ;-6.0
MOT;0;1000.0;1;1000.0;2;1000.0;3;1000.0;4;0.0;5;0.0;6;0.0;7;0.0;
RC;ROLL;1538.0;PITCH;1500.0;YAW;1485.0;THROTTLE;1066.0;AUX1;1533.0;AUX2;1500.0;AUX3;1500.0;AUX4;1500.0
ALTITUDE;20.0
DEBUG;DEBUG120.0;DEBUG2;183.0;DEBUG3;68.0;DEBUG4;0.0
ATTITUDE;ANGX;1.0;ANGY;0.0;HEAD;-165.0
STATUS;CYCLETIME;2772;I2CERR;0;PRESENT;23;MODE;2
RAW_IMU;AX;4.0;AY;1.0;AZ;255.0;GX;0.0;GY;0.0;GZ;0.0;MAGX;3.0;MAGY;-55.0;MAGZ;-6.0
MOT;0;1000.0;1;1000.0;2;1000.0;3;1000.0;4;0.0;5;0.0;6;0.0;7;0.0;
RC;ROLL;1540.0;PITCH;1500.0;YAW;1485.0;THROTTLE;1064.0;AUX1;1533.0;AUX2;1500.0;AUX3;1500.0;AUX4;1500.0
ALTITUDE;20.0
DEBUG;DEBUG120.0;DEBUG2;183.0;DEBUG3;68.0;DEBUG4;0.0
ATTITUDE;ANGX;1.0;ANGY;0.0;HEAD;-165.0
STATUS;CYCLETIME;2648;I2CERR;0;PRESENT;23;MODE;2
RAW_IMU;AX;5.0;AY;1.0;AZ;255.0;GX;0.0;GY;0.0;GZ;0.0;MAGX;3.0;MAGY;-56.0;MAGZ;-6.0
MOT;0;1000.0;1;1000.0;2;1000.0;3;1000.0;4;0.0;5;0.0;6;0.0;7;0.0;
RC;ROLL;1536.0;PITCH;1503.0;YAW;1485.0;THROTTLE;1062.0;AUX1;1524.0;AUX2;1500.0;AUX3;1500.0;AUX4;1500.0
ALTITUDE;20.0
DEBUG;DEBUG120.0;DEBUG2;183.0;DEBUG3;68.0;DEBUG4;0.0
ATTITUDE;ANGX;1.0;ANGY;0.0;HEAD;-165.0
STATUS;CYCLETIME;2812;I2CERR;0;PRESENT;23;MODE;2
RAW_IMU;AX;5.0;AY;1.0;AZ;255.0;GX;0.0;GY;0.0;GZ;0.0;MAGX;3.0;MAGY;-56.0;MAGZ;-6.0
MOT;0;1000.0;1;1000.0;2;1000.0;3;1000.0;4;0.0;5;0.0;6;0.0;7;0.0;
RC;ROLL;1533.0;PITCH;1505.0;YAW;1485.0;THROTTLE;1062.0;AUX1;1527.0;AUX2;1500.0;AUX3;1500.0;AUX4;1500.0
ALTITUDE;20.0
DEBUG;DEBUG120.0;DEBUG2;183.0;DEBUG3;68.0;DEBUG4;0.0
ATTITUDE;ANGX;1.0;ANGY;0.0;HEAD;-165.0
STATUS;CYCLETIME;3020;I2CERR;0;PRESENT;23;MODE;2
RAW_IMU;AX;4.0;AY;1.0;AZ;255.0;GX;0.0;GY;0.0;GZ;0.0;MAGX;3.0;MAGY;-54.0;MAGZ;-6.0
MOT;0;1000.0;1;1000.0;2;1000.0;3;1000.0;4;0.0;5;0.0;6;0.0;7;0.0;
RC;ROLL;1530.0;PITCH;1507.0;YAW;1485.0;THROTTLE;1065.0;AUX1;1527.0;AUX2;1500.0;AUX3;1500.0;AUX4;1500.0
ALTITUDE;20.0
DEBUG;DEBUG120.0;DEBUG2;183.0;DEBUG3;68.0;DEBUG4;0.0
ATTITUDE;ANGX;1.0;ANGY;0.0;HEAD;-165.0
STATUS;CYCLETIME;2948;I2CERR;0;PRESENT;23;MODE;2
RAW_IMU;AX;4.0;AY;0.0;AZ;255.0;GX;0.0;GY;0.0;GZ;0.0;MAGX;3.0;MAGY;-54.0;MAGZ;-6.0
MOT;0;1000.0;1;1000.0;2;1000.0;3;1000.0;4;0.0;5;0.0;6;0.0;7;0.0;
RC;ROLL;1534.0;PITCH;1507.0;YAW;1493.0;THROTTLE;1065.0;AUX1;1531.0;AUX2;1500.0;AUX3;1500.0;AUX4;1500.0
ALTITUDE;20.0
DEBUG;DEBUG120.0;DEBUG2;184.0;DEBUG3;68.0;DEBUG4;0.0
ATTITUDE;ANGX;1.0;ANGY;0.0;HEAD;-165.0
STATUS;CYCLETIME;2992;I2CERR;0;PRESENT;23;MODE;2
RAW_IMU;AX;4.0;AY;1.0;AZ;255.0;GX;0.0;GY;0.0;GZ;0.0;MAGX;3.0;MAGY;-55.0;MAGZ;-6.0
MOT;0;1000.0;1;1000.0;2;1000.0;3;1000.0;4;0.0;5;0.0;6;0.0;7;0.0;
RC;ROLL;1542.0;PITCH;1495.0;YAW;1497.0;THROTTLE;1062.0;AUX1;1534.0;AUX2;1500.0;AUX3;1500.0;AUX4;1500.0
ALTITUDE;20.0
DEBUG;DEBUG120.0;DEBUG2;184.0;DEBUG3;68.0;DEBUG4;0.0
ATTITUDE;ANGX;1.0;ANGY;0.0;HEAD;-165.0
STATUS;CYCLETIME;2744;I2CERR;0;PRESENT;23;MODE;2
RAW_IMU;AX;4.0;AY;1.0;AZ;255.0;GX;0.0;GY;0.0;GZ;0.0;MAGX;3.0;MAGY;-55.0;MAGZ;-6.0
MOT;0;1000.0;1;1000.0;2;1000.0;3;1000.0;4;0.0;5;0.0;6;0.0;7;0.0;
RC;ROLL;1542.0;PITCH;1491.0;YAW;1489.0;THROTTLE;1073.0;AUX1;1536.0;AUX2;1500.0;AUX3;1500.0;AUX4;1500.0
ALTITUDE;20.0
DEBUG;DEBUG120.0;DEBUG2;184.0;DEBUG3;68.0;DEBUG4;0.0
ATTITUDE;ANGX;1.0;ANGY;0.0;HEAD;-165.0
STATUS;CYCLETIME;2748;I2CERR;0;PRESENT;23;MODE;2
RAW_IMU;AX;4.0;AY;1.0;AZ;255.0;GX;0.0;GY;0.0;GZ;0.0;MAGX;3.0;MAGY;-56.0;MAGZ;-5.0
MOT;0;1000.0;1;1000.0;2;1000.0;3;1000.0;4;0.0;5;0.0;6;0.0;7;0.0;
RC;ROLL;1542.0;PITCH;1496.0;YAW;1489.0;THROTTLE;1067.0;AUX1;1531.0;AUX2;1500.0;AUX3;1500.0;AUX4;1500.0
ALTITUDE;20.0
DEBUG;DEBUG120.0;DEBUG2;184.0;DEBUG3;68.0;DEBUG4;0.0
ATTITUDE;ANGX;1.0;ANGY;0.0;HEAD;-165.0
STATUS;CYCLETIME;2776;I2CERR;0;PRESENT;23;MODE;2
RAW_IMU;AX;4.0;AY;1.0;AZ;255.0;GX;0.0;GY;0.0;GZ;0.0;MAGX;3.0;MAGY;-56.0;MAGZ;-5.0
MOT;0;1000.0;1;1000.0;2;1000.0;3;1000.0;4;0.0;5;0.0;6;0.0;7;0.0;
RC;ROLL;1537.0;PITCH;1496.0;YAW;1485.0;THROTTLE;1067.0;AUX1;1537.0;AUX2;1500.0;AUX3;1500.0;AUX4;1500.0
ALTITUDE;20.0
DEBUG;DEBUG120.0;DEBUG2;184.0;DEBUG3;68.0;DEBUG4;0.0
ATTITUDE;ANGX;1.0;ANGY;0.0;HEAD;-165.0
STATUS;CYCLETIME;2736;I2CERR;0;PRESENT;23;MODE;2
RAW_IMU;AX;4.0;AY;1.0;AZ;255.0;GX;0.0;GY;0.0;GZ;0.0;MAGX;3.0;MAGY;-56.0;MAGZ;-5.0
MOT;0;1000.0;1;1000.0;2;1000.0;3;1000.0;4;0.0;5;0.0;6;0.0;7;0.0;
RC;ROLL;1535.0;PITCH;1500.0;YAW;1480.0;THROTTLE;1069.0;AUX1;1540.0;AUX2;1500.0;AUX3;1500.0;AUX4;1500.0
ALTITUDE;20.0
DEBUG;DEBUG120.0;DEBUG2;184.0;DEBUG3;68.0;DEBUG4;0.0
ATTITUDE;ANGX;1.0;ANGY;0.0;HEAD;-165.0
STATUS;CYCLETIME;2856;I2CERR;0;PRESENT;23;MODE;2
RAW_IMU;AX;4.0;AY;1.0;AZ;255.0;GX;0.0;GY;0.0;GZ;0.0;MAGX;3.0;MAGY;-56.0;MAGZ;-6.0
MOT;0;1000.0;1;1000.0;2;1000.0;3;1000.0;4;0.0;5;0.0;6;0.0;7;0.0;
RC;ROLL;1535.0;PITCH;1507.0;YAW;1486.0;THROTTLE;1071.0;AUX1;1537.0;AUX2;1500.0;AUX3;1500.0;AUX4;1500.0
ALTITUDE;20.0
DEBUG;DEBUG120.0;DEBUG2;184.0;DEBUG3;68.0;DEBUG4;0.0
ATTITUDE;ANGX;1.0;ANGY;0.0;HEAD;-165.0
STATUS;CYCLETIME;3036;I2CERR;0;PRESENT;23;MODE;2
RAW_IMU;AX;4.0;AY;1.0;AZ;255.0;GX;0.0;GY;0.0;GZ;0.0;MAGX;3.0;MAGY;-56.0;MAGZ;-6.0
MOT;0;1000.0;1;1000.0;2;1000.0;3;1000.0;4;0.0;5;0.0;6;0.0;7;0.0;
RC;ROLL;1535.0;PITCH;1505.0;YAW;1486.0;THROTTLE;1062.0;AUX1;1528.0;AUX2;1500.0;AUX3;1500.0;AUX4;1500.0
ALTITUDE;20.0
DEBUG;DEBUG120.0;DEBUG2;184.0;DEBUG3;68.0;DEBUG4;0.0
ATTITUDE;ANGX;1.0;ANGY;0.0;HEAD;-165.0
STATUS;CYCLETIME;2888;I2CERR;0;PRESENT;23;MODE;2
RAW_IMU;AX;3.0;AY;1.0;AZ;255.0;GX;0.0;GY;0.0;GZ;0.0;MAGX;2.0;MAGY;-56.0;MAGZ;-5.0
MOT;0;1000.0;1;1000.0;2;1000.0;3;1000.0;4;0.0;5;0.0;6;0.0;7;0.0;
RC;ROLL;1535.0;PITCH;1505.0;YAW;1486.0;THROTTLE;1062.0;AUX1;1526.0;AUX2;1500.0;AUX3;1500.0;AUX4;1500.0
ALTITUDE;20.0
DEBUG;DEBUG120.0;DEBUG2;184.0;DEBUG3;68.0;DEBUG4;0.0
ATTITUDE;ANGX;1.0;ANGY;0.0;HEAD;-165.0
STATUS;CYCLETIME;2724;I2CERR;0;PRESENT;23;MODE;2
RAW_IMU;AX;3.0;AY;0.0;AZ;255.0;GX;0.0;GY;0.0;GZ;0.0;MAGX;2.0;MAGY;-56.0;MAGZ;-5.0
MOT;0;1000.0;1;1000.0;2;1000.0;3;1000.0;4;0.0;5;0.0;6;0.0;7;0.0;
RC;ROLL;1531.0;PITCH;1506.0;YAW;1488.0;THROTTLE;1059.0;AUX1;1532.0;AUX2;1500.0;AUX3;1500.0;AUX4;1500.0
ALTITUDE;20.0
DEBUG;DEBUG120.0;DEBUG2;184.0;DEBUG3;68.0;DEBUG4;0.0
ATTITUDE;ANGX;1.0;ANGY;0.0;HEAD;-165.0
STATUS;CYCLETIME;2764;I2CERR;0;PRESENT;23;MODE;2
RAW_IMU;AX;3.0;AY;0.0;AZ;255.0;GX;0.0;GY;0.0;GZ;0.0;MAGX;4.0;MAGY;-56.0;MAGZ;-6.0
MOT;0;1000.0;1;1000.0;2;1000.0;3;1000.0;4;0.0;5;0.0;6;0.0;7;0.0;
RC;ROLL;1531.0;PITCH;1510.0;YAW;1491.0;THROTTLE;1059.0;AUX1;1536.0;AUX2;1500.0;AUX3;1500.0;AUX4;1500.0
ALTITUDE;20.0
DEBUG;DEBUG120.0;DEBUG2;184.0;DEBUG3;68.0;DEBUG4;0.0
ATTITUDE;ANGX;1.0;ANGY;0.0;HEAD;-165.0
STATUS;CYCLETIME;2764;I2CERR;0;PRESENT;23;MODE;2
RAW_IMU;AX;3.0;AY;0.0;AZ;255.0;GX;0.0;GY;0.0;GZ;0.0;MAGX;4.0;MAGY;-56.0;MAGZ;-6.0
MOT;0;1000.0;1;1000.0;2;1000.0;3;1000.0;4;0.0;5;0.0;6;0.0;7;0.0;
RC;ROLL;1526.0;PITCH;1517.0;YAW;1495.0;THROTTLE;1059.0;AUX1;1533.0;AUX2;1500.0;AUX3;1500.0;AUX4;1500.0
ALTITUDE;20.0
DEBUG;DEBUG120.0;DEBUG2;184.0;DEBUG3;68.0;DEBUG4;0.0
ATTITUDE;ANGX;1.0;ANGY;0.0;HEAD;-165.0
STATUS;CYCLETIME;2756;I2CERR;0;PRESENT;23;MODE;2
RAW_IMU;AX;4.0;AY;0.0;AZ;255.0;GX;0.0;GY;0.0;GZ;0.0;MAGX;3.0;MAGY;-55.0;MAGZ;-5.0
MOT;0;1000.0;1;1000.0;2;1000.0;3;1000.0;4;0.0;5;0.0;6;0.0;7;0.0;
RC;ROLL;1540.0;PITCH;1501.0;YAW;1490.0;THROTTLE;1065.0;AUX1;1517.0;AUX2;1500.0;AUX3;1500.0;AUX4;1500.0
ALTITUDE;20.0
DEBUG;DEBUG120.0;DEBUG2;184.0;DEBUG3;68.0;DEBUG4;0.0
ATTITUDE;ANGX;1.0;ANGY;0.0;HEAD;-165.0
STATUS;CYCLETIME;2812;I2CERR;0;PRESENT;23;MODE;2
RAW_IMU;AX;4.0;AY;1.0;AZ;255.0;GX;0.0;GY;0.0;GZ;0.0;MAGX;3.0;MAGY;-55.0;MAGZ;-5.0
MOT;0;1000.0;1;1000.0;2;1000.0;3;1000.0;4;0.0;5;0.0;6;0.0;7;0.0;
RC;ROLL;1532.0;PITCH;1501.0;YAW;1490.0;THROTTLE;1069.0;AUX1;1523.0;AUX2;1500.0;AUX3;1500.0;AUX4;1500.0
ALTITUDE;20.0
DEBUG;DEBUG120.0;DEBUG2;184.0;DEBUG3;109.0;DEBUG4;0.0
ATTITUDE;ANGX;1.0;ANGY;0.0;HEAD;-165.0
STATUS;CYCLETIME;2828;I2CERR;0;PRESENT;23;MODE;2
RAW_IMU;AX;4.0;AY;1.0;AZ;255.0;GX;0.0;GY;0.0;GZ;0.0;MAGX;2.0;MAGY;-56.0;MAGZ;-6.0
MOT;0;1000.0;1;1000.0;2;1000.0;3;1000.0;4;0.0;5;0.0;6;0.0;7;0.0;
RC;ROLL;1528.0;PITCH;1503.0;YAW;1490.0;THROTTLE;1069.0;AUX1;1538.0;AUX2;1500.0;AUX3;1500.0;AUX4;1500.0
ALTITUDE;20.0
DEBUG;DEBUG120.0;DEBUG2;184.0;DEBUG3;109.0;DEBUG4;0.0
ATTITUDE;ANGX;1.0;ANGY;0.0;HEAD;-165.0
STATUS;CYCLETIME;2728;I2CERR;0;PRESENT;23;MODE;2
RAW_IMU;AX;4.0;AY;1.0;AZ;255.0;GX;0.0;GY;0.0;GZ;0.0;MAGX;2.0;MAGY;-56.0;MAGZ;-6.0
MOT;0;1000.0;1;1000.0;2;1000.0;3;1000.0;4;0.0;5;0.0;6;0.0;7;0.0;
RC;ROLL;1538.0;PITCH;1503.0;YAW;1487.0;THROTTLE;1064.0;AUX1;1523.0;AUX2;1500.0;AUX3;1500.0;AUX4;1500.0
ALTITUDE;20.0
DEBUG;DEBUG120.0;DEBUG2;184.0;DEBUG3;109.0;DEBUG4;0.0
ATTITUDE;ANGX;1.0;ANGY;0.0;HEAD;-165.0
STATUS;CYCLETIME;2872;I2CERR;0;PRESENT;23;MODE;2
RAW_IMU;AX;4.0;AY;1.0;AZ;255.0;GX;0.0;GY;0.0;GZ;0.0;MAGX;2.0;MAGY;-55.0;MAGZ;-6.0
MOT;0;1000.0;1;1000.0;2;1000.0;3;1000.0;4;0.0;5;0.0;6;0.0;7;0.0;
RC;ROLL;1540.0;PITCH;1505.0;YAW;1487.0;THROTTLE;1062.0;AUX1;1533.0;AUX2;1500.0;AUX3;1500.0;AUX4;1500.0
ALTITUDE;20.0
DEBUG;DEBUG120.0;DEBUG2;184.0;DEBUG3;109.0;DEBUG4;0.0
ATTITUDE;ANGX;1.0;ANGY;0.0;HEAD;-165.0
STATUS;CYCLETIME;2780;I2CERR;0;PRESENT;23;MODE;2
RAW_IMU;AX;4.0;AY;1.0;AZ;255.0;GX;0.0;GY;0.0;GZ;0.0;MAGX;2.0;MAGY;-55.0;MAGZ;-6.0
MOT;0;1000.0;1;1000.0;2;1000.0;3;1000.0;4;0.0;5;0.0;6;0.0;7;0.0;
RC;ROLL;1540.0;PITCH;1505.0;YAW;1487.0;THROTTLE;1065.0;AUX1;1533.0;AUX2;1500.0;AUX3;1500.0;AUX4;1500.0
ALTITUDE;20.0
DEBUG;DEBUG120.0;DEBUG2;184.0;DEBUG3;109.0;DEBUG4;0.0
ATTITUDE;ANGX;1.0;ANGY;0.0;HEAD;-165.0
STATUS;CYCLETIME;2728;I2CERR;0;PRESENT;23;MODE;2
RAW_IMU;AX;4.0;AY;0.0;AZ;254.0;GX;0.0;GY;0.0;GZ;0.0;MAGX;2.0;MAGY;-55.0;MAGZ;-6.0
MOT;0;1000.0;1;1000.0;2;1000.0;3;1000.0;4;0.0;5;0.0;6;0.0;7;0.0;
RC;ROLL;1540.0;PITCH;1502.0;YAW;1487.0;THROTTLE;1065.0;AUX1;1533.0;AUX2;1500.0;AUX3;1500.0;AUX4;1500.0
ALTITUDE;20.0
DEBUG;DEBUG120.0;DEBUG2;183.0;DEBUG3;109.0;DEBUG4;0.0
ATTITUDE;ANGX;1.0;ANGY;0.0;HEAD;-165.0
STATUS;CYCLETIME;2868;I2CERR;0;PRESENT;23;MODE;2
RAW_IMU;AX;4.0;AY;0.0;AZ;255.0;GX;0.0;GY;0.0;GZ;0.0;MAGX;2.0;MAGY;-55.0;MAGZ;-6.0
MOT;0;1000.0;1;1000.0;2;1000.0;3;1000.0;4;0.0;5;0.0;6;0.0;7;0.0;
RC;ROLL;1537.0;PITCH;1502.0;YAW;1487.0;THROTTLE;1065.0;AUX1;1533.0;AUX2;1500.0;AUX3;1500.0;AUX4;1500.0
ALTITUDE;20.0
DEBUG;DEBUG120.0;DEBUG2;183.0;DEBUG3;109.0;DEBUG4;0.0
ATTITUDE;ANGX;1.0;ANGY;0.0;HEAD;-165.0
STATUS;CYCLETIME;2776;I2CERR;0;PRESENT;23;MODE;2
RAW_IMU;AX;4.0;AY;0.0;AZ;255.0;GX;0.0;GY;0.0;GZ;0.0;MAGX;3.0;MAGY;-56.0;MAGZ;-7.0
MOT;0;1000.0;1;1000.0;2;1000.0;3;1000.0;4;0.0;5;0.0;6;0.0;7;0.0;
RC;ROLL;1537.0;PITCH;1502.0;YAW;1487.0;THROTTLE;1067.0;AUX1;1533.0;AUX2;1500.0;AUX3;1500.0;AUX4;1500.0
ALTITUDE;20.0
DEBUG;DEBUG120.0;DEBUG2;183.0;DEBUG3;109.0;DEBUG4;0.0
ATTITUDE;ANGX;1.0;ANGY;0.0;HEAD;-165.0
STATUS;CYCLETIME;2720;I2CERR;0;PRESENT;23;MODE;2
RAW_IMU;AX;4.0;AY;1.0;AZ;255.0;GX;0.0;GY;0.0;GZ;0.0;MAGX;3.0;MAGY;-56.0;MAGZ;-7.0
MOT;0;1000.0;1;1000.0;2;1000.0;3;1000.0;4;0.0;5;0.0;6;0.0;7;0.0;
RC;ROLL;1539.0;PITCH;1502.0;YAW;1487.0;THROTTLE;1067.0;AUX1;1533.0;AUX2;1500.0;AUX3;1500.0;AUX4;1500.0
ALTITUDE;20.0
DEBUG;DEBUG120.0;DEBUG2;183.0;DEBUG3;109.0;DEBUG4;0.0
ATTITUDE;ANGX;1.0;ANGY;0.0;HEAD;-165.0
STATUS;CYCLETIME;2756;I2CERR;0;PRESENT;23;MODE;2
RAW_IMU;AX;4.0;AY;1.0;AZ;255.0;GX;0.0;GY;0.0;GZ;0.0;MAGX;3.0;MAGY;-55.0;MAGZ;-6.0
MOT;0;1000.0;1;1000.0;2;1000.0;3;1000.0;4;0.0;5;0.0;6;0.0;7;0.0;
RC;ROLL;1539.0;PITCH;1502.0;YAW;1485.0;THROTTLE;1069.0;AUX1;1538.0;AUX2;1500.0;AUX3;1500.0;AUX4;1500.0
ALTITUDE;20.0
DEBUG;DEBUG120.0;DEBUG2;183.0;DEBUG3;109.0;DEBUG4;0.0
ATTITUDE;ANGX;1.0;ANGY;0.0;HEAD;-165.0
STATUS;CYCLETIME;2872;I2CERR;0;PRESENT;23;MODE;2
RAW_IMU;AX;4.0;AY;1.0;AZ;254.0;GX;0.0;GY;0.0;GZ;0.0;MAGX;3.0;MAGY;-55.0;MAGZ;-6.0
MOT;0;1000.0;1;1000.0;2;1000.0;3;1000.0;4;0.0;5;0.0;6;0.0;7;0.0;
RC;ROLL;1539.0;PITCH;1502.0;YAW;1485.0;THROTTLE;1069.0;AUX1;1535.0;AUX2;1500.0;AUX3;1500.0;AUX4;1500.0
ALTITUDE;20.0
DEBUG;DEBUG120.0;DEBUG2;183.0;DEBUG3;109.0;DEBUG4;0.0
ATTITUDE;ANGX;1.0;ANGY;0.0;HEAD;-165.0
STATUS;CYCLETIME;2752;I2CERR;0;PRESENT;23;MODE;2
RAW_IMU;AX;4.0;AY;1.0;AZ;255.0;GX;0.0;GY;0.0;GZ;0.0;MAGX;4.0;MAGY;-55.0;MAGZ;-6.0
MOT;0;1000.0;1;1000.0;2;1000.0;3;1000.0;4;0.0;5;0.0;6;0.0;7;0.0;
RC;ROLL;1539.0;PITCH;1502.0;YAW;1485.0;THROTTLE;1069.0;AUX1;1535.0;AUX2;1500.0;AUX3;1500.0;AUX4;1500.0
ALTITUDE;20.0
DEBUG;DEBUG120.0;DEBUG2;184.0;DEBUG3;109.0;DEBUG4;0.0
ATTITUDE;ANGX;1.0;ANGY;0.0;HEAD;-165.0
STATUS;CYCLETIME;2700;I2CERR;0;PRESENT;23;MODE;2
RAW_IMU;AX;4.0;AY;1.0;AZ;255.0;GX;0.0;GY;0.0;GZ;0.0;MAGX;4.0;MAGY;-55.0;MAGZ;-6.0
MOT;0;1000.0;1;1000.0;2;1000.0;3;1000.0;4;0.0;5;0.0;6;0.0;7;0.0;
RC;ROLL;1535.0;PITCH;1502.0;YAW;1485.0;THROTTLE;1069.0;AUX1;1537.0;AUX2;1500.0;AUX3;1500.0;AUX4;1500.0
ALTITUDE;20.0
DEBUG;DEBUG120.0;DEBUG2;184.0;DEBUG3;109.0;DEBUG4;0.0
ATTITUDE;ANGX;1.0;ANGY;0.0;HEAD;-165.0
STATUS;CYCLETIME;2848;I2CERR;0;PRESENT;23;MODE;2
RAW_IMU;AX;4.0;AY;0.0;AZ;255.0;GX;0.0;GY;0.0;GZ;0.0;MAGX;4.0;MAGY;-56.0;MAGZ;-6.0
MOT;0;1000.0;1;1000.0;2;1000.0;3;1000.0;4;0.0;5;0.0;6;0.0;7;0.0;
RC;ROLL;1535.0;PITCH;1502.0;YAW;1485.0;THROTTLE;1069.0;AUX1;1532.0;AUX2;1500.0;AUX3;1500.0;AUX4;1500.0
ALTITUDE;20.0
DEBUG;DEBUG120.0;DEBUG2;184.0;DEBUG3;109.0;DEBUG4;0.0
ATTITUDE;ANGX;1.0;ANGY;0.0;HEAD;-165.0
STATUS;CYCLETIME;2776;I2CERR;0;PRESENT;23;MODE;2
RAW_IMU;AX;4.0;AY;1.0;AZ;255.0;GX;0.0;GY;0.0;GZ;0.0;MAGX;4.0;MAGY;-56.0;MAGZ;-6.0
MOT;0;1000.0;1;1000.0;2;1000.0;3;1000.0;4;0.0;5;0.0;6;0.0;7;0.0;
RC;ROLL;1538.0;PITCH;1498.0;YAW;1488.0;THROTTLE;1069.0;AUX1;1534.0;AUX2;1500.0;AUX3;1500.0;AUX4;1500.0
ALTITUDE;20.0
DEBUG;DEBUG120.0;DEBUG2;184.0;DEBUG3;109.0;DEBUG4;0.0
ATTITUDE;ANGX;1.0;ANGY;0.0;HEAD;-165.0
STATUS;CYCLETIME;3020;I2CERR;0;PRESENT;23;MODE;2
RAW_IMU;AX;4.0;AY;0.0;AZ;255.0;GX;0.0;GY;0.0;GZ;0.0;MAGX;3.0;MAGY;-55.0;MAGZ;-5.0
MOT;0;1000.0;1;1000.0;2;1000.0;3;1000.0;4;0.0;5;0.0;6;0.0;7;0.0;
RC;ROLL;1538.0;PITCH;1496.0;YAW;1484.0;THROTTLE;1069.0;AUX1;1539.0;AUX2;1500.0;AUX3;1500.0;AUX4;1500.0
ALTITUDE;20.0
DEBUG;DEBUG120.0;DEBUG2;184.0;DEBUG3;109.0;DEBUG4;0.0
ATTITUDE;ANGX;1.0;ANGY;0.0;HEAD;-165.0
STATUS;CYCLETIME;2652;I2CERR;0;PRESENT;23;MODE;2
RAW_IMU;AX;4.0;AY;0.0;AZ;255.0;GX;0.0;GY;0.0;GZ;0.0;MAGX;3.0;MAGY;-55.0;MAGZ;-5.0
MOT;0;1000.0;1;1000.0;2;1000.0;3;1000.0;4;0.0;5;0.0;6;0.0;7;0.0;
RC;ROLL;1536.0;PITCH;1502.0;YAW;1484.0;THROTTLE;1069.0;AUX1;1539.0;AUX2;1500.0;AUX3;1500.0;AUX4;1500.0
ALTITUDE;20.0
DEBUG;DEBUG120.0;DEBUG2;184.0;DEBUG3;109.0;DEBUG4;0.0
ATTITUDE;ANGX;1.0;ANGY;0.0;HEAD;-165.0
STATUS;CYCLETIME;2984;I2CERR;0;PRESENT;23;MODE;2
RAW_IMU;AX;4.0;AY;0.0;AZ;255.0;GX;0.0;GY;0.0;GZ;0.0;MAGX;3.0;MAGY;-55.0;MAGZ;-6.0
MOT;0;1000.0;1;1000.0;2;1000.0;3;1000.0;4;0.0;5;0.0;6;0.0;7;0.0;
RC;ROLL;1536.0;PITCH;1502.0;YAW;1484.0;THROTTLE;1074.0;AUX1;1539.0;AUX2;1500.0;AUX3;1500.0;AUX4;1500.0
ALTITUDE;20.0
DEBUG;DEBUG120.0;DEBUG2;184.0;DEBUG3;109.0;DEBUG4;0.0
ATTITUDE;ANGX;1.0;ANGY;0.0;HEAD;-165.0
STATUS;CYCLETIME;3048;I2CERR;0;PRESENT;23;MODE;2
RAW_IMU;AX;4.0;AY;0.0;AZ;255.0;GX;0.0;GY;0.0;GZ;0.0;MAGX;3.0;MAGY;-55.0;MAGZ;-6.0
MOT;0;1000.0;1;1000.0;2;1000.0;3;1000.0;4;0.0;5;0.0;6;0.0;7;0.0;
RC;ROLL;1536.0;PITCH;1502.0;YAW;1484.0;THROTTLE;1074.0;AUX1;1539.0;AUX2;1500.0;AUX3;1500.0;AUX4;1500.0
ALTITUDE;20.0
DEBUG;DEBUG120.0;DEBUG2;184.0;DEBUG3;109.0;DEBUG4;0.0
ATTITUDE;ANGX;1.0;ANGY;0.0;HEAD;-165.0
STATUS;CYCLETIME;2900;I2CERR;0;PRESENT;23;MODE;2
RAW_IMU;AX;4.0;AY;1.0;AZ;255.0;GX;0.0;GY;0.0;GZ;0.0;MAGX;3.0;MAGY;-55.0;MAGZ;-6.0
MOT;0;1000.0;1;1000.0;2;1000.0;3;1000.0;4;0.0;5;0.0;6;0.0;7;0.0;
RC;ROLL;1533.0;PITCH;1502.0;YAW;1484.0;THROTTLE;1070.0;AUX1;1536.0;AUX2;1500.0;AUX3;1500.0;AUX4;1500.0
ALTITUDE;20.0
DEBUG;DEBUG120.0;DEBUG2;184.0;DEBUG3;109.0;DEBUG4;0.0
ATTITUDE;ANGX;1.0;ANGY;0.0;HEAD;-165.0
STATUS;CYCLETIME;2784;I2CERR;0;PRESENT;23;MODE;2
RAW_IMU;AX;4.0;AY;1.0;AZ;255.0;GX;0.0;GY;0.0;GZ;0.0;MAGX;3.0;MAGY;-56.0;MAGZ;-7.0
MOT;0;1000.0;1;1000.0;2;1000.0;3;1000.0;4;0.0;5;0.0;6;0.0;7;0.0;
RC;ROLL;1537.0;PITCH;1502.0;YAW;1484.0;THROTTLE;1070.0;AUX1;1536.0;AUX2;1500.0;AUX3;1500.0;AUX4;1500.0
ALTITUDE;20.0
DEBUG;DEBUG120.0;DEBUG2;184.0;DEBUG3;109.0;DEBUG4;0.0
ATTITUDE;ANGX;1.0;ANGY;0.0;HEAD;-165.0
STATUS;CYCLETIME;2740;I2CERR;0;PRESENT;23;MODE;2
RAW_IMU;AX;4.0;AY;0.0;AZ;255.0;GX;0.0;GY;0.0;GZ;0.0;MAGX;3.0;MAGY;-56.0;MAGZ;-7.0
MOT;0;1000.0;1;1000.0;2;1000.0;3;1000.0;4;0.0;5;0.0;6;0.0;7;0.0;
RC;ROLL;1537.0;PITCH;1502.0;YAW;1484.0;THROTTLE;1070.0;AUX1;1536.0;AUX2;1500.0;AUX3;1500.0;AUX4;1500.0
ALTITUDE;20.0
DEBUG;DEBUG120.0;DEBUG2;184.0;DEBUG3;109.0;DEBUG4;0.0
ATTITUDE;ANGX;1.0;ANGY;0.0;HEAD;-165.0
STATUS;CYCLETIME;2748;I2CERR;0;PRESENT;23;MODE;2
RAW_IMU;AX;4.0;AY;1.0;AZ;255.0;GX;0.0;GY;0.0;GZ;0.0;MAGX;2.0;MAGY;-55.0;MAGZ;-5.0
MOT;0;1000.0;1;1000.0;2;1000.0;3;1000.0;4;0.0;5;0.0;6;0.0;7;0.0;
RC;ROLL;1537.0;PITCH;1500.0;YAW;1484.0;THROTTLE;1068.0;AUX1;1536.0;AUX2;1500.0;AUX3;1500.0;AUX4;1500.0
ALTITUDE;20.0
DEBUG;DEBUG120.0;DEBUG2;175.0;DEBUG3;109.0;DEBUG4;0.0
ATTITUDE;ANGX;1.0;ANGY;0.0;HEAD;-165.0
STATUS;CYCLETIME;2788;I2CERR;0;PRESENT;23;MODE;2
RAW_IMU;AX;4.0;AY;1.0;AZ;255.0;GX;0.0;GY;0.0;GZ;0.0;MAGX;2.0;MAGY;-55.0;MAGZ;-5.0
MOT;0;1000.0;1;1000.0;2;1000.0;3;1000.0;4;0.0;5;0.0;6;0.0;7;0.0;
RC;ROLL;1537.0;PITCH;1507.0;YAW;1481.0;THROTTLE;1070.0;AUX1;1534.0;AUX2;1500.0;AUX3;1500.0;AUX4;1500.0
ALTITUDE;20.0
DEBUG;DEBUG120.0;DEBUG2;175.0;DEBUG3;109.0;DEBUG4;0.0
ATTITUDE;ANGX;1.0;ANGY;0.0;HEAD;-165.0
STATUS;CYCLETIME;2776;I2CERR;0;PRESENT;23;MODE;2
RAW_IMU;AX;4.0;AY;1.0;AZ;255.0;GX;0.0;GY;0.0;GZ;0.0;MAGX;2.0;MAGY;-54.0;MAGZ;-7.0
MOT;0;1000.0;1;1000.0;2;1000.0;3;1000.0;4;0.0;5;0.0;6;0.0;7;0.0;
RC;ROLL;1537.0;PITCH;1510.0;YAW;1485.0;THROTTLE;1064.0;AUX1;1526.0;AUX2;1500.0;AUX3;1500.0;AUX4;1500.0
ALTITUDE;20.0
DEBUG;DEBUG120.0;DEBUG2;175.0;DEBUG3;109.0;DEBUG4;0.0
ATTITUDE;ANGX;1.0;ANGY;0.0;HEAD;-165.0
STATUS;CYCLETIME;2844;I2CERR;0;PRESENT;23;MODE;2
RAW_IMU;AX;4.0;AY;1.0;AZ;254.0;GX;0.0;GY;0.0;GZ;0.0;MAGX;2.0;MAGY;-54.0;MAGZ;-7.0
MOT;0;1000.0;1;1000.0;2;1000.0;3;1000.0;4;0.0;5;0.0;6;0.0;7;0.0;
RC;ROLL;1505.0;PITCH;1546.0;YAW;1485.0;THROTTLE;1061.0;AUX1;1530.0;AUX2;1500.0;AUX3;1500.0;AUX4;1500.0
ALTITUDE;20.0
DEBUG;DEBUG120.0;DEBUG2;175.0;DEBUG3;109.0;DEBUG4;0.0
ATTITUDE;ANGX;1.0;ANGY;0.0;HEAD;-165.0
STATUS;CYCLETIME;3004;I2CERR;0;PRESENT;23;MODE;2
RAW_IMU;AX;5.0;AY;1.0;AZ;255.0;GX;0.0;GY;0.0;GZ;0.0;MAGX;2.0;MAGY;-55.0;MAGZ;-6.0
MOT;0;1000.0;1;1000.0;2;1000.0;3;1000.0;4;0.0;5;0.0;6;0.0;7;0.0;
RC;ROLL;1505.0;PITCH;1542.0;YAW;1485.0;THROTTLE;1066.0;AUX1;1536.0;AUX2;1500.0;AUX3;1500.0;AUX4;1500.0
ALTITUDE;20.0
DEBUG;DEBUG120.0;DEBUG2;175.0;DEBUG3;109.0;DEBUG4;0.0
ATTITUDE;ANGX;1.0;ANGY;0.0;HEAD;-165.0
STATUS;CYCLETIME;2996;I2CERR;0;PRESENT;23;MODE;2
RAW_IMU;AX;4.0;AY;1.0;AZ;255.0;GX;0.0;GY;0.0;GZ;0.0;MAGX;2.0;MAGY;-55.0;MAGZ;-6.0
MOT;0;1000.0;1;1000.0;2;1000.0;3;1000.0;4;0.0;5;0.0;6;0.0;7;0.0;
RC;ROLL;1544.0;PITCH;1501.0;YAW;1485.0;THROTTLE;1066.0;AUX1;1536.0;AUX2;1500.0;AUX3;1500.0;AUX4;1500.0
ALTITUDE;20.0
DEBUG;DEBUG120.0;DEBUG2;175.0;DEBUG3;109.0;DEBUG4;0.0
ATTITUDE;ANGX;1.0;ANGY;0.0;HEAD;-165.0
STATUS;CYCLETIME;2820;I2CERR;0;PRESENT;23;MODE;2
RAW_IMU;AX;4.0;AY;1.0;AZ;255.0;GX;0.0;GY;0.0;GZ;0.0;MAGX;3.0;MAGY;-56.0;MAGZ;-6.0
MOT;0;1000.0;1;1000.0;2;1000.0;3;1000.0;4;0.0;5;0.0;6;0.0;7;0.0;
RC;ROLL;1544.0;PITCH;1501.0;YAW;1488.0;THROTTLE;1066.0;AUX1;1534.0;AUX2;1500.0;AUX3;1500.0;AUX4;1500.0
ALTITUDE;20.0
DEBUG;DEBUG120.0;DEBUG2;191.0;DEBUG3;109.0;DEBUG4;0.0
ATTITUDE;ANGX;1.0;ANGY;0.0;HEAD;-165.0
STATUS;CYCLETIME;2744;I2CERR;0;PRESENT;23;MODE;2
RAW_IMU;AX;4.0;AY;1.0;AZ;255.0;GX;0.0;GY;0.0;GZ;0.0;MAGX;3.0;MAGY;-56.0;MAGZ;-6.0
MOT;0;1000.0;1;1000.0;2;1000.0;3;1000.0;4;0.0;5;0.0;6;0.0;7;0.0;
RC;ROLL;1539.0;PITCH;1505.0;YAW;1493.0;THROTTLE;1059.0;AUX1;1534.0;AUX2;1500.0;AUX3;1500.0;AUX4;1500.0
ALTITUDE;20.0
DEBUG;DEBUG120.0;DEBUG2;191.0;DEBUG3;109.0;DEBUG4;0.0
ATTITUDE;ANGX;1.0;ANGY;0.0;HEAD;-165.0
STATUS;CYCLETIME;2744;I2CERR;0;PRESENT;23;MODE;2
RAW_IMU;AX;5.0;AY;1.0;AZ;255.0;GX;0.0;GY;0.0;GZ;0.0;MAGX;3.0;MAGY;-55.0;MAGZ;-4.0
MOT;0;1000.0;1;1000.0;2;1000.0;3;1000.0;4;0.0;5;0.0;6;0.0;7;0.0;
RC;ROLL;1539.0;PITCH;1502.0;YAW;1493.0;THROTTLE;1062.0;AUX1;1537.0;AUX2;1500.0;AUX3;1500.0;AUX4;1500.0
ALTITUDE;20.0
DEBUG;DEBUG120.0;DEBUG2;191.0;DEBUG3;109.0;DEBUG4;0.0
ATTITUDE;ANGX;1.0;ANGY;0.0;HEAD;-165.0
STATUS;CYCLETIME;2836;I2CERR;0;PRESENT;23;MODE;2
RAW_IMU;AX;5.0;AY;1.0;AZ;254.0;GX;0.0;GY;0.0;GZ;0.0;MAGX;3.0;MAGY;-55.0;MAGZ;-4.0
MOT;0;1000.0;1;1000.0;2;1000.0;3;1000.0;4;0.0;5;0.0;6;0.0;7;0.0;
RC;ROLL;1537.0;PITCH;1504.0;YAW;1492.0;THROTTLE;1066.0;AUX1;1523.0;AUX2;1500.0;AUX3;1500.0;AUX4;1500.0
ALTITUDE;20.0
DEBUG;DEBUG120.0;DEBUG2;191.0;DEBUG3;109.0;DEBUG4;0.0
ATTITUDE;ANGX;1.0;ANGY;0.0;HEAD;-165.0
STATUS;CYCLETIME;2744;I2CERR;0;PRESENT;23;MODE;2
RAW_IMU;AX;4.0;AY;1.0;AZ;255.0;GX;0.0;GY;0.0;GZ;0.0;MAGX;3.0;MAGY;-55.0;MAGZ;-5.0
MOT;0;1000.0;1;1000.0;2;1000.0;3;1000.0;4;0.0;5;0.0;6;0.0;7;0.0;
RC;ROLL;1542.0;PITCH;1509.0;YAW;1490.0;THROTTLE;1066.0;AUX1;1523.0;AUX2;1500.0;AUX3;1500.0;AUX4;1500.0
ALTITUDE;20.0
DEBUG;DEBUG120.0;DEBUG2;191.0;DEBUG3;109.0;DEBUG4;0.0
ATTITUDE;ANGX;1.0;ANGY;0.0;HEAD;-165.0
STATUS;CYCLETIME;2756;I2CERR;0;PRESENT;23;MODE;2
RAW_IMU;AX;4.0;AY;1.0;AZ;255.0;GX;0.0;GY;0.0;GZ;0.0;MAGX;3.0;MAGY;-55.0;MAGZ;-5.0
MOT;0;1000.0;1;1000.0;2;1000.0;3;1000.0;4;0.0;5;0.0;6;0.0;7;0.0;
RC;ROLL;1540.0;PITCH;1507.0;YAW;1487.0;THROTTLE;1066.0;AUX1;1530.0;AUX2;1500.0;AUX3;1500.0;AUX4;1500.0
ALTITUDE;20.0
DEBUG;DEBUG120.0;DEBUG2;191.0;DEBUG3;109.0;DEBUG4;0.0
ATTITUDE;ANGX;1.0;ANGY;0.0;HEAD;-165.0
STATUS;CYCLETIME;2896;I2CERR;0;PRESENT;23;MODE;2
RAW_IMU;AX;4.0;AY;1.0;AZ;255.0;GX;0.0;GY;0.0;GZ;0.0;MAGX;3.0;MAGY;-55.0;MAGZ;-6.0
MOT;0;1000.0;1;1000.0;2;1000.0;3;1000.0;4;0.0;5;0.0;6;0.0;7;0.0;
RC;ROLL;1520.0;PITCH;1529.0;YAW;1493.0;THROTTLE;1064.0;AUX1;1530.0;AUX2;1500.0;AUX3;1500.0;AUX4;1500.0
ALTITUDE;20.0
DEBUG;DEBUG120.0;DEBUG2;191.0;DEBUG3;109.0;DEBUG4;0.0
ATTITUDE;ANGX;1.0;ANGY;0.0;HEAD;-165.0
STATUS;CYCLETIME;2740;I2CERR;0;PRESENT;23;MODE;2
RAW_IMU;AX;4.0;AY;1.0;AZ;255.0;GX;0.0;GY;0.0;GZ;0.0;MAGX;3.0;MAGY;-55.0;MAGZ;-6.0
MOT;0;1000.0;1;1000.0;2;1000.0;3;1000.0;4;0.0;5;0.0;6;0.0;7;0.0;
RC;ROLL;1518.0;PITCH;1529.0;YAW;1495.0;THROTTLE;1056.0;AUX1;1526.0;AUX2;1500.0;AUX3;1500.0;AUX4;1500.0
ALTITUDE;20.0
DEBUG;DEBUG120.0;DEBUG2;191.0;DEBUG3;109.0;DEBUG4;0.0
ATTITUDE;ANGX;1.0;ANGY;0.0;HEAD;-165.0
STATUS;CYCLETIME;2760;I2CERR;0;PRESENT;23;MODE;2
RAW_IMU;AX;4.0;AY;2.0;AZ;255.0;GX;0.0;GY;0.0;GZ;0.0;MAGX;3.0;MAGY;-55.0;MAGZ;-6.0
MOT;0;1000.0;1;1000.0;2;1000.0;3;1000.0;4;0.0;5;0.0;6;0.0;7;0.0;
RC;ROLL;1543.0;PITCH;1499.0;YAW;1487.0;THROTTLE;1060.0;AUX1;1540.0;AUX2;1500.0;AUX3;1500.0;AUX4;1500.0
ALTITUDE;20.0
DEBUG;DEBUG120.0;DEBUG2;191.0;DEBUG3;109.0;DEBUG4;0.0
ATTITUDE;ANGX;1.0;ANGY;0.0;HEAD;-165.0
STATUS;CYCLETIME;2772;I2CERR;0;PRESENT;23;MODE;2
RAW_IMU;AX;4.0;AY;1.0;AZ;255.0;GX;0.0;GY;0.0;GZ;0.0;MAGX;3.0;MAGY;-55.0;MAGZ;-6.0
MOT;0;1000.0;1;1000.0;2;1000.0;3;1000.0;4;0.0;5;0.0;6;0.0;7;0.0;
RC;ROLL;1535.0;PITCH;1502.0;YAW;1487.0;THROTTLE;1060.0;AUX1;1535.0;AUX2;1500.0;AUX3;1500.0;AUX4;1500.0
ALTITUDE;20.0
DEBUG;DEBUG120.0;DEBUG2;191.0;DEBUG3;109.0;DEBUG4;0.0
ATTITUDE;ANGX;1.0;ANGY;0.0;HEAD;-165.0
STATUS;CYCLETIME;2720;I2CERR;0;PRESENT;23;MODE;2
RAW_IMU;AX;4.0;AY;1.0;AZ;255.0;GX;0.0;GY;0.0;GZ;0.0;MAGX;2.0;MAGY;-55.0;MAGZ;-6.0
MOT;0;1000.0;1;1000.0;2;1000.0;3;1000.0;4;0.0;5;0.0;6;0.0;7;0.0;
RC;ROLL;1538.0;PITCH;1504.0;YAW;1487.0;THROTTLE;1052.0;AUX1;1528.0;AUX2;1500.0;AUX3;1500.0;AUX4;1500.0
ALTITUDE;20.0
DEBUG;DEBUG120.0;DEBUG2;191.0;DEBUG3;109.0;DEBUG4;0.0
ATTITUDE;ANGX;1.0;ANGY;0.0;HEAD;-165.0
STATUS;CYCLETIME;2716;I2CERR;0;PRESENT;23;MODE;2
RAW_IMU;AX;4.0;AY;1.0;AZ;255.0;GX;0.0;GY;0.0;GZ;0.0;MAGX;2.0;MAGY;-55.0;MAGZ;-6.0
MOT;0;1000.0;1;1000.0;2;1000.0;3;1000.0;4;0.0;5;0.0;6;0.0;7;0.0;
RC;ROLL;1542.0;PITCH;1498.0;YAW;1482.0;THROTTLE;1062.0;AUX1;1532.0;AUX2;1500.0;AUX3;1500.0;AUX4;1500.0
ALTITUDE;20.0
DEBUG;DEBUG120.0;DEBUG2;191.0;DEBUG3;109.0;DEBUG4;0.0
ATTITUDE;ANGX;1.0;ANGY;0.0;HEAD;-165.0
STATUS;CYCLETIME;2916;I2CERR;0;PRESENT;23;MODE;2
RAW_IMU;AX;4.0;AY;1.0;AZ;255.0;GX;0.0;GY;0.0;GZ;0.0;MAGX;3.0;MAGY;-55.0;MAGZ;-6.0
MOT;0;1000.0;1;1000.0;2;1000.0;3;1000.0;4;0.0;5;0.0;6;0.0;7;0.0;
RC;ROLL;1542.0;PITCH;1498.0;YAW;1486.0;THROTTLE;1066.0;AUX1;1532.0;AUX2;1500.0;AUX3;1500.0;AUX4;1500.0
ALTITUDE;20.0
DEBUG;DEBUG120.0;DEBUG2;191.0;DEBUG3;109.0;DEBUG4;0.0
ATTITUDE;ANGX;1.0;ANGY;0.0;HEAD;-165.0
STATUS;CYCLETIME;2696;I2CERR;0;PRESENT;23;MODE;2
RAW_IMU;AX;4.0;AY;1.0;AZ;255.0;GX;0.0;GY;0.0;GZ;0.0;MAGX;3.0;MAGY;-55.0;MAGZ;-6.0
MOT;0;1000.0;1;1000.0;2;1000.0;3;1000.0;4;0.0;5;0.0;6;0.0;7;0.0;
RC;ROLL;1539.0;PITCH;1503.0;YAW;1486.0;THROTTLE;1066.0;AUX1;1532.0;AUX2;1500.0;AUX3;1500.0;AUX4;1500.0
ALTITUDE;20.0
DEBUG;DEBUG120.0;DEBUG2;191.0;DEBUG3;109.0;DEBUG4;0.0
ATTITUDE;ANGX;1.0;ANGY;0.0;HEAD;-165.0
STATUS;CYCLETIME;2800;I2CERR;0;PRESENT;23;MODE;2
RAW_IMU;AX;4.0;AY;1.0;AZ;255.0;GX;0.0;GY;0.0;GZ;0.0;MAGX;3.0;MAGY;-55.0;MAGZ;-5.0
MOT;0;1000.0;1;1000.0;2;1000.0;3;1000.0;4;0.0;5;0.0;6;0.0;7;0.0;
RC;ROLL;1539.0;PITCH;1503.0;YAW;1486.0;THROTTLE;1066.0;AUX1;1534.0;AUX2;1500.0;AUX3;1500.0;AUX4;1500.0
ALTITUDE;20.0
DEBUG;DEBUG120.0;DEBUG2;191.0;DEBUG3;109.0;DEBUG4;0.0
ATTITUDE;ANGX;1.0;ANGY;0.0;HEAD;-165.0
STATUS;CYCLETIME;2764;I2CERR;0;PRESENT;23;MODE;2
RAW_IMU;AX;5.0;AY;1.0;AZ;255.0;GX;0.0;GY;0.0;GZ;0.0;MAGX;3.0;MAGY;-55.0;MAGZ;-5.0
MOT;0;1000.0;1;1000.0;2;1000.0;3;1000.0;4;0.0;5;0.0;6;0.0;7;0.0;
RC;ROLL;1539.0;PITCH;1505.0;YAW;1486.0;THROTTLE;1066.0;AUX1;1534.0;AUX2;1500.0;AUX3;1500.0;AUX4;1500.0
ALTITUDE;20.0
DEBUG;DEBUG120.0;DEBUG2;191.0;DEBUG3;109.0;DEBUG4;0.0
ATTITUDE;ANGX;1.0;ANGY;0.0;HEAD;-165.0
STATUS;CYCLETIME;2704;I2CERR;0;PRESENT;23;MODE;2
RAW_IMU;AX;5.0;AY;1.0;AZ;255.0;GX;0.0;GY;0.0;GZ;0.0;MAGX;3.0;MAGY;-55.0;MAGZ;-5.0
MOT;0;1000.0;1;1000.0;2;1000.0;3;1000.0;4;0.0;5;0.0;6;0.0;7;0.0;
RC;ROLL;1539.0;PITCH;1505.0;YAW;1481.0;THROTTLE;1066.0;AUX1;1537.0;AUX2;1500.0;AUX3;1500.0;AUX4;1500.0
ALTITUDE;20.0
DEBUG;DEBUG120.0;DEBUG2;191.0;DEBUG3;109.0;DEBUG4;0.0
ATTITUDE;ANGX;1.0;ANGY;0.0;HEAD;-165.0
STATUS;CYCLETIME;2716;I2CERR;0;PRESENT;23;MODE;2
RAW_IMU;AX;5.0;AY;1.0;AZ;255.0;GX;0.0;GY;0.0;GZ;0.0;MAGX;3.0;MAGY;-55.0;MAGZ;-5.0
MOT;0;1000.0;1;1000.0;2;1000.0;3;1000.0;4;0.0;5;0.0;6;0.0;7;0.0;
RC;ROLL;1539.0;PITCH;1503.0;YAW;1481.0;THROTTLE;1069.0;AUX1;1537.0;AUX2;1500.0;AUX3;1500.0;AUX4;1500.0
ALTITUDE;20.0
DEBUG;DEBUG120.0;DEBUG2;191.0;DEBUG3;109.0;DEBUG4;0.0
ATTITUDE;ANGX;1.0;ANGY;0.0;HEAD;-165.0
STATUS;CYCLETIME;3124;I2CERR;0;PRESENT;23;MODE;2
RAW_IMU;AX;4.0;AY;1.0;AZ;255.0;GX;0.0;GY;0.0;GZ;0.0;MAGX;2.0;MAGY;-56.0;MAGZ;-6.0
MOT;0;1000.0;1;1000.0;2;1000.0;3;1000.0;4;0.0;5;0.0;6;0.0;7;0.0;
RC;ROLL;1537.0;PITCH;1503.0;YAW;1481.0;THROTTLE;1069.0;AUX1;1535.0;AUX2;1500.0;AUX3;1500.0;AUX4;1500.0
ALTITUDE;20.0
DEBUG;DEBUG120.0;DEBUG2;191.0;DEBUG3;109.0;DEBUG4;0.0
ATTITUDE;ANGX;1.0;ANGY;0.0;HEAD;-165.0
STATUS;CYCLETIME;2780;I2CERR;0;PRESENT;23;MODE;2
RAW_IMU;AX;4.0;AY;1.0;AZ;255.0;GX;0.0;GY;0.0;GZ;0.0;MAGX;2.0;MAGY;-56.0;MAGZ;-6.0
MOT;0;1000.0;1;1000.0;2;1000.0;3;1000.0;4;0.0;5;0.0;6;0.0;7;0.0;
RC;ROLL;1533.0;PITCH;1507.0;YAW;1478.0;THROTTLE;1069.0;AUX1;1543.0;AUX2;1500.0;AUX3;1500.0;AUX4;1500.0
ALTITUDE;20.0
DEBUG;DEBUG120.0;DEBUG2;191.0;DEBUG3;109.0;DEBUG4;0.0
ATTITUDE;ANGX;1.0;ANGY;0.0;HEAD;-165.0
STATUS;CYCLETIME;3052;I2CERR;0;PRESENT;23;MODE;2
RAW_IMU;AX;4.0;AY;1.0;AZ;255.0;GX;0.0;GY;0.0;GZ;0.0;MAGX;4.0;MAGY;-55.0;MAGZ;-5.0
MOT;0;1000.0;1;1000.0;2;1000.0;3;1000.0;4;0.0;5;0.0;6;0.0;7;0.0;
RC;ROLL;1536.0;PITCH;1502.0;YAW;1478.0;THROTTLE;1069.0;AUX1;1545.0;AUX2;1500.0;AUX3;1500.0;AUX4;1500.0
ALTITUDE;20.0
DEBUG;DEBUG120.0;DEBUG2;191.0;DEBUG3;109.0;DEBUG4;0.0
ATTITUDE;ANGX;1.0;ANGY;0.0;HEAD;-165.0
STATUS;CYCLETIME;2712;I2CERR;0;PRESENT;23;MODE;2
RAW_IMU;AX;3.0;AY;1.0;AZ;255.0;GX;0.0;GY;0.0;GZ;0.0;MAGX;4.0;MAGY;-55.0;MAGZ;-5.0
MOT;0;1000.0;1;1000.0;2;1000.0;3;1000.0;4;0.0;5;0.0;6;0.0;7;0.0;
RC;ROLL;1540.0;PITCH;1501.0;YAW;1484.0;THROTTLE;1069.0;AUX1;1535.0;AUX2;1500.0;AUX3;1500.0;AUX4;1500.0
ALTITUDE;20.0
DEBUG;DEBUG120.0;DEBUG2;191.0;DEBUG3;109.0;DEBUG4;0.0
ATTITUDE;ANGX;1.0;ANGY;0.0;HEAD;-165.0
STATUS;CYCLETIME;2988;I2CERR;0;PRESENT;23;MODE;2
RAW_IMU;AX;4.0;AY;1.0;AZ;255.0;GX;0.0;GY;0.0;GZ;0.0;MAGX;3.0;MAGY;-55.0;MAGZ;-6.0
MOT;0;1000.0;1;1000.0;2;1000.0;3;1000.0;4;0.0;5;0.0;6;0.0;7;0.0;
RC;ROLL;1540.0;PITCH;1498.0;YAW;1481.0;THROTTLE;1078.0;AUX1;1538.0;AUX2;1500.0;AUX3;1500.0;AUX4;1500.0
ALTITUDE;20.0
DEBUG;DEBUG120.0;DEBUG2;191.0;DEBUG3;109.0;DEBUG4;0.0
ATTITUDE;ANGX;1.0;ANGY;0.0;HEAD;-165.0
STATUS;CYCLETIME;2784;I2CERR;0;PRESENT;23;MODE;2
RAW_IMU;AX;4.0;AY;1.0;AZ;255.0;GX;0.0;GY;0.0;GZ;0.0;MAGX;3.0;MAGY;-55.0;MAGZ;-6.0
MOT;0;1000.0;1;1000.0;2;1000.0;3;1000.0;4;0.0;5;0.0;6;0.0;7;0.0;
RC;ROLL;1538.0;PITCH;1491.0;YAW;1481.0;THROTTLE;1078.0;AUX1;1536.0;AUX2;1500.0;AUX3;1500.0;AUX4;1500.0
ALTITUDE;20.0
DEBUG;DEBUG120.0;DEBUG2;191.0;DEBUG3;109.0;DEBUG4;0.0
ATTITUDE;ANGX;1.0;ANGY;0.0;HEAD;-165.0
STATUS;CYCLETIME;2832;I2CERR;0;PRESENT;23;MODE;2
RAW_IMU;AX;4.0;AY;1.0;AZ;255.0;GX;0.0;GY;0.0;GZ;0.0;MAGX;3.0;MAGY;-55.0;MAGZ;-6.0
MOT;0;1000.0;1;1000.0;2;1000.0;3;1000.0;4;0.0;5;0.0;6;0.0;7;0.0;
RC;ROLL;1540.0;PITCH;1495.0;YAW;1487.0;THROTTLE;1068.0;AUX1;1530.0;AUX2;1500.0;AUX3;1500.0;AUX4;1500.0
ALTITUDE;20.0
DEBUG;DEBUG120.0;DEBUG2;191.0;DEBUG3;109.0;DEBUG4;0.0
ATTITUDE;ANGX;1.0;ANGY;0.0;HEAD;-165.0
STATUS;CYCLETIME;2792;I2CERR;0;PRESENT;23;MODE;2
RAW_IMU;AX;4.0;AY;1.0;AZ;255.0;GX;0.0;GY;0.0;GZ;0.0;MAGX;2.0;MAGY;-55.0;MAGZ;-7.0
MOT;0;1000.0;1;1000.0;2;1000.0;3;1000.0;4;0.0;5;0.0;6;0.0;7;0.0;
RC;ROLL;1546.0;PITCH;1495.0;YAW;1487.0;THROTTLE;1068.0;AUX1;1530.0;AUX2;1500.0;AUX3;1500.0;AUX4;1500.0
ALTITUDE;20.0
DEBUG;DEBUG120.0;DEBUG2;191.0;DEBUG3;109.0;DEBUG4;0.0
ATTITUDE;ANGX;1.0;ANGY;0.0;HEAD;-165.0
STATUS;CYCLETIME;2788;I2CERR;0;PRESENT;23;MODE;2
RAW_IMU;AX;4.0;AY;1.0;AZ;255.0;GX;0.0;GY;0.0;GZ;0.0;MAGX;2.0;MAGY;-55.0;MAGZ;-7.0
MOT;0;1000.0;1;1000.0;2;1000.0;3;1000.0;4;0.0;5;0.0;6;0.0;7;0.0;
RC;ROLL;1542.0;PITCH;1495.0;YAW;1487.0;THROTTLE;1068.0;AUX1;1524.0;AUX2;1500.0;AUX3;1500.0;AUX4;1500.0
ALTITUDE;20.0
DEBUG;DEBUG120.0;DEBUG2;191.0;DEBUG3;109.0;DEBUG4;0.0
ATTITUDE;ANGX;1.0;ANGY;0.0;HEAD;-165.0
STATUS;CYCLETIME;2892;I2CERR;0;PRESENT;23;MODE;2
RAW_IMU;AX;4.0;AY;1.0;AZ;255.0;GX;0.0;GY;0.0;GZ;0.0;MAGX;2.0;MAGY;-55.0;MAGZ;-6.0
MOT;0;1000.0;1;1000.0;2;1000.0;3;1000.0;4;0.0;5;0.0;6;0.0;7;0.0;
RC;ROLL;1532.0;PITCH;1505.0;YAW;1487.0;THROTTLE;1068.0;AUX1;1529.0;AUX2;1500.0;AUX3;1500.0;AUX4;1500.0
ALTITUDE;20.0
DEBUG;DEBUG120.0;DEBUG2;191.0;DEBUG3;109.0;DEBUG4;0.0
ATTITUDE;ANGX;1.0;ANGY;0.0;HEAD;-165.0
STATUS;CYCLETIME;2792;I2CERR;0;PRESENT;23;MODE;2
RAW_IMU;AX;4.0;AY;1.0;AZ;255.0;GX;0.0;GY;0.0;GZ;0.0;MAGX;2.0;MAGY;-55.0;MAGZ;-6.0
MOT;0;1000.0;1;1000.0;2;1000.0;3;1000.0;4;0.0;5;0.0;6;0.0;7;0.0;
RC;ROLL;1532.0;PITCH;1510.0;YAW;1482.0;THROTTLE;1065.0;AUX1;1533.0;AUX2;1500.0;AUX3;1500.0;AUX4;1500.0
ALTITUDE;20.0
DEBUG;DEBUG120.0;DEBUG2;191.0;DEBUG3;109.0;DEBUG4;0.0
ATTITUDE;ANGX;1.0;ANGY;0.0;HEAD;-165.0
STATUS;CYCLETIME;2764;I2CERR;0;PRESENT;23;MODE;2
RAW_IMU;AX;4.0;AY;1.0;AZ;255.0;GX;0.0;GY;0.0;GZ;0.0;MAGX;2.0;MAGY;-55.0;MAGZ;-6.0
MOT;0;1000.0;1;1000.0;2;1000.0;3;1000.0;4;0.0;5;0.0;6;0.0;7;0.0;
RC;ROLL;1538.0;PITCH;1502.0;YAW;1479.0;THROTTLE;1073.0;AUX1;1542.0;AUX2;1500.0;AUX3;1500.0;AUX4;1500.0
ALTITUDE;20.0
DEBUG;DEBUG120.0;DEBUG2;191.0;DEBUG3;109.0;DEBUG4;0.0
ATTITUDE;ANGX;1.0;ANGY;0.0;HEAD;-165.0
STATUS;CYCLETIME;2884;I2CERR;0;PRESENT;23;MODE;2
RAW_IMU;AX;4.0;AY;1.0;AZ;255.0;GX;0.0;GY;0.0;GZ;0.0;MAGX;2.0;MAGY;-55.0;MAGZ;-6.0
MOT;0;1000.0;1;1000.0;2;1000.0;3;1000.0;4;0.0;5;0.0;6;0.0;7;0.0;
RC;ROLL;1537.0;PITCH;1500.0;YAW;1481.0;THROTTLE;1066.0;AUX1;1538.0;AUX2;1500.0;AUX3;1500.0;AUX4;1500.0
ALTITUDE;20.0
DEBUG;DEBUG120.0;DEBUG2;190.0;DEBUG3;109.0;DEBUG4;0.0
ATTITUDE;ANGX;1.0;ANGY;0.0;HEAD;-165.0
STATUS;CYCLETIME;3024;I2CERR;0;PRESENT;23;MODE;2
RAW_IMU;AX;4.0;AY;1.0;AZ;255.0;GX;0.0;GY;0.0;GZ;0.0;MAGX;2.0;MAGY;-56.0;MAGZ;-6.0
MOT;0;1000.0;1;1000.0;2;1000.0;3;1000.0;4;0.0;5;0.0;6;0.0;7;0.0;
RC;ROLL;1537.0;PITCH;1500.0;YAW;1481.0;THROTTLE;1066.0;AUX1;1538.0;AUX2;1500.0;AUX3;1500.0;AUX4;1500.0
ALTITUDE;20.0
DEBUG;DEBUG120.0;DEBUG2;190.0;DEBUG3;109.0;DEBUG4;0.0
ATTITUDE;ANGX;1.0;ANGY;0.0;HEAD;-165.0
STATUS;CYCLETIME;2800;I2CERR;0;PRESENT;23;MODE;2
RAW_IMU;AX;4.0;AY;1.0;AZ;255.0;GX;0.0;GY;0.0;GZ;0.0;MAGX;2.0;MAGY;-56.0;MAGZ;-6.0
MOT;0;1000.0;1;1000.0;2;1000.0;3;1000.0;4;0.0;5;0.0;6;0.0;7;0.0;
RC;ROLL;1539.0;PITCH;1500.0;YAW;1487.0;THROTTLE;1066.0;AUX1;1538.0;AUX2;1500.0;AUX3;1500.0;AUX4;1500.0
ALTITUDE;20.0
DEBUG;DEBUG120.0;DEBUG2;190.0;DEBUG3;109.0;DEBUG4;0.0
ATTITUDE;ANGX;1.0;ANGY;0.0;HEAD;-165.0
STATUS;CYCLETIME;2844;I2CERR;0;PRESENT;23;MODE;2
RAW_IMU;AX;4.0;AY;0.0;AZ;254.0;GX;0.0;GY;0.0;GZ;0.0;MAGX;3.0;MAGY;-55.0;MAGZ;-7.0
MOT;0;1000.0;1;1000.0;2;1000.0;3;1000.0;4;0.0;5;0.0;6;0.0;7;0.0;
RC;ROLL;1539.0;PITCH;1500.0;YAW;1487.0;THROTTLE;1068.0;AUX1;1538.0;AUX2;1500.0;AUX3;1500.0;AUX4;1500.0
ALTITUDE;20.0
DEBUG;DEBUG120.0;DEBUG2;190.0;DEBUG3;109.0;DEBUG4;0.0
ATTITUDE;ANGX;1.0;ANGY;0.0;HEAD;-165.0
STATUS;CYCLETIME;2772;I2CERR;0;PRESENT;23;MODE;2
RAW_IMU;AX;4.0;AY;0.0;AZ;255.0;GX;0.0;GY;0.0;GZ;0.0;MAGX;3.0;MAGY;-55.0;MAGZ;-7.0
MOT;0;1000.0;1;1000.0;2;1000.0;3;1000.0;4;0.0;5;0.0;6;0.0;7;0.0;
RC;ROLL;1539.0;PITCH;1496.0;YAW;1485.0;THROTTLE;1078.0;AUX1;1538.0;AUX2;1500.0;AUX3;1500.0;AUX4;1500.0
ALTITUDE;20.0
DEBUG;DEBUG120.0;DEBUG2;190.0;DEBUG3;109.0;DEBUG4;0.0
ATTITUDE;ANGX;1.0;ANGY;0.0;HEAD;-165.0
STATUS;CYCLETIME;2736;I2CERR;0;PRESENT;23;MODE;2
RAW_IMU;AX;5.0;AY;0.0;AZ;255.0;GX;0.0;GY;0.0;GZ;0.0;MAGX;3.0;MAGY;-54.0;MAGZ;-5.0
MOT;0;1000.0;1;1000.0;2;1000.0;3;1000.0;4;0.0;5;0.0;6;0.0;7;0.0;
RC;ROLL;1542.0;PITCH;1496.0;YAW;1487.0;THROTTLE;1078.0;AUX1;1534.0;AUX2;1500.0;AUX3;1500.0;AUX4;1500.0
ALTITUDE;20.0
DEBUG;DEBUG120.0;DEBUG2;190.0;DEBUG3;109.0;DEBUG4;0.0
ATTITUDE;ANGX;1.0;ANGY;0.0;HEAD;-165.0
STATUS;CYCLETIME;2756;I2CERR;0;PRESENT;23;MODE;2
RAW_IMU;AX;4.0;AY;0.0;AZ;255.0;GX;0.0;GY;0.0;GZ;0.0;MAGX;3.0;MAGY;-54.0;MAGZ;-5.0
MOT;0;1000.0;1;1000.0;2;1000.0;3;1000.0;4;0.0;5;0.0;6;0.0;7;0.0;
RC;ROLL;1536.0;PITCH;1496.0;YAW;1490.0;THROTTLE;1069.0;AUX1;1534.0;AUX2;1500.0;AUX3;1500.0;AUX4;1500.0
ALTITUDE;20.0
DEBUG;DEBUG120.0;DEBUG2;190.0;DEBUG3;109.0;DEBUG4;0.0
ATTITUDE;ANGX;1.0;ANGY;0.0;HEAD;-165.0
STATUS;CYCLETIME;2792;I2CERR;0;PRESENT;23;MODE;2
RAW_IMU;AX;4.0;AY;0.0;AZ;255.0;GX;0.0;GY;0.0;GZ;0.0;MAGX;3.0;MAGY;-54.0;MAGZ;-5.0
MOT;0;1000.0;1;1000.0;2;1000.0;3;1000.0;4;0.0;5;0.0;6;0.0;7;0.0;
RC;ROLL;1536.0;PITCH;1500.0;YAW;1490.0;THROTTLE;1067.0;AUX1;1536.0;AUX2;1500.0;AUX3;1500.0;AUX4;1500.0
ALTITUDE;20.0
DEBUG;DEBUG120.0;DEBUG2;190.0;DEBUG3;109.0;DEBUG4;0.0
ATTITUDE;ANGX;1.0;ANGY;0.0;HEAD;-165.0
STATUS;CYCLETIME;2788;I2CERR;0;PRESENT;23;MODE;2
RAW_IMU;AX;4.0;AY;0.0;AZ;255.0;GX;0.0;GY;0.0;GZ;0.0;MAGX;3.0;MAGY;-54.0;MAGZ;-5.0
MOT;0;1000.0;1;1000.0;2;1000.0;3;1000.0;4;0.0;5;0.0;6;0.0;7;0.0;
RC;ROLL;1533.0;PITCH;1506.0;YAW;1488.0;THROTTLE;1067.0;AUX1;1568.0;AUX2;1500.0;AUX3;1500.0;AUX4;1500.0
ALTITUDE;20.0
DEBUG;DEBUG120.0;DEBUG2;190.0;DEBUG3;109.0;DEBUG4;0.0
ATTITUDE;ANGX;1.0;ANGY;0.0;HEAD;-165.0
STATUS;CYCLETIME;2952;I2CERR;0;PRESENT;23;MODE;2
RAW_IMU;AX;4.0;AY;0.0;AZ;255.0;GX;0.0;GY;0.0;GZ;0.0;MAGX;3.0;MAGY;-55.0;MAGZ;-6.0
MOT;0;1000.0;1;1000.0;2;1000.0;3;1000.0;4;0.0;5;0.0;6;0.0;7;0.0;
RC;ROLL;1530.0;PITCH;1512.0;YAW;1494.0;THROTTLE;1064.0;AUX1;1523.0;AUX2;1500.0;AUX3;1500.0;AUX4;1500.0
ALTITUDE;20.0
DEBUG;DEBUG120.0;DEBUG2;190.0;DEBUG3;109.0;DEBUG4;0.0
ATTITUDE;ANGX;1.0;ANGY;0.0;HEAD;-165.0
STATUS;CYCLETIME;2772;I2CERR;0;PRESENT;23;MODE;2
RAW_IMU;AX;4.0;AY;0.0;AZ;255.0;GX;0.0;GY;0.0;GZ;0.0;MAGX;3.0;MAGY;-55.0;MAGZ;-6.0
MOT;0;1000.0;1;1000.0;2;1000.0;3;1000.0;4;0.0;5;0.0;6;0.0;7;0.0;
RC;ROLL;1530.0;PITCH;1507.0;YAW;1489.0;THROTTLE;1068.0;AUX1;1531.0;AUX2;1500.0;AUX3;1500.0;AUX4;1500.0
ALTITUDE;20.0
DEBUG;DEBUG120.0;DEBUG2;190.0;DEBUG3;109.0;DEBUG4;0.0
ATTITUDE;ANGX;1.0;ANGY;0.0;HEAD;-165.0
STATUS;CYCLETIME;2792;I2CERR;0;PRESENT;23;MODE;2
RAW_IMU;AX;4.0;AY;1.0;AZ;255.0;GX;0.0;GY;0.0;GZ;0.0;MAGX;2.0;MAGY;-54.0;MAGZ;-5.0
MOT;0;1000.0;1;1000.0;2;1000.0;3;1000.0;4;0.0;5;0.0;6;0.0;7;0.0;
RC;ROLL;1526.0;PITCH;1514.0;YAW;1483.0;THROTTLE;1068.0;AUX1;1542.0;AUX2;1500.0;AUX3;1500.0;AUX4;1500.0
ALTITUDE;20.0
DEBUG;DEBUG120.0;DEBUG2;190.0;DEBUG3;109.0;DEBUG4;0.0
ATTITUDE;ANGX;1.0;ANGY;0.0;HEAD;-165.0
STATUS;CYCLETIME;2776;I2CERR;0;PRESENT;23;MODE;2
RAW_IMU;AX;4.0;AY;1.0;AZ;255.0;GX;0.0;GY;0.0;GZ;0.0;MAGX;2.0;MAGY;-54.0;MAGZ;-5.0
MOT;0;1000.0;1;1000.0;2;1000.0;3;1000.0;4;0.0;5;0.0;6;0.0;7;0.0;
RC;ROLL;1540.0;PITCH;1499.0;YAW;1487.0;THROTTLE;1068.0;AUX1;1535.0;AUX2;1500.0;AUX3;1500.0;AUX4;1500.0
ALTITUDE;20.0
DEBUG;DEBUG120.0;DEBUG2;190.0;DEBUG3;109.0;DEBUG4;0.0
ATTITUDE;ANGX;1.0;ANGY;0.0;HEAD;-165.0
STATUS;CYCLETIME;2800;I2CERR;0;PRESENT;23;MODE;2
RAW_IMU;AX;4.0;AY;1.0;AZ;255.0;GX;0.0;GY;0.0;GZ;0.0;MAGX;3.0;MAGY;-55.0;MAGZ;-5.0
MOT;0;1000.0;1;1000.0;2;1000.0;3;1000.0;4;0.0;5;0.0;6;0.0;7;0.0;
RC;ROLL;1540.0;PITCH;1497.0;YAW;1478.0;THROTTLE;1084.0;AUX1;1532.0;AUX2;1500.0;AUX3;1500.0;AUX4;1500.0
ALTITUDE;20.0
DEBUG;DEBUG120.0;DEBUG2;190.0;DEBUG3;109.0;DEBUG4;0.0
ATTITUDE;ANGX;1.0;ANGY;0.0;HEAD;-165.0
STATUS;CYCLETIME;2744;I2CERR;0;PRESENT;23;MODE;2
RAW_IMU;AX;4.0;AY;1.0;AZ;255.0;GX;0.0;GY;0.0;GZ;0.0;MAGX;3.0;MAGY;-55.0;MAGZ;-5.0
MOT;0;1000.0;1;1000.0;2;1000.0;3;1000.0;4;0.0;5;0.0;6;0.0;7;0.0;
RC;ROLL;1540.0;PITCH;1497.0;YAW;1463.0;THROTTLE;1111.0;AUX1;1530.0;AUX2;1500.0;AUX3;1500.0;AUX4;1500.0
ALTITUDE;20.0
DEBUG;DEBUG120.0;DEBUG2;190.0;DEBUG3;109.0;DEBUG4;0.0
ATTITUDE;ANGX;1.0;ANGY;0.0;HEAD;-165.0
STATUS;CYCLETIME;2764;I2CERR;0;PRESENT;23;MODE;2
RAW_IMU;AX;4.0;AY;1.0;AZ;255.0;GX;0.0;GY;0.0;GZ;0.0;MAGX;4.0;MAGY;-55.0;MAGZ;-6.0
MOT;0;1000.0;1;1000.0;2;1000.0;3;1000.0;4;0.0;5;0.0;6;0.0;7;0.0;
RC;ROLL;1538.0;PITCH;1497.0;YAW;1460.0;THROTTLE;1116.0;AUX1;1530.0;AUX2;1500.0;AUX3;1500.0;AUX4;1500.0
ALTITUDE;20.0
DEBUG;DEBUG120.0;DEBUG2;190.0;DEBUG3;109.0;DEBUG4;0.0
ATTITUDE;ANGX;1.0;ANGY;0.0;HEAD;-165.0
STATUS;CYCLETIME;2876;I2CERR;0;PRESENT;23;MODE;2
RAW_IMU;AX;5.0;AY;1.0;AZ;255.0;GX;0.0;GY;0.0;GZ;0.0;MAGX;4.0;MAGY;-55.0;MAGZ;-6.0
MOT;0;1000.0;1;1000.0;2;1000.0;3;1000.0;4;0.0;5;0.0;6;0.0;7;0.0;
RC;ROLL;1538.0;PITCH;1497.0;YAW;1460.0;THROTTLE;1118.0;AUX1;1530.0;AUX2;1500.0;AUX3;1500.0;AUX4;1500.0
ALTITUDE;20.0
DEBUG;DEBUG120.0;DEBUG2;190.0;DEBUG3;109.0;DEBUG4;0.0
ATTITUDE;ANGX;1.0;ANGY;0.0;HEAD;-165.0
STATUS;CYCLETIME;3056;I2CERR;0;PRESENT;23;MODE;2
RAW_IMU;AX;4.0;AY;1.0;AZ;255.0;GX;0.0;GY;0.0;GZ;0.0;MAGX;3.0;MAGY;-54.0;MAGZ;-7.0
MOT;0;1000.0;1;1000.0;2;1000.0;3;1000.0;4;0.0;5;0.0;6;0.0;7;0.0;
RC;ROLL;1536.0;PITCH;1497.0;YAW;1460.0;THROTTLE;1118.0;AUX1;1530.0;AUX2;1500.0;AUX3;1500.0;AUX4;1500.0
ALTITUDE;20.0
DEBUG;DEBUG120.0;DEBUG2;190.0;DEBUG3;109.0;DEBUG4;0.0
ATTITUDE;ANGX;1.0;ANGY;0.0;HEAD;-165.0
STATUS;CYCLETIME;2744;I2CERR;0;PRESENT;23;MODE;2
RAW_IMU;AX;4.0;AY;1.0;AZ;255.0;GX;0.0;GY;0.0;GZ;0.0;MAGX;3.0;MAGY;-54.0;MAGZ;-7.0
MOT;0;1000.0;1;1000.0;2;1000.0;3;1000.0;4;0.0;5;0.0;6;0.0;7;0.0;
RC;ROLL;1536.0;PITCH;1497.0;YAW;1460.0;THROTTLE;1118.0;AUX1;1530.0;AUX2;1500.0;AUX3;1500.0;AUX4;1500.0
ALTITUDE;20.0
DEBUG;DEBUG120.0;DEBUG2;190.0;DEBUG3;109.0;DEBUG4;0.0
ATTITUDE;ANGX;1.0;ANGY;0.0;HEAD;-165.0
STATUS;CYCLETIME;2776;I2CERR;0;PRESENT;23;MODE;2
RAW_IMU;AX;4.0;AY;1.0;AZ;255.0;GX;0.0;GY;0.0;GZ;0.0;MAGX;3.0;MAGY;-54.0;MAGZ;-7.0
MOT;0;1000.0;1;1000.0;2;1000.0;3;1000.0;4;0.0;5;0.0;6;0.0;7;0.0;
RC;ROLL;1538.0;PITCH;1497.0;YAW;1501.0;THROTTLE;1068.0;AUX1;1530.0;AUX2;1500.0;AUX3;1500.0;AUX4;1500.0
ALTITUDE;20.0
DEBUG;DEBUG120.0;DEBUG2;190.0;DEBUG3;109.0;DEBUG4;0.0
ATTITUDE;ANGX;1.0;ANGY;0.0;HEAD;-165.0
STATUS;CYCLETIME;2716;I2CERR;0;PRESENT;23;MODE;2
RAW_IMU;AX;4.0;AY;1.0;AZ;255.0;GX;0.0;GY;0.0;GZ;0.0;MAGX;3.0;MAGY;-55.0;MAGZ;-6.0
MOT;0;1000.0;1;1000.0;2;1000.0;3;1000.0;4;0.0;5;0.0;6;0.0;7;0.0;
RC;ROLL;1540.0;PITCH;1497.0;YAW;1519.0;THROTTLE;1049.0;AUX1;1532.0;AUX2;1500.0;AUX3;1500.0;AUX4;1500.0
ALTITUDE;20.0
DEBUG;DEBUG120.0;DEBUG2;190.0;DEBUG3;109.0;DEBUG4;0.0
ATTITUDE;ANGX;1.0;ANGY;0.0;HEAD;-165.0
STATUS;CYCLETIME;2840;I2CERR;0;PRESENT;23;MODE;2
RAW_IMU;AX;4.0;AY;1.0;AZ;255.0;GX;0.0;GY;0.0;GZ;0.0;MAGX;3.0;MAGY;-55.0;MAGZ;-6.0
MOT;0;1000.0;1;1000.0;2;1000.0;3;1000.0;4;0.0;5;0.0;6;0.0;7;0.0;
RC;ROLL;1540.0;PITCH;1497.0;YAW;1521.0;THROTTLE;1047.0;AUX1;1532.0;AUX2;1500.0;AUX3;1500.0;AUX4;1500.0
ALTITUDE;20.0
DEBUG;DEBUG120.0;DEBUG2;190.0;DEBUG3;109.0;DEBUG4;0.0
ATTITUDE;ANGX;1.0;ANGY;0.0;HEAD;-165.0
STATUS;CYCLETIME;2712;I2CERR;0;PRESENT;23;MODE;2
RAW_IMU;AX;4.0;AY;1.0;AZ;255.0;GX;0.0;GY;0.0;GZ;0.0;MAGX;4.0;MAGY;-54.0;MAGZ;-6.0
MOT;0;1000.0;1;1000.0;2;1000.0;3;1000.0;4;0.0;5;0.0;6;0.0;7;0.0;
RC;ROLL;1540.0;PITCH;1503.0;YAW;1497.0;THROTTLE;1055.0;AUX1;1542.0;AUX2;1500.0;AUX3;1500.0;AUX4;1500.0
ALTITUDE;20.0
DEBUG;DEBUG120.0;DEBUG2;190.0;DEBUG3;109.0;DEBUG4;0.0
ATTITUDE;ANGX;1.0;ANGY;0.0;HEAD;-165.0
STATUS;CYCLETIME;3004;I2CERR;0;PRESENT;23;MODE;2
RAW_IMU;AX;4.0;AY;1.0;AZ;255.0;GX;0.0;GY;0.0;GZ;0.0;MAGX;4.0;MAGY;-54.0;MAGZ;-6.0
MOT;0;1000.0;1;1000.0;2;1000.0;3;1000.0;4;0.0;5;0.0;6;0.0;7;0.0;
RC;ROLL;1538.0;PITCH;1512.0;YAW;1448.0;THROTTLE;1064.0;AUX1;1544.0;AUX2;1500.0;AUX3;1500.0;AUX4;1500.0
ALTITUDE;20.0
DEBUG;DEBUG120.0;DEBUG2;190.0;DEBUG3;109.0;DEBUG4;0.0
ATTITUDE;ANGX;1.0;ANGY;0.0;HEAD;-165.0
STATUS;CYCLETIME;3028;I2CERR;0;PRESENT;23;MODE;2
RAW_IMU;AX;4.0;AY;1.0;AZ;255.0;GX;0.0;GY;0.0;GZ;0.0;MAGX;3.0;MAGY;-54.0;MAGZ;-6.0
MOT;0;1000.0;1;1000.0;2;1000.0;3;1000.0;4;0.0;5;0.0;6;0.0;7;0.0;
RC;ROLL;1534.0;PITCH;1512.0;YAW;1453.0;THROTTLE;1064.0;AUX1;1537.0;AUX2;1500.0;AUX3;1500.0;AUX4;1500.0
ALTITUDE;20.0
DEBUG;DEBUG120.0;DEBUG2;190.0;DEBUG3;109.0;DEBUG4;0.0
ATTITUDE;ANGX;1.0;ANGY;0.0;HEAD;-165.0
STATUS;CYCLETIME;2796;I2CERR;0;PRESENT;23;MODE;2
RAW_IMU;AX;3.0;AY;1.0;AZ;255.0;GX;0.0;GY;0.0;GZ;0.0;MAGX;3.0;MAGY;-54.0;MAGZ;-6.0
MOT;0;1000.0;1;1000.0;2;1000.0;3;1000.0;4;0.0;5;0.0;6;0.0;7;0.0;
RC;ROLL;1534.0;PITCH;1499.0;YAW;1485.0;THROTTLE;1064.0;AUX1;1532.0;AUX2;1500.0;AUX3;1500.0;AUX4;1500.0
ALTITUDE;20.0
DEBUG;DEBUG120.0;DEBUG2;190.0;DEBUG3;109.0;DEBUG4;0.0
ATTITUDE;ANGX;1.0;ANGY;0.0;HEAD;-165.0
STATUS;CYCLETIME;2804;I2CERR;0;PRESENT;23;MODE;2
RAW_IMU;AX;4.0;AY;1.0;AZ;255.0;GX;0.0;GY;0.0;GZ;0.0;MAGX;3.0;MAGY;-54.0;MAGZ;-6.0
MOT;0;1000.0;1;1000.0;2;1000.0;3;1000.0;4;0.0;5;0.0;6;0.0;7;0.0;
RC;ROLL;1534.0;PITCH;1503.0;YAW;1485.0;THROTTLE;1064.0;AUX1;1527.0;AUX2;1500.0;AUX3;1500.0;AUX4;1500.0
ALTITUDE;20.0
DEBUG;DEBUG120.0;DEBUG2;190.0;DEBUG3;109.0;DEBUG4;0.0
ATTITUDE;ANGX;1.0;ANGY;0.0;HEAD;-165.0
STATUS;CYCLETIME;2772;I2CERR;0;PRESENT;23;MODE;2
RAW_IMU;AX;4.0;AY;1.0;AZ;255.0;GX;0.0;GY;0.0;GZ;0.0;MAGX;3.0;MAGY;-54.0;MAGZ;-6.0
MOT;0;1000.0;1;1000.0;2;1000.0;3;1000.0;4;0.0;5;0.0;6;0.0;7;0.0;
RC;ROLL;1534.0;PITCH;1510.0;YAW;1485.0;THROTTLE;1068.0;AUX1;1527.0;AUX2;1500.0;AUX3;1500.0;AUX4;1500.0
ALTITUDE;20.0
DEBUG;DEBUG120.0;DEBUG2;190.0;DEBUG3;109.0;DEBUG4;0.0
ATTITUDE;ANGX;1.0;ANGY;0.0;HEAD;-165.0
STATUS;CYCLETIME;2748;I2CERR;0;PRESENT;23;MODE;2
RAW_IMU;AX;4.0;AY;1.0;AZ;255.0;GX;0.0;GY;0.0;GZ;0.0;MAGX;3.0;MAGY;-55.0;MAGZ;-5.0
MOT;0;1000.0;1;1000.0;2;1000.0;3;1000.0;4;0.0;5;0.0;6;0.0;7;0.0;
RC;ROLL;1539.0;PITCH;1499.0;YAW;1488.0;THROTTLE;1068.0;AUX1;1530.0;AUX2;1500.0;AUX3;1500.0;AUX4;1500.0
ALTITUDE;20.0
