IDENT;V;220;TYPE;3
MSP_MOTOR_PINS
STATUS;CYCLETIME;2900;I2CERR;0;PRESENT;23;MODE;3
RAW_IMU;AX;-24.0;AY;3.0;AZ;251.0;GX;8.0;GY;8.0;GZ;0.0;MAGX;76.0;MAGY;-90.0;MAGZ;43.0
MOT;0;1150.0;1;1150.0;2;1150.0;3;1150.0;4;0.0;5;0.0;6;0.0;7;0.0;
RC;ROLL;1498.0;PITCH;1502.0;YAW;1506.0;THROTTLE;1063.0;AUX1;2002.0;AUX2;1500.0;AUX3;1500.0;AUX4;1500.0
ALTITUDE;49.0
DEBUG;DEBUG10.0;DEBUG2;0.0;DEBUG3;49.0;DEBUG4;0.0
ATTITUDE;ANGX;-14.0;ANGY;4.0;HEAD;-126.0
STATUS;CYCLETIME;2916;I2CERR;0;PRESENT;23;MODE;3
RAW_IMU;AX;-24.0;AY;5.0;AZ;254.0;GX;5.0;GY;5.0;GZ;0.0;MAGX;76.0;MAGY;-90.0;MAGZ;43.0
MOT;0;1150.0;1;1150.0;2;1150.0;3;1150.0;4;0.0;5;0.0;6;0.0;7;0.0;
RC;ROLL;1498.0;PITCH;1502.0;YAW;1506.0;THROTTLE;1063.0;AUX1;2002.0;AUX2;1500.0;AUX3;1500.0;AUX4;1500.0
ALTITUDE;49.0
DEBUG;DEBUG10.0;DEBUG2;0.0;DEBUG3;49.0;DEBUG4;0.0
ATTITUDE;ANGX;-13.0;ANGY;4.0;HEAD;-125.0
STATUS;CYCLETIME;2888;I2CERR;0;PRESENT;23;MODE;3
RAW_IMU;AX;-23.0;AY;7.0;AZ;255.0;GX;0.0;GY;0.0;GZ;0.0;MAGX;73.0;MAGY;-90.0;MAGZ;52.0
MOT;0;1150.0;1;1150.0;2;1150.0;3;1150.0;4;0.0;5;0.0;6;0.0;7;0.0;
RC;ROLL;1496.0;PITCH;1502.0;YAW;1506.0;THROTTLE;1063.0;AUX1;2002.0;AUX2;1500.0;AUX3;1500.0;AUX4;1500.0
ALTITUDE;49.0
DEBUG;DEBUG10.0;DEBUG2;0.0;DEBUG3;51.0;DEBUG4;0.0
ATTITUDE;ANGX;-12.0;ANGY;4.0;HEAD;-126.0
STATUS;CYCLETIME;2884;I2CERR;0;PRESENT;23;MODE;3
RAW_IMU;AX;-23.0;AY;9.0;AZ;252.0;GX;-5.0;GY;-3.0;GZ;2.0;MAGX;73.0;MAGY;-90.0;MAGZ;52.0
MOT;0;1150.0;1;1150.0;2;1150.0;3;1150.0;4;0.0;5;0.0;6;0.0;7;0.0;
RC;ROLL;1496.0;PITCH;1502.0;YAW;1506.0;THROTTLE;1063.0;AUX1;2002.0;AUX2;1500.0;AUX3;1500.0;AUX4;1500.0
ALTITUDE;51.0
DEBUG;DEBUG10.0;DEBUG2;0.0;DEBUG3;51.0;DEBUG4;0.0
ATTITUDE;ANGX;-13.0;ANGY;4.0;HEAD;-126.0
STATUS;CYCLETIME;2888;I2CERR;0;PRESENT;23;MODE;3
RAW_IMU;AX;-23.0;AY;4.0;AZ;251.0;GX;-8.0;GY;-4.0;GZ;3.0;MAGX;74.0;MAGY;-90.0;MAGZ;52.0
MOT;0;1150.0;1;1150.0;2;1150.0;3;1150.0;4;0.0;5;0.0;6;0.0;7;0.0;
RC;ROLL;1496.0;PITCH;1502.0;YAW;1509.0;THROTTLE;1063.0;AUX1;2002.0;AUX2;1500.0;AUX3;1500.0;AUX4;1500.0
ALTITUDE;51.0
DEBUG;DEBUG10.0;DEBUG2;0.0;DEBUG3;51.0;DEBUG4;0.0
ATTITUDE;ANGX;-13.0;ANGY;3.0;HEAD;-126.0
STATUS;CYCLETIME;2892;I2CERR;0;PRESENT;23;MODE;3
RAW_IMU;AX;-25.0;AY;1.0;AZ;250.0;GX;-8.0;GY;0.0;GZ;1.0;MAGX;74.0;MAGY;-90.0;MAGZ;52.0
MOT;0;1150.0;1;1150.0;2;1150.0;3;1150.0;4;0.0;5;0.0;6;0.0;7;0.0;
RC;ROLL;1496.0;PITCH;1502.0;YAW;1509.0;THROTTLE;1063.0;AUX1;2002.0;AUX2;1500.0;AUX3;1500.0;AUX4;1500.0
ALTITUDE;51.0
DEBUG;DEBUG10.0;DEBUG2;0.0;DEBUG3;51.0;DEBUG4;0.0
ATTITUDE;ANGX;-14.0;ANGY;3.0;HEAD;-125.0
STATUS;CYCLETIME;3048;I2CERR;0;PRESENT;23;MODE;3
RAW_IMU;AX;-27.0;AY;-1.0;AZ;252.0;GX;-5.0;GY;3.0;GZ;0.0;MAGX;76.0;MAGY;-90.0;MAGZ;48.0
MOT;0;1150.0;1;1150.0;2;1150.0;3;1150.0;4;0.0;5;0.0;6;0.0;7;0.0;
RC;ROLL;1496.0;PITCH;1500.0;YAW;1509.0;THROTTLE;1063.0;AUX1;2002.0;AUX2;1500.0;AUX3;1500.0;AUX4;1500.0
ALTITUDE;51.0
DEBUG;DEBUG10.0;DEBUG2;0.0;DEBUG3;51.0;DEBUG4;0.0
ATTITUDE;ANGX;-15.0;ANGY;3.0;HEAD;-125.0
STATUS;CYCLETIME;3036;I2CERR;0;PRESENT;23;MODE;3
RAW_IMU;AX;-28.0;AY;0.0;AZ;254.0;GX;-1.0;GY;4.0;GZ;0.0;MAGX;76.0;MAGY;-90.0;MAGZ;48.0
MOT;0;1150.0;1;1150.0;2;1150.0;3;1150.0;4;0.0;5;0.0;6;0.0;7;0.0;
RC;ROLL;1496.0;PITCH;1500.0;YAW;1509.0;THROTTLE;1063.0;AUX1;2002.0;AUX2;1500.0;AUX3;1500.0;AUX4;1500.0
ALTITUDE;50.0
DEBUG;DEBUG10.0;DEBUG2;0.0;DEBUG3;50.0;DEBUG4;0.0
ATTITUDE;ANGX;-15.0;ANGY;3.0;HEAD;-125.0
STATUS;CYCLETIME;2880;I2CERR;0;PRESENT;23;MODE;3
RAW_IMU;AX;-29.0;AY;4.0;AZ;257.0;GX;1.0;GY;3.0;GZ;2.0;MAGX;74.0;MAGY;-90.0;MAGZ;47.0
MOT;0;1150.0;1;1150.0;2;1150.0;3;1150.0;4;0.0;5;0.0;6;0.0;7;0.0;
RC;ROLL;1496.0;PITCH;1502.0;YAW;1509.0;THROTTLE;1063.0;AUX1;2002.0;AUX2;1500.0;AUX3;1500.0;AUX4;1500.0
ALTITUDE;50.0
DEBUG;DEBUG10.0;DEBUG2;0.0;DEBUG3;50.0;DEBUG4;0.0
ATTITUDE;ANGX;-14.0;ANGY;4.0;HEAD;-125.0
STATUS;CYCLETIME;2908;I2CERR;0;PRESENT;23;MODE;3
RAW_IMU;AX;-25.0;AY;6.0;AZ;256.0;GX;0.0;GY;0.0;GZ;3.0;MAGX;74.0;MAGY;-90.0;MAGZ;47.0
MOT;0;1150.0;1;1150.0;2;1150.0;3;1150.0;4;0.0;5;0.0;6;0.0;7;0.0;
RC;ROLL;1498.0;PITCH;1502.0;YAW;1509.0;THROTTLE;1063.0;AUX1;2002.0;AUX2;1500.0;AUX3;1500.0;AUX4;1500.0
ALTITUDE;50.0
DEBUG;DEBUG10.0;DEBUG2;0.0;DEBUG3;50.0;DEBUG4;0.0
ATTITUDE;ANGX;-14.0;ANGY;4.0;HEAD;-125.0
STATUS;CYCLETIME;2896;I2CERR;0;PRESENT;23;MODE;3
RAW_IMU;AX;-24.0;AY;4.0;AZ;255.0;GX;-3.0;GY;-2.0;GZ;2.0;MAGX;73.0;MAGY;-90.0;MAGZ;49.0
MOT;0;1150.0;1;1150.0;2;1150.0;3;1150.0;4;0.0;5;0.0;6;0.0;7;0.0;
RC;ROLL;1498.0;PITCH;1502.0;YAW;1509.0;THROTTLE;1063.0;AUX1;2002.0;AUX2;1500.0;AUX3;1500.0;AUX4;1500.0
ALTITUDE;50.0
DEBUG;DEBUG10.0;DEBUG2;0.0;DEBUG3;50.0;DEBUG4;0.0
ATTITUDE;ANGX;-14.0;ANGY;3.0;HEAD;-125.0
STATUS;CYCLETIME;2916;I2CERR;0;PRESENT;23;MODE;3
RAW_IMU;AX;-22.0;AY;5.0;AZ;256.0;GX;-8.0;GY;-1.0;GZ;1.0;MAGX;73.0;MAGY;-90.0;MAGZ;49.0
MOT;0;1150.0;1;1150.0;2;1150.0;3;1150.0;4;0.0;5;0.0;6;0.0;7;0.0;
RC;ROLL;1498.0;PITCH;1502.0;YAW;1509.0;THROTTLE;1058.0;AUX1;2000.0;AUX2;1500.0;AUX3;1500.0;AUX4;1500.0
ALTITUDE;50.0
DEBUG;DEBUG10.0;DEBUG2;0.0;DEBUG3;50.0;DEBUG4;0.0
ATTITUDE;ANGX;-14.0;ANGY;3.0;HEAD;-125.0
STATUS;CYCLETIME;3224;I2CERR;0;PRESENT;23;MODE;3
RAW_IMU;AX;-24.0;AY;2.0;AZ;255.0;GX;-11.0;GY;1.0;GZ;1.0;MAGX;75.0;MAGY;-90.0;MAGZ;46.0
MOT;0;1150.0;1;1150.0;2;1150.0;3;1150.0;4;0.0;5;0.0;6;0.0;7;0.0;
RC;ROLL;1498.0;PITCH;1502.0;YAW;1509.0;THROTTLE;1060.0;AUX1;2000.0;AUX2;1500.0;AUX3;1500.0;AUX4;1500.0
ALTITUDE;50.0
DEBUG;DEBUG10.0;DEBUG2;0.0;DEBUG3;50.0;DEBUG4;0.0
ATTITUDE;ANGX;-15.0;ANGY;3.0;HEAD;-125.0
STATUS;CYCLETIME;2880;I2CERR;0;PRESENT;23;MODE;3
RAW_IMU;AX;-25.0;AY;3.0;AZ;252.0;GX;-11.0;GY;3.0;GZ;2.0;MAGX;75.0;MAGY;-90.0;MAGZ;46.0
MOT;0;1150.0;1;1150.0;2;1150.0;3;1150.0;4;0.0;5;0.0;6;0.0;7;0.0;
RC;ROLL;1498.0;PITCH;1502.0;YAW;1507.0;THROTTLE;1062.0;AUX1;2000.0;AUX2;1500.0;AUX3;1500.0;AUX4;1500.0
ALTITUDE;50.0
DEBUG;DEBUG10.0;DEBUG2;0.0;DEBUG3;50.0;DEBUG4;0.0
ATTITUDE;ANGX;-16.0;ANGY;3.0;HEAD;-125.0
STATUS;CYCLETIME;2992;I2CERR;0;PRESENT;23;MODE;3
RAW_IMU;AX;-26.0;AY;4.0;AZ;253.0;GX;-7.0;GY;4.0;GZ;3.0;MAGX;75.0;MAGY;-90.0;MAGZ;46.0
MOT;0;1150.0;1;1150.0;2;1150.0;3;1150.0;4;0.0;5;0.0;6;0.0;7;0.0;
RC;ROLL;1498.0;PITCH;1502.0;YAW;1507.0;THROTTLE;1062.0;AUX1;2000.0;AUX2;1500.0;AUX3;1500.0;AUX4;1500.0
ALTITUDE;50.0
DEBUG;DEBUG10.0;DEBUG2;0.0;DEBUG3;50.0;DEBUG4;0.0
ATTITUDE;ANGX;-17.0;ANGY;3.0;HEAD;-125.0
STATUS;CYCLETIME;2904;I2CERR;0;PRESENT;23;MODE;3
RAW_IMU;AX;-27.0;AY;4.0;AZ;251.0;GX;-4.0;GY;3.0;GZ;1.0;MAGX;74.0;MAGY;-92.0;MAGZ;41.0
MOT;0;1150.0;1;1150.0;2;1150.0;3;1150.0;4;0.0;5;0.0;6;0.0;7;0.0;
RC;ROLL;1498.0;PITCH;1504.0;YAW;1505.0;THROTTLE;1062.0;AUX1;2002.0;AUX2;1500.0;AUX3;1500.0;AUX4;1500.0
ALTITUDE;50.0
DEBUG;DEBUG10.0;DEBUG2;0.0;DEBUG3;50.0;DEBUG4;0.0
ATTITUDE;ANGX;-17.0;ANGY;4.0;HEAD;-124.0
STATUS;CYCLETIME;2900;I2CERR;0;PRESENT;23;MODE;3
RAW_IMU;AX;-27.0;AY;6.0;AZ;254.0;GX;0.0;GY;0.0;GZ;0.0;MAGX;74.0;MAGY;-92.0;MAGZ;41.0
MOT;0;1150.0;1;1150.0;2;1150.0;3;1150.0;4;0.0;5;0.0;6;0.0;7;0.0;
RC;ROLL;1496.0;PITCH;1504.0;YAW;1508.0;THROTTLE;1062.0;AUX1;2002.0;AUX2;1500.0;AUX3;1500.0;AUX4;1500.0
ALTITUDE;50.0
DEBUG;DEBUG10.0;DEBUG2;0.0;DEBUG3;50.0;DEBUG4;0.0
ATTITUDE;ANGX;-17.0;ANGY;4.0;HEAD;-125.0
STATUS;CYCLETIME;2904;I2CERR;0;PRESENT;23;MODE;3
RAW_IMU;AX;-27.0;AY;8.0;AZ;255.0;GX;3.0;GY;0.0;GZ;1.0;MAGX;73.0;MAGY;-91.0;MAGZ;40.0
MOT;0;1150.0;1;1150.0;2;1150.0;3;1150.0;4;0.0;5;0.0;6;0.0;7;0.0;
RC;ROLL;1496.0;PITCH;1504.0;YAW;1508.0;THROTTLE;1062.0;AUX1;2002.0;AUX2;1500.0;AUX3;1500.0;AUX4;1500.0
ALTITUDE;50.0
DEBUG;DEBUG10.0;DEBUG2;0.0;DEBUG3;50.0;DEBUG4;0.0
ATTITUDE;ANGX;-17.0;ANGY;4.0;HEAD;-125.0
STATUS;CYCLETIME;2896;I2CERR;0;PRESENT;23;MODE;3
RAW_IMU;AX;-26.0;AY;5.0;AZ;256.0;GX;4.0;GY;0.0;GZ;2.0;MAGX;73.0;MAGY;-91.0;MAGZ;40.0
MOT;0;1150.0;1;1150.0;2;1150.0;3;1150.0;4;0.0;5;0.0;6;0.0;7;0.0;
RC;ROLL;1496.0;PITCH;1504.0;YAW;1508.0;THROTTLE;1062.0;AUX1;2002.0;AUX2;1500.0;AUX3;1500.0;AUX4;1500.0
ALTITUDE;50.0
DEBUG;DEBUG10.0;DEBUG2;0.0;DEBUG3;50.0;DEBUG4;0.0
ATTITUDE;ANGX;-16.0;ANGY;3.0;HEAD;-125.0
STATUS;CYCLETIME;2900;I2CERR;0;PRESENT;23;MODE;3
RAW_IMU;AX;-25.0;AY;4.0;AZ;256.0;GX;3.0;GY;0.0;GZ;1.0;MAGX;73.0;MAGY;-92.0;MAGZ;44.0
MOT;0;1150.0;1;1150.0;2;1150.0;3;1150.0;4;0.0;5;0.0;6;0.0;7;0.0;
RC;ROLL;1496.0;PITCH;1504.0;YAW;1508.0;THROTTLE;1062.0;AUX1;2002.0;AUX2;1500.0;AUX3;1500.0;AUX4;1500.0
ALTITUDE;50.0
DEBUG;DEBUG10.0;DEBUG2;0.0;DEBUG3;50.0;DEBUG4;0.0
ATTITUDE;ANGX;-15.0;ANGY;3.0;HEAD;-125.0
STATUS;CYCLETIME;2908;I2CERR;0;PRESENT;23;MODE;3
RAW_IMU;AX;-22.0;AY;1.0;AZ;257.0;GX;1.0;GY;0.0;GZ;0.0;MAGX;73.0;MAGY;-92.0;MAGZ;44.0
MOT;0;1150.0;1;1150.0;2;1150.0;3;1150.0;4;0.0;5;0.0;6;0.0;7;0.0;
RC;ROLL;1496.0;PITCH;1504.0;YAW;1508.0;THROTTLE;1062.0;AUX1;2002.0;AUX2;1500.0;AUX3;1500.0;AUX4;1500.0
ALTITUDE;50.0
DEBUG;DEBUG10.0;DEBUG2;0.0;DEBUG3;50.0;DEBUG4;0.0
ATTITUDE;ANGX;-15.0;ANGY;3.0;HEAD;-125.0
STATUS;CYCLETIME;2928;I2CERR;0;PRESENT;23;MODE;3
RAW_IMU;AX;-24.0;AY;1.0;AZ;257.0;GX;-2.0;GY;0.0;GZ;0.0;MAGX;74.0;MAGY;-91.0;MAGZ;48.0
MOT;0;1150.0;1;1150.0;2;1150.0;3;1150.0;4;0.0;5;0.0;6;0.0;7;0.0;
RC;ROLL;1496.0;PITCH;1502.0;YAW;1508.0;THROTTLE;1062.0;AUX1;2002.0;AUX2;1500.0;AUX3;1500.0;AUX4;1500.0
ALTITUDE;50.0
DEBUG;DEBUG10.0;DEBUG2;0.0;DEBUG3;50.0;DEBUG4;0.0
ATTITUDE;ANGX;-14.0;ANGY;3.0;HEAD;-125.0
STATUS;CYCLETIME;2992;I2CERR;0;PRESENT;23;MODE;3
RAW_IMU;AX;-23.0;AY;1.0;AZ;256.0;GX;-4.0;GY;2.0;GZ;1.0;MAGX;74.0;MAGY;-91.0;MAGZ;48.0
MOT;0;1150.0;1;1150.0;2;1150.0;3;1150.0;4;0.0;5;0.0;6;0.0;7;0.0;
RC;ROLL;1496.0;PITCH;1502.0;YAW;1508.0;THROTTLE;1064.0;AUX1;2002.0;AUX2;1500.0;AUX3;1500.0;AUX4;1500.0
ALTITUDE;50.0
DEBUG;DEBUG10.0;DEBUG2;0.0;DEBUG3;50.0;DEBUG4;0.0
ATTITUDE;ANGX;-15.0;ANGY;3.0;HEAD;-125.0
STATUS;CYCLETIME;2884;I2CERR;0;PRESENT;23;MODE;3
RAW_IMU;AX;-23.0;AY;3.0;AZ;258.0;GX;-4.0;GY;2.0;GZ;2.0;MAGX;74.0;MAGY;-91.0;MAGZ;47.0
MOT;0;1150.0;1;1150.0;2;1150.0;3;1150.0;4;0.0;5;0.0;6;0.0;7;0.0;
RC;ROLL;1498.0;PITCH;1500.0;YAW;1508.0;THROTTLE;1064.0;AUX1;2002.0;AUX2;1500.0;AUX3;1500.0;AUX4;1500.0
ALTITUDE;50.0
DEBUG;DEBUG10.0;DEBUG2;0.0;DEBUG3;50.0;DEBUG4;0.0
ATTITUDE;ANGX;-15.0;ANGY;3.0;HEAD;-125.0
STATUS;CYCLETIME;2892;I2CERR;0;PRESENT;23;MODE;3
RAW_IMU;AX;-24.0;AY;5.0;AZ;260.0;GX;-4.0;GY;2.0;GZ;1.0;MAGX;74.0;MAGY;-91.0;MAGZ;47.0
MOT;0;1150.0;1;1150.0;2;1150.0;3;1150.0;4;0.0;5;0.0;6;0.0;7;0.0;
RC;ROLL;1498.0;PITCH;1500.0;YAW;1508.0;THROTTLE;1064.0;AUX1;2002.0;AUX2;1500.0;AUX3;1500.0;AUX4;1500.0
ALTITUDE;50.0
DEBUG;DEBUG10.0;DEBUG2;0.0;DEBUG3;50.0;DEBUG4;0.0
ATTITUDE;ANGX;-15.0;ANGY;3.0;HEAD;-125.0
STATUS;CYCLETIME;2924;I2CERR;0;PRESENT;23;MODE;3
RAW_IMU;AX;-23.0;AY;6.0;AZ;257.0;GX;-1.0;GY;1.0;GZ;0.0;MAGX;73.0;MAGY;-91.0;MAGZ;46.0
MOT;0;1150.0;1;1150.0;2;1150.0;3;1150.0;4;0.0;5;0.0;6;0.0;7;0.0;
RC;ROLL;1493.0;PITCH;1500.0;YAW;1508.0;THROTTLE;1064.0;AUX1;2002.0;AUX2;1500.0;AUX3;1500.0;AUX4;1500.0
ALTITUDE;50.0
DEBUG;DEBUG10.0;DEBUG2;0.0;DEBUG3;50.0;DEBUG4;0.0
ATTITUDE;ANGX;-15.0;ANGY;3.0;HEAD;-125.0
STATUS;CYCLETIME;2904;I2CERR;0;PRESENT;23;MODE;3
RAW_IMU;AX;-25.0;AY;7.0;AZ;256.0;GX;0.0;GY;1.0;GZ;0.0;MAGX;73.0;MAGY;-91.0;MAGZ;46.0
MOT;0;1150.0;1;1150.0;2;1150.0;3;1150.0;4;0.0;5;0.0;6;0.0;7;0.0;
RC;ROLL;1493.0;PITCH;1500.0;YAW;1508.0;THROTTLE;1064.0;AUX1;2000.0;AUX2;1500.0;AUX3;1500.0;AUX4;1500.0
ALTITUDE;49.0
DEBUG;DEBUG10.0;DEBUG2;0.0;DEBUG3;49.0;DEBUG4;0.0
ATTITUDE;ANGX;-15.0;ANGY;4.0;HEAD;-125.0
STATUS;CYCLETIME;2888;I2CERR;0;PRESENT;23;MODE;3
RAW_IMU;AX;-25.0;AY;7.0;AZ;252.0;GX;0.0;GY;1.0;GZ;1.0;MAGX;73.0;MAGY;-91.0;MAGZ;46.0
MOT;0;1150.0;1;1150.0;2;1150.0;3;1150.0;4;0.0;5;0.0;6;0.0;7;0.0;
RC;ROLL;1495.0;PITCH;1500.0;YAW;1508.0;THROTTLE;1064.0;AUX1;2000.0;AUX2;1500.0;AUX3;1500.0;AUX4;1500.0
ALTITUDE;49.0
DEBUG;DEBUG10.0;DEBUG2;0.0;DEBUG3;49.0;DEBUG4;0.0
ATTITUDE;ANGX;-15.0;ANGY;4.0;HEAD;-125.0
STATUS;CYCLETIME;2884;I2CERR;0;PRESENT;23;MODE;3
RAW_IMU;AX;-23.0;AY;8.0;AZ;252.0;GX;-1.0;GY;0.0;GZ;0.0;MAGX;73.0;MAGY;-92.0;MAGZ;49.0
MOT;0;1150.0;1;1150.0;2;1150.0;3;1150.0;4;0.0;5;0.0;6;0.0;7;0.0;
RC;ROLL;1495.0;PITCH;1500.0;YAW;1508.0;THROTTLE;1064.0;AUX1;2002.0;AUX2;1500.0;AUX3;1500.0;AUX4;1500.0
ALTITUDE;49.0
DEBUG;DEBUG10.0;DEBUG2;0.0;DEBUG3;49.0;DEBUG4;0.0
ATTITUDE;ANGX;-14.0;ANGY;4.0;HEAD;-125.0
STATUS;CYCLETIME;2904;I2CERR;0;PRESENT;23;MODE;3
RAW_IMU;AX;-22.0;AY;11.0;AZ;255.0;GX;-4.0;GY;1.0;GZ;0.0;MAGX;73.0;MAGY;-92.0;MAGZ;49.0
MOT;0;1150.0;1;1150.0;2;1150.0;3;1150.0;4;0.0;5;0.0;6;0.0;7;0.0;
RC;ROLL;1498.0;PITCH;1500.0;YAW;1508.0;THROTTLE;1064.0;AUX1;2002.0;AUX2;1500.0;AUX3;1500.0;AUX4;1500.0
ALTITUDE;49.0
DEBUG;DEBUG10.0;DEBUG2;0.0;DEBUG3;49.0;DEBUG4;0.0
ATTITUDE;ANGX;-15.0;ANGY;4.0;HEAD;-125.0
STATUS;CYCLETIME;2920;I2CERR;0;PRESENT;23;MODE;3
RAW_IMU;AX;-22.0;AY;7.0;AZ;255.0;GX;-6.0;GY;0.0;GZ;0.0;MAGX;72.0;MAGY;-91.0;MAGZ;49.0
MOT;0;1150.0;1;1150.0;2;1150.0;3;1150.0;4;0.0;5;0.0;6;0.0;7;0.0;
RC;ROLL;1498.0;PITCH;1503.0;YAW;1508.0;THROTTLE;1064.0;AUX1;2002.0;AUX2;1500.0;AUX3;1500.0;AUX4;1500.0
ALTITUDE;49.0
DEBUG;DEBUG10.0;DEBUG2;0.0;DEBUG3;49.0;DEBUG4;0.0
ATTITUDE;ANGX;-15.0;ANGY;4.0;HEAD;-126.0
STATUS;CYCLETIME;2904;I2CERR;0;PRESENT;23;MODE;3
RAW_IMU;AX;-23.0;AY;6.0;AZ;255.0;GX;-5.0;GY;0.0;GZ;0.0;MAGX;72.0;MAGY;-91.0;MAGZ;49.0
MOT;0;1150.0;1;1150.0;2;1150.0;3;1150.0;4;0.0;5;0.0;6;0.0;7;0.0;
RC;ROLL;1498.0;PITCH;1503.0;YAW;1499.0;THROTTLE;1064.0;AUX1;2002.0;AUX2;1500.0;AUX3;1500.0;AUX4;1500.0
ALTITUDE;49.0
DEBUG;DEBUG10.0;DEBUG2;0.0;DEBUG3;49.0;DEBUG4;0.0
ATTITUDE;ANGX;-15.0;ANGY;4.0;HEAD;-126.0
STATUS;CYCLETIME;2904;I2CERR;0;PRESENT;23;MODE;3
RAW_IMU;AX;-26.0;AY;6.0;AZ;255.0;GX;-2.0;GY;0.0;GZ;1.0;MAGX;72.0;MAGY;-91.0;MAGZ;46.0
MOT;0;1150.0;1;1150.0;2;1150.0;3;1150.0;4;0.0;5;0.0;6;0.0;7;0.0;
RC;ROLL;1498.0;PITCH;1503.0;YAW;1428.0;THROTTLE;1062.0;AUX1;2002.0;AUX2;1500.0;AUX3;1500.0;AUX4;1500.0
ALTITUDE;49.0
DEBUG;DEBUG10.0;DEBUG2;0.0;DEBUG3;49.0;DEBUG4;0.0
ATTITUDE;ANGX;-15.0;ANGY;4.0;HEAD;-126.0
STATUS;CYCLETIME;2968;I2CERR;0;PRESENT;23;MODE;3
RAW_IMU;AX;-22.0;AY;4.0;AZ;252.0;GX;0.0;GY;1.0;GZ;1.0;MAGX;72.0;MAGY;-91.0;MAGZ;46.0
MOT;0;1150.0;1;1150.0;2;1150.0;3;1150.0;4;0.0;5;0.0;6;0.0;7;0.0;
RC;ROLL;1498.0;PITCH;1503.0;YAW;1219.0;THROTTLE;1054.0;AUX1;2000.0;AUX2;1500.0;AUX3;1500.0;AUX4;1500.0
ALTITUDE;49.0
DEBUG;DEBUG10.0;DEBUG2;0.0;DEBUG3;49.0;DEBUG4;0.0
ATTITUDE;ANGX;-15.0;ANGY;4.0;HEAD;-126.0
STATUS;CYCLETIME;2908;I2CERR;0;PRESENT;23;MODE;3
RAW_IMU;AX;-22.0;AY;5.0;AZ;256.0;GX;2.0;GY;0.0;GZ;0.0;MAGX;74.0;MAGY;-92.0;MAGZ;49.0
MOT;0;1150.0;1;1150.0;2;1150.0;3;1150.0;4;0.0;5;0.0;6;0.0;7;0.0;
RC;ROLL;1498.0;PITCH;1503.0;YAW;1087.0;THROTTLE;1052.0;AUX1;2005.0;AUX2;1500.0;AUX3;1500.0;AUX4;1500.0
ALTITUDE;49.0
DEBUG;DEBUG10.0;DEBUG2;0.0;DEBUG3;49.0;DEBUG4;0.0
ATTITUDE;ANGX;-15.0;ANGY;3.0;HEAD;-126.0
STATUS;CYCLETIME;2924;I2CERR;0;PRESENT;23;MODE;3
RAW_IMU;AX;-23.0;AY;3.0;AZ;256.0;GX;1.0;GY;0.0;GZ;0.0;MAGX;74.0;MAGY;-92.0;MAGZ;49.0
MOT;0;1150.0;1;1150.0;2;1150.0;3;1150.0;4;0.0;5;0.0;6;0.0;7;0.0;
RC;ROLL;1498.0;PITCH;1503.0;YAW;1034.0;THROTTLE;1052.0;AUX1;2010.0;AUX2;1500.0;AUX3;1500.0;AUX4;1500.0
ALTITUDE;49.0
DEBUG;DEBUG10.0;DEBUG2;0.0;DEBUG3;49.0;DEBUG4;0.0
ATTITUDE;ANGX;-14.0;ANGY;3.0;HEAD;-126.0
STATUS;CYCLETIME;3172;I2CERR;0;PRESENT;23;MODE;3
RAW_IMU;AX;-24.0;AY;5.0;AZ;255.0;GX;-1.0;GY;1.0;GZ;1.0;MAGX;74.0;MAGY;-91.0;MAGZ;50.0
MOT;0;1150.0;1;1150.0;2;1150.0;3;1150.0;4;0.0;5;0.0;6;0.0;7;0.0;
RC;ROLL;1498.0;PITCH;1503.0;YAW;1034.0;THROTTLE;1052.0;AUX1;2010.0;AUX2;1500.0;AUX3;1500.0;AUX4;1500.0
ALTITUDE;49.0
DEBUG;DEBUG10.0;DEBUG2;0.0;DEBUG3;49.0;DEBUG4;0.0
ATTITUDE;ANGX;-14.0;ANGY;3.0;HEAD;-126.0
STATUS;CYCLETIME;2884;I2CERR;0;PRESENT;23;MODE;3
RAW_IMU;AX;-23.0;AY;6.0;AZ;254.0;GX;-4.0;GY;2.0;GZ;2.0;MAGX;74.0;MAGY;-91.0;MAGZ;50.0
MOT;0;1150.0;1;1150.0;2;1150.0;3;1150.0;4;0.0;5;0.0;6;0.0;7;0.0;
RC;ROLL;1498.0;PITCH;1503.0;YAW;1031.0;THROTTLE;1052.0;AUX1;2010.0;AUX2;1500.0;AUX3;1500.0;AUX4;1500.0
ALTITUDE;49.0
DEBUG;DEBUG10.0;DEBUG2;0.0;DEBUG3;49.0;DEBUG4;0.0
ATTITUDE;ANGX;-14.0;ANGY;4.0;HEAD;-126.0
STATUS;CYCLETIME;2892;I2CERR;0;PRESENT;23;MODE;3
RAW_IMU;AX;-21.0;AY;3.0;AZ;254.0;GX;-6.0;GY;2.0;GZ;1.0;MAGX;74.0;MAGY;-91.0;MAGZ;50.0
MOT;0;1150.0;1;1150.0;2;1150.0;3;1150.0;4;0.0;5;0.0;6;0.0;7;0.0;
RC;ROLL;1496.0;PITCH;1503.0;YAW;1029.0;THROTTLE;1052.0;AUX1;2010.0;AUX2;1500.0;AUX3;1500.0;AUX4;1500.0
ALTITUDE;49.0
DEBUG;DEBUG10.0;DEBUG2;0.0;DEBUG3;49.0;DEBUG4;0.0
ATTITUDE;ANGX;-15.0;ANGY;4.0;HEAD;-126.0
STATUS;CYCLETIME;2916;I2CERR;0;PRESENT;23;MODE;3
RAW_IMU;AX;-23.0;AY;3.0;AZ;253.0;GX;-6.0;GY;1.0;GZ;0.0;MAGX;73.0;MAGY;-91.0;MAGZ;49.0
MOT;0;1150.0;1;1150.0;2;1150.0;3;1150.0;4;0.0;5;0.0;6;0.0;7;0.0;
RC;ROLL;1496.0;PITCH;1503.0;YAW;1029.0;THROTTLE;1052.0;AUX1;2010.0;AUX2;1500.0;AUX3;1500.0;AUX4;1500.0
ALTITUDE;49.0
DEBUG;DEBUG10.0;DEBUG2;0.0;DEBUG3;49.0;DEBUG4;0.0
ATTITUDE;ANGX;-15.0;ANGY;4.0;HEAD;-126.0
STATUS;CYCLETIME;2912;I2CERR;0;PRESENT;23;MODE;3
RAW_IMU;AX;-27.0;AY;6.0;AZ;253.0;GX;-3.0;GY;0.0;GZ;0.0;MAGX;73.0;MAGY;-91.0;MAGZ;49.0
MOT;0;1150.0;1;1150.0;2;1150.0;3;1150.0;4;0.0;5;0.0;6;0.0;7;0.0;
RC;ROLL;1496.0;PITCH;1503.0;YAW;1029.0;THROTTLE;1052.0;AUX1;2010.0;AUX2;1500.0;AUX3;1500.0;AUX4;1500.0
ALTITUDE;49.0
DEBUG;DEBUG10.0;DEBUG2;0.0;DEBUG3;49.0;DEBUG4;0.0
ATTITUDE;ANGX;-15.0;ANGY;4.0;HEAD;-126.0
STATUS;CYCLETIME;3008;I2CERR;0;PRESENT;23;MODE;3
RAW_IMU;AX;-27.0;AY;6.0;AZ;255.0;GX;0.0;GY;0.0;GZ;1.0;MAGX;72.0;MAGY;-91.0;MAGZ;46.0
MOT;0;1150.0;1;1150.0;2;1150.0;3;1150.0;4;0.0;5;0.0;6;0.0;7;0.0;
RC;ROLL;1496.0;PITCH;1503.0;YAW;1029.0;THROTTLE;1052.0;AUX1;2010.0;AUX2;1500.0;AUX3;1500.0;AUX4;1500.0
ALTITUDE;49.0
DEBUG;DEBUG10.0;DEBUG2;0.0;DEBUG3;49.0;DEBUG4;0.0
ATTITUDE;ANGX;-15.0;ANGY;4.0;HEAD;-126.0
STATUS;CYCLETIME;3032;I2CERR;0;PRESENT;23;MODE;3
RAW_IMU;AX;-29.0;AY;7.0;AZ;254.0;GX;2.0;GY;0.0;GZ;1.0;MAGX;72.0;MAGY;-91.0;MAGZ;46.0
MOT;0;1150.0;1;1150.0;2;1150.0;3;1150.0;4;0.0;5;0.0;6;0.0;7;0.0;
RC;ROLL;1496.0;PITCH;1503.0;YAW;1029.0;THROTTLE;1054.0;AUX1;2010.0;AUX2;1500.0;AUX3;1500.0;AUX4;1500.0
ALTITUDE;49.0
DEBUG;DEBUG10.0;DEBUG2;0.0;DEBUG3;49.0;DEBUG4;0.0
ATTITUDE;ANGX;-15.0;ANGY;3.0;HEAD;-126.0
STATUS;CYCLETIME;2900;I2CERR;0;PRESENT;23;MODE;2
RAW_IMU;AX;-24.0;AY;4.0;AZ;254.0;GX;3.0;GY;0.0;GZ;0.0;MAGX;73.0;MAGY;-92.0;MAGZ;47.0
MOT;0;1000.0;1;1000.0;2;1000.0;3;1000.0;4;0.0;5;0.0;6;0.0;7;0.0;
RC;ROLL;1496.0;PITCH;1503.0;YAW;1029.0;THROTTLE;1052.0;AUX1;2010.0;AUX2;1500.0;AUX3;1500.0;AUX4;1500.0
ALTITUDE;49.0
DEBUG;DEBUG10.0;DEBUG2;0.0;DEBUG3;49.0;DEBUG4;0.0
ATTITUDE;ANGX;-14.0;ANGY;3.0;HEAD;-126.0
STATUS;CYCLETIME;2940;I2CERR;0;PRESENT;23;MODE;2
RAW_IMU;AX;-22.0;AY;3.0;AZ;256.0;GX;0.0;GY;1.0;GZ;0.0;MAGX;73.0;MAGY;-92.0;MAGZ;47.0
MOT;0;1000.0;1;1000.0;2;1000.0;3;1000.0;4;0.0;5;0.0;6;0.0;7;0.0;
RC;ROLL;1496.0;PITCH;1503.0;YAW;1029.0;THROTTLE;1050.0;AUX1;2010.0;AUX2;1500.0;AUX3;1500.0;AUX4;1500.0
ALTITUDE;49.0
DEBUG;DEBUG10.0;DEBUG2;0.0;DEBUG3;49.0;DEBUG4;0.0
ATTITUDE;ANGX;-14.0;ANGY;3.0;HEAD;-126.0
STATUS;CYCLETIME;2892;I2CERR;0;PRESENT;23;MODE;2
RAW_IMU;AX;-23.0;AY;3.0;AZ;258.0;GX;-2.0;GY;2.0;GZ;2.0;MAGX;74.0;MAGY;-91.0;MAGZ;51.0
MOT;0;1000.0;1;1000.0;2;1000.0;3;1000.0;4;0.0;5;0.0;6;0.0;7;0.0;
RC;ROLL;1500.0;PITCH;1503.0;YAW;1029.0;THROTTLE;1050.0;AUX1;2010.0;AUX2;1500.0;AUX3;1500.0;AUX4;1500.0
ALTITUDE;48.0
DEBUG;DEBUG10.0;DEBUG2;0.0;DEBUG3;48.0;DEBUG4;0.0
ATTITUDE;ANGX;-14.0;ANGY;3.0;HEAD;-126.0
STATUS;CYCLETIME;2912;I2CERR;0;PRESENT;23;MODE;2
RAW_IMU;AX;-20.0;AY;6.0;AZ;264.0;GX;-6.0;GY;2.0;GZ;4.0;MAGX;74.0;MAGY;-91.0;MAGZ;51.0
MOT;0;1000.0;1;1000.0;2;1000.0;3;1000.0;4;0.0;5;0.0;6;0.0;7;0.0;
RC;ROLL;1500.0;PITCH;1503.0;YAW;1032.0;THROTTLE;1050.0;AUX1;2010.0;AUX2;1500.0;AUX3;1500.0;AUX4;1500.0
ALTITUDE;48.0
DEBUG;DEBUG10.0;DEBUG2;0.0;DEBUG3;48.0;DEBUG4;0.0
ATTITUDE;ANGX;-14.0;ANGY;4.0;HEAD;-126.0
STATUS;CYCLETIME;2900;I2CERR;0;PRESENT;23;MODE;2
RAW_IMU;AX;-23.0;AY;5.0;AZ;259.0;GX;-8.0;GY;1.0;GZ;3.0;MAGX;73.0;MAGY;-91.0;MAGZ;49.0
MOT;0;1000.0;1;1000.0;2;1000.0;3;1000.0;4;0.0;5;0.0;6;0.0;7;0.0;
RC;ROLL;1500.0;PITCH;1503.0;YAW;1032.0;THROTTLE;1050.0;AUX1;2007.0;AUX2;1500.0;AUX3;1500.0;AUX4;1500.0
ALTITUDE;48.0
DEBUG;DEBUG10.0;DEBUG2;0.0;DEBUG3;48.0;DEBUG4;0.0
ATTITUDE;ANGX;-15.0;ANGY;4.0;HEAD;-125.0
STATUS;CYCLETIME;2916;I2CERR;0;PRESENT;23;MODE;2
RAW_IMU;AX;-24.0;AY;6.0;AZ;258.0;GX;-6.0;GY;0.0;GZ;2.0;MAGX;73.0;MAGY;-91.0;MAGZ;49.0
MOT;0;1000.0;1;1000.0;2;1000.0;3;1000.0;4;0.0;5;0.0;6;0.0;7;0.0;
RC;ROLL;1500.0;PITCH;1503.0;YAW;1029.0;THROTTLE;1050.0;AUX1;2009.0;AUX2;1500.0;AUX3;1500.0;AUX4;1500.0
ALTITUDE;48.0
DEBUG;DEBUG10.0;DEBUG2;0.0;DEBUG3;48.0;DEBUG4;0.0
ATTITUDE;ANGX;-15.0;ANGY;3.0;HEAD;-125.0
STATUS;CYCLETIME;3048;I2CERR;0;PRESENT;23;MODE;2
RAW_IMU;AX;-25.0;AY;6.0;AZ;256.0;GX;-3.0;GY;-1.0;GZ;0.0;MAGX;73.0;MAGY;-91.0;MAGZ;48.0
MOT;0;1000.0;1;1000.0;2;1000.0;3;1000.0;4;0.0;5;0.0;6;0.0;7;0.0;
RC;ROLL;1495.0;PITCH;1503.0;YAW;1029.0;THROTTLE;1050.0;AUX1;2009.0;AUX2;1500.0;AUX3;1500.0;AUX4;1500.0
ALTITUDE;48.0
DEBUG;DEBUG10.0;DEBUG2;0.0;DEBUG3;48.0;DEBUG4;0.0
ATTITUDE;ANGX;-16.0;ANGY;3.0;HEAD;-125.0
STATUS;CYCLETIME;2900;I2CERR;0;PRESENT;23;MODE;2
RAW_IMU;AX;-24.0;AY;4.0;AZ;253.0;GX;0.0;GY;-1.0;GZ;0.0;MAGX;73.0;MAGY;-91.0;MAGZ;48.0
MOT;0;1000.0;1;1000.0;2;1000.0;3;1000.0;4;0.0;5;0.0;6;0.0;7;0.0;
RC;ROLL;1495.0;PITCH;1503.0;YAW;1031.0;THROTTLE;1052.0;AUX1;2009.0;AUX2;1500.0;AUX3;1500.0;AUX4;1500.0
ALTITUDE;48.0
DEBUG;DEBUG10.0;DEBUG2;0.0;DEBUG3;48.0;DEBUG4;0.0
ATTITUDE;ANGX;-15.0;ANGY;3.0;HEAD;-125.0
STATUS;CYCLETIME;2896;I2CERR;0;PRESENT;23;MODE;2
RAW_IMU;AX;-25.0;AY;3.0;AZ;253.0;GX;4.0;GY;0.0;GZ;1.0;MAGX;73.0;MAGY;-91.0;MAGZ;48.0
MOT;0;1000.0;1;1000.0;2;1000.0;3;1000.0;4;0.0;5;0.0;6;0.0;7;0.0;
RC;ROLL;1495.0;PITCH;1503.0;YAW;1031.0;THROTTLE;1052.0;AUX1;2009.0;AUX2;1500.0;AUX3;1500.0;AUX4;1500.0
ALTITUDE;48.0
DEBUG;DEBUG10.0;DEBUG2;0.0;DEBUG3;48.0;DEBUG4;0.0
ATTITUDE;ANGX;-15.0;ANGY;3.0;HEAD;-125.0
STATUS;CYCLETIME;2888;I2CERR;0;PRESENT;23;MODE;2
RAW_IMU;AX;-23.0;AY;0.0;AZ;254.0;GX;4.0;GY;0.0;GZ;1.0;MAGX;74.0;MAGY;-92.0;MAGZ;49.0
MOT;0;1000.0;1;1000.0;2;1000.0;3;1000.0;4;0.0;5;0.0;6;0.0;7;0.0;
RC;ROLL;1493.0;PITCH;1506.0;YAW;1031.0;THROTTLE;1050.0;AUX1;2009.0;AUX2;1500.0;AUX3;1500.0;AUX4;1500.0
ALTITUDE;48.0
DEBUG;DEBUG10.0;DEBUG2;0.0;DEBUG3;48.0;DEBUG4;0.0
ATTITUDE;ANGX;-14.0;ANGY;3.0;HEAD;-125.0
STATUS;CYCLETIME;2888;I2CERR;0;PRESENT;23;MODE;2
RAW_IMU;AX;-22.0;AY;2.0;AZ;258.0;GX;3.0;GY;0.0;GZ;0.0;MAGX;74.0;MAGY;-92.0;MAGZ;49.0
MOT;0;1000.0;1;1000.0;2;1000.0;3;1000.0;4;0.0;5;0.0;6;0.0;7;0.0;
RC;ROLL;1495.0;PITCH;1506.0;YAW;1041.0;THROTTLE;1050.0;AUX1;2009.0;AUX2;1500.0;AUX3;1500.0;AUX4;1500.0
ALTITUDE;48.0
DEBUG;DEBUG10.0;DEBUG2;0.0;DEBUG3;48.0;DEBUG4;0.0
ATTITUDE;ANGX;-13.0;ANGY;3.0;HEAD;-126.0
STATUS;CYCLETIME;3056;I2CERR;0;PRESENT;23;MODE;2
RAW_IMU;AX;-24.0;AY;1.0;AZ;256.0;GX;1.0;GY;-2.0;GZ;0.0;MAGX;75.0;MAGY;-92.0;MAGZ;54.0
MOT;0;1000.0;1;1000.0;2;1000.0;3;1000.0;4;0.0;5;0.0;6;0.0;7;0.0;
RC;ROLL;1495.0;PITCH;1506.0;YAW;1194.0;THROTTLE;1052.0;AUX1;2009.0;AUX2;1500.0;AUX3;1500.0;AUX4;1500.0
ALTITUDE;48.0
DEBUG;DEBUG10.0;DEBUG2;0.0;DEBUG3;48.0;DEBUG4;0.0
ATTITUDE;ANGX;-13.0;ANGY;2.0;HEAD;-126.0
STATUS;CYCLETIME;2884;I2CERR;0;PRESENT;23;MODE;2
RAW_IMU;AX;-23.0;AY;0.0;AZ;254.0;GX;2.0;GY;-3.0;GZ;1.0;MAGX;75.0;MAGY;-92.0;MAGZ;54.0
MOT;0;1000.0;1;1000.0;2;1000.0;3;1000.0;4;0.0;5;0.0;6;0.0;7;0.0;
RC;ROLL;1495.0;PITCH;1506.0;YAW;1397.0;THROTTLE;1056.0;AUX1;2006.0;AUX2;1500.0;AUX3;1500.0;AUX4;1500.0
ALTITUDE;48.0
DEBUG;DEBUG10.0;DEBUG2;0.0;DEBUG3;48.0;DEBUG4;0.0
ATTITUDE;ANGX;-12.0;ANGY;2.0;HEAD;-126.0
STATUS;CYCLETIME;2884;I2CERR;0;PRESENT;23;MODE;2
RAW_IMU;AX;-23.0;AY;0.0;AZ;255.0;GX;2.0;GY;-1.0;GZ;1.0;MAGX;76.0;MAGY;-91.0;MAGZ;56.0
MOT;0;1000.0;1;1000.0;2;1000.0;3;1000.0;4;0.0;5;0.0;6;0.0;7;0.0;
RC;ROLL;1495.0;PITCH;1506.0;YAW;1514.0;THROTTLE;1056.0;AUX1;2004.0;AUX2;1500.0;AUX3;1500.0;AUX4;1500.0
ALTITUDE;48.0
DEBUG;DEBUG10.0;DEBUG2;0.0;DEBUG3;48.0;DEBUG4;0.0
ATTITUDE;ANGX;-12.0;ANGY;2.0;HEAD;-126.0
STATUS;CYCLETIME;3000;I2CERR;0;PRESENT;23;MODE;2
RAW_IMU;AX;-22.0;AY;2.0;AZ;254.0;GX;1.0;GY;1.0;GZ;1.0;MAGX;76.0;MAGY;-91.0;MAGZ;56.0
MOT;0;1000.0;1;1000.0;2;1000.0;3;1000.0;4;0.0;5;0.0;6;0.0;7;0.0;
RC;ROLL;1498.0;PITCH;1506.0;YAW;1512.0;THROTTLE;1058.0;AUX1;2002.0;AUX2;1500.0;AUX3;1500.0;AUX4;1500.0
ALTITUDE;48.0
DEBUG;DEBUG10.0;DEBUG2;0.0;DEBUG3;48.0;DEBUG4;0.0
ATTITUDE;ANGX;-11.0;ANGY;2.0;HEAD;-125.0
STATUS;CYCLETIME;2928;I2CERR;0;PRESENT;23;MODE;2
RAW_IMU;AX;-20.0;AY;0.0;AZ;254.0;GX;-3.0;GY;1.0;GZ;1.0;MAGX;76.0;MAGY;-89.0;MAGZ;59.0
MOT;0;1000.0;1;1000.0;2;1000.0;3;1000.0;4;0.0;5;0.0;6;0.0;7;0.0;
RC;ROLL;1498.0;PITCH;1506.0;YAW;1512.0;THROTTLE;1058.0;AUX1;2002.0;AUX2;1500.0;AUX3;1500.0;AUX4;1500.0
ALTITUDE;48.0
DEBUG;DEBUG10.0;DEBUG2;0.0;DEBUG3;48.0;DEBUG4;0.0
ATTITUDE;ANGX;-11.0;ANGY;2.0;HEAD;-125.0
STATUS;CYCLETIME;2952;I2CERR;0;PRESENT;23;MODE;2
RAW_IMU;AX;-17.0;AY;-2.0;AZ;253.0;GX;-11.0;GY;0.0;GZ;1.0;MAGX;76.0;MAGY;-89.0;MAGZ;59.0
MOT;0;1000.0;1;1000.0;2;1000.0;3;1000.0;4;0.0;5;0.0;6;0.0;7;0.0;
RC;ROLL;1496.0;PITCH;1506.0;YAW;1512.0;THROTTLE;1058.0;AUX1;2002.0;AUX2;1500.0;AUX3;1500.0;AUX4;1500.0
ALTITUDE;49.0
DEBUG;DEBUG10.0;DEBUG2;0.0;DEBUG3;49.0;DEBUG4;0.0
ATTITUDE;ANGX;-12.0;ANGY;2.0;HEAD;-125.0
STATUS;CYCLETIME;2996;I2CERR;0;PRESENT;23;MODE;2
RAW_IMU;AX;-19.0;AY;-3.0;AZ;250.0;GX;-17.0;GY;0.0;GZ;2.0;MAGX;77.0;MAGY;-90.0;MAGZ;57.0
MOT;0;1000.0;1;1000.0;2;1000.0;3;1000.0;4;0.0;5;0.0;6;0.0;7;0.0;
RC;ROLL;1496.0;PITCH;1502.0;YAW;1510.0;THROTTLE;1058.0;AUX1;2002.0;AUX2;1500.0;AUX3;1500.0;AUX4;1500.0
ALTITUDE;49.0
DEBUG;DEBUG10.0;DEBUG2;0.0;DEBUG3;49.0;DEBUG4;0.0
ATTITUDE;ANGX;-14.0;ANGY;2.0;HEAD;-125.0
STATUS;CYCLETIME;2888;I2CERR;0;PRESENT;23;MODE;2
RAW_IMU;AX;-21.0;AY;-1.0;AZ;254.0;GX;-20.0;GY;2.0;GZ;2.0;MAGX;77.0;MAGY;-90.0;MAGZ;57.0
MOT;0;1000.0;1;1000.0;2;1000.0;3;1000.0;4;0.0;5;0.0;6;0.0;7;0.0;
RC;ROLL;1496.0;PITCH;1502.0;YAW;1510.0;THROTTLE;1058.0;AUX1;2002.0;AUX2;1500.0;AUX3;1500.0;AUX4;1500.0
ALTITUDE;49.0
DEBUG;DEBUG10.0;DEBUG2;0.0;DEBUG3;49.0;DEBUG4;0.0
ATTITUDE;ANGX;-15.0;ANGY;2.0;HEAD;-125.0
STATUS;CYCLETIME;2896;I2CERR;0;PRESENT;23;MODE;2
RAW_IMU;AX;-20.0;AY;-3.0;AZ;255.0;GX;-17.0;GY;4.0;GZ;1.0;MAGX;77.0;MAGY;-90.0;MAGZ;57.0
MOT;0;1000.0;1;1000.0;2;1000.0;3;1000.0;4;0.0;5;0.0;6;0.0;7;0.0;
RC;ROLL;1496.0;PITCH;1502.0;YAW;1508.0;THROTTLE;1060.0;AUX1;2002.0;AUX2;1500.0;AUX3;1500.0;AUX4;1500.0
ALTITUDE;49.0
DEBUG;DEBUG10.0;DEBUG2;0.0;DEBUG3;49.0;DEBUG4;0.0
ATTITUDE;ANGX;-17.0;ANGY;2.0;HEAD;-125.0
STATUS;CYCLETIME;2916;I2CERR;0;PRESENT;23;MODE;2
RAW_IMU;AX;-25.0;AY;2.0;AZ;256.0;GX;-7.0;GY;5.0;GZ;0.0;MAGX;77.0;MAGY;-91.0;MAGZ;46.0
MOT;0;1000.0;1;1000.0;2;1000.0;3;1000.0;4;0.0;5;0.0;6;0.0;7;0.0;
RC;ROLL;1496.0;PITCH;1502.0;YAW;1508.0;THROTTLE;1060.0;AUX1;2002.0;AUX2;1500.0;AUX3;1500.0;AUX4;1500.0
ALTITUDE;49.0
DEBUG;DEBUG10.0;DEBUG2;0.0;DEBUG3;49.0;DEBUG4;0.0
ATTITUDE;ANGX;-18.0;ANGY;2.0;HEAD;-125.0
STATUS;CYCLETIME;2904;I2CERR;0;PRESENT;23;MODE;2
RAW_IMU;AX;-26.0;AY;4.0;AZ;259.0;GX;1.0;GY;4.0;GZ;0.0;MAGX;77.0;MAGY;-91.0;MAGZ;46.0
MOT;0;1000.0;1;1000.0;2;1000.0;3;1000.0;4;0.0;5;0.0;6;0.0;7;0.0;
RC;ROLL;1496.0;PITCH;1502.0;YAW;1508.0;THROTTLE;1060.0;AUX1;2004.0;AUX2;1500.0;AUX3;1500.0;AUX4;1500.0
ALTITUDE;49.0
DEBUG;DEBUG10.0;DEBUG2;0.0;DEBUG3;49.0;DEBUG4;0.0
ATTITUDE;ANGX;-18.0;ANGY;3.0;HEAD;-125.0
STATUS;CYCLETIME;2892;I2CERR;0;PRESENT;23;MODE;2
RAW_IMU;AX;-24.0;AY;6.0;AZ;259.0;GX;9.0;GY;0.0;GZ;0.0;MAGX;73.0;MAGY;-92.0;MAGZ;42.0
MOT;0;1000.0;1;1000.0;2;1000.0;3;1000.0;4;0.0;5;0.0;6;0.0;7;0.0;
RC;ROLL;1496.0;PITCH;1502.0;YAW;1508.0;THROTTLE;1060.0;AUX1;2004.0;AUX2;1500.0;AUX3;1500.0;AUX4;1500.0
ALTITUDE;49.0
DEBUG;DEBUG10.0;DEBUG2;0.0;DEBUG3;49.0;DEBUG4;0.0
ATTITUDE;ANGX;-17.0;ANGY;3.0;HEAD;-125.0
STATUS;CYCLETIME;2884;I2CERR;0;PRESENT;23;MODE;2
RAW_IMU;AX;-22.0;AY;6.0;AZ;258.0;GX;9.0;GY;-2.0;GZ;0.0;MAGX;73.0;MAGY;-92.0;MAGZ;42.0
MOT;0;1000.0;1;1000.0;2;1000.0;3;1000.0;4;0.0;5;0.0;6;0.0;7;0.0;
RC;ROLL;1496.0;PITCH;1502.0;YAW;1508.0;THROTTLE;1060.0;AUX1;2004.0;AUX2;1500.0;AUX3;1500.0;AUX4;1500.0
ALTITUDE;49.0
DEBUG;DEBUG10.0;DEBUG2;0.0;DEBUG3;49.0;DEBUG4;0.0
ATTITUDE;ANGX;-15.0;ANGY;3.0;HEAD;-125.0
STATUS;CYCLETIME;2908;I2CERR;0;PRESENT;23;MODE;2
RAW_IMU;AX;-20.0;AY;4.0;AZ;257.0;GX;4.0;GY;-3.0;GZ;0.0;MAGX;74.0;MAGY;-91.0;MAGZ;45.0
MOT;0;1000.0;1;1000.0;2;1000.0;3;1000.0;4;0.0;5;0.0;6;0.0;7;0.0;
RC;ROLL;1499.0;PITCH;1502.0;YAW;1508.0;THROTTLE;1060.0;AUX1;2002.0;AUX2;1500.0;AUX3;1500.0;AUX4;1500.0
ALTITUDE;49.0
DEBUG;DEBUG10.0;DEBUG2;0.0;DEBUG3;49.0;DEBUG4;0.0
ATTITUDE;ANGX;-14.0;ANGY;2.0;HEAD;-125.0
STATUS;CYCLETIME;3000;I2CERR;0;PRESENT;23;MODE;2
RAW_IMU;AX;-16.0;AY;3.0;AZ;257.0;GX;-3.0;GY;0.0;GZ;0.0;MAGX;74.0;MAGY;-91.0;MAGZ;45.0
MOT;0;1000.0;1;1000.0;2;1000.0;3;1000.0;4;0.0;5;0.0;6;0.0;7;0.0;
RC;ROLL;1499.0;PITCH;1502.0;YAW;1510.0;THROTTLE;1060.0;AUX1;2000.0;AUX2;1500.0;AUX3;1500.0;AUX4;1500.0
ALTITUDE;49.0
DEBUG;DEBUG10.0;DEBUG2;0.0;DEBUG3;49.0;DEBUG4;0.0
ATTITUDE;ANGX;-14.0;ANGY;2.0;HEAD;-125.0
STATUS;CYCLETIME;2892;I2CERR;0;PRESENT;23;MODE;2
RAW_IMU;AX;-19.0;AY;6.0;AZ;261.0;GX;-11.0;GY;4.0;GZ;2.0;MAGX;78.0;MAGY;-91.0;MAGZ;52.0
MOT;0;1000.0;1;1000.0;2;1000.0;3;1000.0;4;0.0;5;0.0;6;0.0;7;0.0;
RC;ROLL;1497.0;PITCH;1502.0;YAW;1510.0;THROTTLE;1062.0;AUX1;2000.0;AUX2;1500.0;AUX3;1500.0;AUX4;1500.0
ALTITUDE;48.0
DEBUG;DEBUG10.0;DEBUG2;0.0;DEBUG3;48.0;DEBUG4;0.0
ATTITUDE;ANGX;-15.0;ANGY;2.0;HEAD;-125.0
STATUS;CYCLETIME;2888;I2CERR;0;PRESENT;23;MODE;2
RAW_IMU;AX;-21.0;AY;10.0;AZ;271.0;GX;-14.0;GY;7.0;GZ;3.0;MAGX;78.0;MAGY;-91.0;MAGZ;52.0
MOT;0;1000.0;1;1000.0;2;1000.0;3;1000.0;4;0.0;5;0.0;6;0.0;7;0.0;
RC;ROLL;1497.0;PITCH;1502.0;YAW;1510.0;THROTTLE;1062.0;AUX1;2000.0;AUX2;1500.0;AUX3;1500.0;AUX4;1500.0
ALTITUDE;48.0
DEBUG;DEBUG10.0;DEBUG2;0.0;DEBUG3;48.0;DEBUG4;0.0
ATTITUDE;ANGX;-16.0;ANGY;3.0;HEAD;-125.0
STATUS;CYCLETIME;2888;I2CERR;0;PRESENT;23;MODE;2
RAW_IMU;AX;-24.0;AY;5.0;AZ;272.0;GX;-12.0;GY;1.0;GZ;2.0;MAGX;74.0;MAGY;-91.0;MAGZ;42.0
MOT;0;1000.0;1;1000.0;2;1000.0;3;1000.0;4;0.0;5;0.0;6;0.0;7;0.0;
RC;ROLL;1497.0;PITCH;1502.0;YAW;1510.0;THROTTLE;1062.0;AUX1;2000.0;AUX2;1500.0;AUX3;1500.0;AUX4;1500.0
ALTITUDE;48.0
DEBUG;DEBUG10.0;DEBUG2;0.0;DEBUG3;48.0;DEBUG4;0.0
ATTITUDE;ANGX;-17.0;ANGY;3.0;HEAD;-125.0
STATUS;CYCLETIME;2948;I2CERR;0;PRESENT;23;MODE;2
RAW_IMU;AX;-23.0;AY;3.0;AZ;259.0;GX;-4.0;GY;-9.0;GZ;1.0;MAGX;74.0;MAGY;-91.0;MAGZ;42.0
MOT;0;1000.0;1;1000.0;2;1000.0;3;1000.0;4;0.0;5;0.0;6;0.0;7;0.0;
RC;ROLL;1497.0;PITCH;1502.0;YAW;1508.0;THROTTLE;1065.0;AUX1;2000.0;AUX2;1500.0;AUX3;1500.0;AUX4;1500.0
ALTITUDE;48.0
DEBUG;DEBUG10.0;DEBUG2;0.0;DEBUG3;48.0;DEBUG4;0.0
ATTITUDE;ANGX;-18.0;ANGY;2.0;HEAD;-125.0
STATUS;CYCLETIME;3164;I2CERR;0;PRESENT;23;MODE;2
RAW_IMU;AX;-25.0;AY;-4.0;AZ;244.0;GX;5.0;GY;-12.0;GZ;1.0;MAGX;75.0;MAGY;-91.0;MAGZ;39.0
MOT;0;1000.0;1;1000.0;2;1000.0;3;1000.0;4;0.0;5;0.0;6;0.0;7;0.0;
RC;ROLL;1497.0;PITCH;1502.0;YAW;1508.0;THROTTLE;1065.0;AUX1;2000.0;AUX2;1500.0;AUX3;1500.0;AUX4;1500.0
ALTITUDE;48.0
DEBUG;DEBUG10.0;DEBUG2;0.0;DEBUG3;48.0;DEBUG4;0.0
ATTITUDE;ANGX;-17.0;ANGY;1.0;HEAD;-125.0
STATUS;CYCLETIME;2888;I2CERR;0;PRESENT;23;MODE;2
RAW_IMU;AX;-26.0;AY;-11.0;AZ;241.0;GX;15.0;GY;-6.0;GZ;0.0;MAGX;75.0;MAGY;-91.0;MAGZ;39.0
MOT;0;1000.0;1;1000.0;2;1000.0;3;1000.0;4;0.0;5;0.0;6;0.0;7;0.0;
RC;ROLL;1497.0;PITCH;1502.0;YAW;1508.0;THROTTLE;1060.0;AUX1;2000.0;AUX2;1500.0;AUX3;1500.0;AUX4;1500.0
ALTITUDE;48.0
DEBUG;DEBUG10.0;DEBUG2;0.0;DEBUG3;48.0;DEBUG4;0.0
ATTITUDE;ANGX;-15.0;ANGY;0.0;HEAD;-126.0
STATUS;CYCLETIME;2896;I2CERR;0;PRESENT;23;MODE;2
RAW_IMU;AX;-23.0;AY;-15.0;AZ;240.0;GX;20.0;GY;2.0;GZ;-2.0;MAGX;75.0;MAGY;-91.0;MAGZ;39.0
MOT;0;1000.0;1;1000.0;2;1000.0;3;1000.0;4;0.0;5;0.0;6;0.0;7;0.0;
RC;ROLL;1497.0;PITCH;1502.0;YAW;1508.0;THROTTLE;1060.0;AUX1;2002.0;AUX2;1500.0;AUX3;1500.0;AUX4;1500.0
ALTITUDE;48.0
DEBUG;DEBUG10.0;DEBUG2;0.0;DEBUG3;48.0;DEBUG4;0.0
ATTITUDE;ANGX;-13.0;ANGY;0.0;HEAD;-126.0
STATUS;CYCLETIME;3004;I2CERR;0;PRESENT;23;MODE;2
RAW_IMU;AX;-20.0;AY;-14.0;AZ;243.0;GX;19.0;GY;8.0;GZ;-3.0;MAGX;82.0;MAGY;-90.0;MAGZ;49.0
MOT;0;1000.0;1;1000.0;2;1000.0;3;1000.0;4;0.0;5;0.0;6;0.0;7;0.0;
RC;ROLL;1497.0;PITCH;1502.0;YAW;1508.0;THROTTLE;1062.0;AUX1;2002.0;AUX2;1500.0;AUX3;1500.0;AUX4;1500.0
ALTITUDE;48.0
DEBUG;DEBUG10.0;DEBUG2;0.0;DEBUG3;48.0;DEBUG4;0.0
ATTITUDE;ANGX;-10.0;ANGY;1.0;HEAD;-126.0
STATUS;CYCLETIME;2924;I2CERR;0;PRESENT;23;MODE;2
RAW_IMU;AX;-19.0;AY;-9.0;AZ;250.0;GX;12.0;GY;11.0;GZ;-2.0;MAGX;82.0;MAGY;-90.0;MAGZ;49.0
MOT;0;1000.0;1;1000.0;2;1000.0;3;1000.0;4;0.0;5;0.0;6;0.0;7;0.0;
RC;ROLL;1497.0;PITCH;1502.0;YAW;1508.0;THROTTLE;1062.0;AUX1;2002.0;AUX2;1500.0;AUX3;1500.0;AUX4;1500.0
ALTITUDE;48.0
DEBUG;DEBUG10.0;DEBUG2;0.0;DEBUG3;48.0;DEBUG4;0.0
ATTITUDE;ANGX;-8.0;ANGY;2.0;HEAD;-126.0
STATUS;CYCLETIME;3028;I2CERR;0;PRESENT;23;MODE;2
RAW_IMU;AX;-18.0;AY;2.0;AZ;258.0;GX;1.0;GY;10.0;GZ;0.0;MAGX;78.0;MAGY;-89.0;MAGZ;64.0
MOT;0;1000.0;1;1000.0;2;1000.0;3;1000.0;4;0.0;5;0.0;6;0.0;7;0.0;
RC;ROLL;1497.0;PITCH;1502.0;YAW;1508.0;THROTTLE;1062.0;AUX1;2002.0;AUX2;1500.0;AUX3;1500.0;AUX4;1500.0
ALTITUDE;48.0
DEBUG;DEBUG10.0;DEBUG2;0.0;DEBUG3;50.0;DEBUG4;0.0
ATTITUDE;ANGX;-8.0;ANGY;3.0;HEAD;-126.0
STATUS;CYCLETIME;2896;I2CERR;0;PRESENT;23;MODE;2
RAW_IMU;AX;-18.0;AY;12.0;AZ;267.0;GX;-10.0;GY;5.0;GZ;1.0;MAGX;78.0;MAGY;-89.0;MAGZ;64.0
MOT;0;1000.0;1;1000.0;2;1000.0;3;1000.0;4;0.0;5;0.0;6;0.0;7;0.0;
RC;ROLL;1497.0;PITCH;1502.0;YAW;1508.0;THROTTLE;1062.0;AUX1;2002.0;AUX2;1500.0;AUX3;1500.0;AUX4;1500.0
ALTITUDE;50.0
DEBUG;DEBUG10.0;DEBUG2;0.0;DEBUG3;50.0;DEBUG4;0.0
ATTITUDE;ANGX;-8.0;ANGY;3.0;HEAD;-126.0
STATUS;CYCLETIME;3036;I2CERR;0;PRESENT;23;MODE;2
RAW_IMU;AX;-21.0;AY;14.0;AZ;270.0;GX;-19.0;GY;-3.0;GZ;2.0;MAGX;75.0;MAGY;-89.0;MAGZ;66.0
MOT;0;1000.0;1;1000.0;2;1000.0;3;1000.0;4;0.0;5;0.0;6;0.0;7;0.0;
RC;ROLL;1497.0;PITCH;1502.0;YAW;1508.0;THROTTLE;1062.0;AUX1;2002.0;AUX2;1500.0;AUX3;1500.0;AUX4;1500.0
ALTITUDE;50.0
DEBUG;DEBUG10.0;DEBUG2;0.0;DEBUG3;50.0;DEBUG4;0.0
ATTITUDE;ANGX;-10.0;ANGY;3.0;HEAD;-126.0
STATUS;CYCLETIME;2960;I2CERR;0;PRESENT;23;MODE;2
RAW_IMU;AX;-23.0;AY;10.0;AZ;266.0;GX;-22.0;GY;-8.0;GZ;3.0;MAGX;75.0;MAGY;-89.0;MAGZ;66.0
MOT;0;1000.0;1;1000.0;2;1000.0;3;1000.0;4;0.0;5;0.0;6;0.0;7;0.0;
RC;ROLL;1497.0;PITCH;1502.0;YAW;1508.0;THROTTLE;1062.0;AUX1;2002.0;AUX2;1500.0;AUX3;1500.0;AUX4;1500.0
ALTITUDE;50.0
DEBUG;DEBUG10.0;DEBUG2;0.0;DEBUG3;50.0;DEBUG4;0.0
ATTITUDE;ANGX;-13.0;ANGY;2.0;HEAD;-126.0
STATUS;CYCLETIME;2952;I2CERR;0;PRESENT;23;MODE;2
RAW_IMU;AX;-26.0;AY;3.0;AZ;259.0;GX;-19.0;GY;-6.0;GZ;2.0;MAGX;77.0;MAGY;-90.0;MAGZ;54.0
MOT;0;1000.0;1;1000.0;2;1000.0;3;1000.0;4;0.0;5;0.0;6;0.0;7;0.0;
RC;ROLL;1497.0;PITCH;1502.0;YAW;1508.0;THROTTLE;1062.0;AUX1;2002.0;AUX2;1500.0;AUX3;1500.0;AUX4;1500.0
ALTITUDE;50.0
DEBUG;DEBUG10.0;DEBUG2;0.0;DEBUG3;50.0;DEBUG4;0.0
ATTITUDE;ANGX;-15.0;ANGY;2.0;HEAD;-126.0
STATUS;CYCLETIME;2936;I2CERR;0;PRESENT;23;MODE;2
RAW_IMU;AX;-27.0;AY;-6.0;AZ;252.0;GX;-12.0;GY;-3.0;GZ;2.0;MAGX;77.0;MAGY;-90.0;MAGZ;54.0
MOT;0;1000.0;1;1000.0;2;1000.0;3;1000.0;4;0.0;5;0.0;6;0.0;7;0.0;
RC;ROLL;1497.0;PITCH;1502.0;YAW;1508.0;THROTTLE;1060.0;AUX1;2002.0;AUX2;1500.0;AUX3;1500.0;AUX4;1500.0
ALTITUDE;50.0
DEBUG;DEBUG10.0;DEBUG2;0.0;DEBUG3;50.0;DEBUG4;0.0
ATTITUDE;ANGX;-16.0;ANGY;1.0;HEAD;-125.0
STATUS;CYCLETIME;3004;I2CERR;0;PRESENT;23;MODE;2
RAW_IMU;AX;-25.0;AY;-10.0;AZ;247.0;GX;-5.0;GY;0.0;GZ;1.0;MAGX;80.0;MAGY;-89.0;MAGZ;44.0
MOT;0;1000.0;1;1000.0;2;1000.0;3;1000.0;4;0.0;5;0.0;6;0.0;7;0.0;
RC;ROLL;1497.0;PITCH;1505.0;YAW;1508.0;THROTTLE;1060.0;AUX1;2002.0;AUX2;1500.0;AUX3;1500.0;AUX4;1500.0
ALTITUDE;50.0
DEBUG;DEBUG10.0;DEBUG2;0.0;DEBUG3;50.0;DEBUG4;0.0
ATTITUDE;ANGX;-17.0;ANGY;1.0;HEAD;-125.0
STATUS;CYCLETIME;2896;I2CERR;0;PRESENT;23;MODE;2
RAW_IMU;AX;-24.0;AY;-11.0;AZ;244.0;GX;-2.0;GY;3.0;GZ;0.0;MAGX;80.0;MAGY;-89.0;MAGZ;44.0
MOT;0;1000.0;1;1000.0;2;1000.0;3;1000.0;4;0.0;5;0.0;6;0.0;7;0.0;
RC;ROLL;1497.0;PITCH;1505.0;YAW;1508.0;THROTTLE;1062.0;AUX1;2002.0;AUX2;1500.0;AUX3;1500.0;AUX4;1500.0
ALTITUDE;50.0
DEBUG;DEBUG10.0;DEBUG2;0.0;DEBUG3;50.0;DEBUG4;0.0
ATTITUDE;ANGX;-17.0;ANGY;1.0;HEAD;-125.0
STATUS;CYCLETIME;2928;I2CERR;0;PRESENT;23;MODE;2
RAW_IMU;AX;-22.0;AY;-10.0;AZ;246.0;GX;-3.0;GY;5.0;GZ;0.0;MAGX;79.0;MAGY;-90.0;MAGZ;44.0
MOT;0;1000.0;1;1000.0;2;1000.0;3;1000.0;4;0.0;5;0.0;6;0.0;7;0.0;
RC;ROLL;1497.0;PITCH;1503.0;YAW;1508.0;THROTTLE;1062.0;AUX1;2002.0;AUX2;1500.0;AUX3;1500.0;AUX4;1500.0
ALTITUDE;50.0
DEBUG;DEBUG10.0;DEBUG2;0.0;DEBUG3;50.0;DEBUG4;0.0
ATTITUDE;ANGX;-17.0;ANGY;1.0;HEAD;-125.0
STATUS;CYCLETIME;2928;I2CERR;0;PRESENT;23;MODE;2
RAW_IMU;AX;-21.0;AY;-8.0;AZ;249.0;GX;-7.0;GY;4.0;GZ;1.0;MAGX;79.0;MAGY;-90.0;MAGZ;44.0
MOT;0;1000.0;1;1000.0;2;1000.0;3;1000.0;4;0.0;5;0.0;6;0.0;7;0.0;
RC;ROLL;1497.0;PITCH;1503.0;YAW;1506.0;THROTTLE;1062.0;AUX1;2002.0;AUX2;1500.0;AUX3;1500.0;AUX4;1500.0
ALTITUDE;50.0
DEBUG;DEBUG10.0;DEBUG2;0.0;DEBUG3;50.0;DEBUG4;0.0
ATTITUDE;ANGX;-17.0;ANGY;2.0;HEAD;-125.0
STATUS;CYCLETIME;2892;I2CERR;0;PRESENT;23;MODE;2
RAW_IMU;AX;-21.0;AY;-7.0;AZ;251.0;GX;-11.0;GY;3.0;GZ;1.0;MAGX;79.0;MAGY;-90.0;MAGZ;44.0
MOT;0;1000.0;1;1000.0;2;1000.0;3;1000.0;4;0.0;5;0.0;6;0.0;7;0.0;
RC;ROLL;1497.0;PITCH;1505.0;YAW;1506.0;THROTTLE;1062.0;AUX1;2004.0;AUX2;1500.0;AUX3;1500.0;AUX4;1500.0
ALTITUDE;52.0
DEBUG;DEBUG10.0;DEBUG2;0.0;DEBUG3;52.0;DEBUG4;0.0
ATTITUDE;ANGX;-18.0;ANGY;2.0;HEAD;-124.0
STATUS;CYCLETIME;2896;I2CERR;0;PRESENT;23;MODE;2
RAW_IMU;AX;-21.0;AY;-3.0;AZ;254.0;GX;-11.0;GY;2.0;GZ;0.0;MAGX;78.0;MAGY;-91.0;MAGZ;42.0
MOT;0;1000.0;1;1000.0;2;1000.0;3;1000.0;4;0.0;5;0.0;6;0.0;7;0.0;
RC;ROLL;1495.0;PITCH;1505.0;YAW;1506.0;THROTTLE;1062.0;AUX1;2004.0;AUX2;1500.0;AUX3;1500.0;AUX4;1500.0
ALTITUDE;52.0
DEBUG;DEBUG10.0;DEBUG2;0.0;DEBUG3;52.0;DEBUG4;0.0
ATTITUDE;ANGX;-19.0;ANGY;2.0;HEAD;-125.0
STATUS;CYCLETIME;2904;I2CERR;0;PRESENT;23;MODE;2
RAW_IMU;AX;-23.0;AY;0.0;AZ;258.0;GX;-7.0;GY;1.0;GZ;0.0;MAGX;78.0;MAGY;-91.0;MAGZ;42.0
MOT;0;1000.0;1;1000.0;2;1000.0;3;1000.0;4;0.0;5;0.0;6;0.0;7;0.0;
RC;ROLL;1495.0;PITCH;1503.0;YAW;1506.0;THROTTLE;1062.0;AUX1;2004.0;AUX2;1500.0;AUX3;1500.0;AUX4;1500.0
ALTITUDE;52.0
DEBUG;DEBUG10.0;DEBUG2;0.0;DEBUG3;52.0;DEBUG4;0.0
ATTITUDE;ANGX;-19.0;ANGY;2.0;HEAD;-124.0
STATUS;CYCLETIME;2956;I2CERR;0;PRESENT;23;MODE;2
RAW_IMU;AX;-26.0;AY;3.0;AZ;258.0;GX;0.0;GY;1.0;GZ;0.0;MAGX;77.0;MAGY;-91.0;MAGZ;35.0
MOT;0;1000.0;1;1000.0;2;1000.0;3;1000.0;4;0.0;5;0.0;6;0.0;7;0.0;
RC;ROLL;1495.0;PITCH;1503.0;YAW;1506.0;THROTTLE;1062.0;AUX1;2004.0;AUX2;1500.0;AUX3;1500.0;AUX4;1500.0
ALTITUDE;52.0
DEBUG;DEBUG10.0;DEBUG2;0.0;DEBUG3;52.0;DEBUG4;0.0
ATTITUDE;ANGX;-19.0;ANGY;2.0;HEAD;-125.0
STATUS;CYCLETIME;2996;I2CERR;0;PRESENT;23;MODE;2
RAW_IMU;AX;-27.0;AY;4.0;AZ;262.0;GX;8.0;GY;1.0;GZ;0.0;MAGX;77.0;MAGY;-91.0;MAGZ;35.0
MOT;0;1000.0;1;1000.0;2;1000.0;3;1000.0;4;0.0;5;0.0;6;0.0;7;0.0;
RC;ROLL;1495.0;PITCH;1503.0;YAW;1506.0;THROTTLE;1062.0;AUX1;2004.0;AUX2;1500.0;AUX3;1500.0;AUX4;1500.0
ALTITUDE;52.0
DEBUG;DEBUG10.0;DEBUG2;0.0;DEBUG3;52.0;DEBUG4;0.0
ATTITUDE;ANGX;-18.0;ANGY;2.0;HEAD;-125.0
STATUS;CYCLETIME;2904;I2CERR;0;PRESENT;23;MODE;2
RAW_IMU;AX;-24.0;AY;3.0;AZ;262.0;GX;11.0;GY;0.0;GZ;0.0;MAGX;76.0;MAGY;-91.0;MAGZ;36.0
MOT;0;1000.0;1;1000.0;2;1000.0;3;1000.0;4;0.0;5;0.0;6;0.0;7;0.0;
RC;ROLL;1495.0;PITCH;1503.0;YAW;1506.0;THROTTLE;1062.0;AUX1;2004.0;AUX2;1500.0;AUX3;1500.0;AUX4;1500.0
ALTITUDE;52.0
DEBUG;DEBUG10.0;DEBUG2;0.0;DEBUG3;52.0;DEBUG4;0.0
ATTITUDE;ANGX;-16.0;ANGY;2.0;HEAD;-125.0
STATUS;CYCLETIME;2892;I2CERR;0;PRESENT;23;MODE;2
RAW_IMU;AX;-21.0;AY;0.0;AZ;257.0;GX;10.0;GY;0.0;GZ;0.0;MAGX;76.0;MAGY;-91.0;MAGZ;36.0
MOT;0;1000.0;1;1000.0;2;1000.0;3;1000.0;4;0.0;5;0.0;6;0.0;7;0.0;
RC;ROLL;1495.0;PITCH;1503.0;YAW;1506.0;THROTTLE;1062.0;AUX1;2004.0;AUX2;1500.0;AUX3;1500.0;AUX4;1500.0
ALTITUDE;52.0
DEBUG;DEBUG10.0;DEBUG2;0.0;DEBUG3;52.0;DEBUG4;0.0
ATTITUDE;ANGX;-15.0;ANGY;2.0;HEAD;-125.0
STATUS;CYCLETIME;3032;I2CERR;0;PRESENT;23;MODE;2
RAW_IMU;AX;-19.0;AY;-1.0;AZ;257.0;GX;5.0;GY;-1.0;GZ;0.0;MAGX;77.0;MAGY;-91.0;MAGZ;47.0
MOT;0;1000.0;1;1000.0;2;1000.0;3;1000.0;4;0.0;5;0.0;6;0.0;7;0.0;
RC;ROLL;1495.0;PITCH;1503.0;YAW;1506.0;THROTTLE;1062.0;AUX1;2004.0;AUX2;1500.0;AUX3;1500.0;AUX4;1500.0
ALTITUDE;52.0
DEBUG;DEBUG10.0;DEBUG2;0.0;DEBUG3;52.0;DEBUG4;0.0
ATTITUDE;ANGX;-14.0;ANGY;2.0;HEAD;-125.0
STATUS;CYCLETIME;2924;I2CERR;0;PRESENT;23;MODE;2
RAW_IMU;AX;-19.0;AY;-4.0;AZ;253.0;GX;0.0;GY;0.0;GZ;0.0;MAGX;77.0;MAGY;-91.0;MAGZ;47.0
MOT;0;1000.0;1;1000.0;2;1000.0;3;1000.0;4;0.0;5;0.0;6;0.0;7;0.0;
RC;ROLL;1495.0;PITCH;1503.0;YAW;1506.0;THROTTLE;1062.0;AUX1;2004.0;AUX2;1500.0;AUX3;1500.0;AUX4;1500.0
ALTITUDE;52.0
DEBUG;DEBUG10.0;DEBUG2;0.0;DEBUG3;52.0;DEBUG4;0.0
ATTITUDE;ANGX;-13.0;ANGY;2.0;HEAD;-125.0
STATUS;CYCLETIME;3156;I2CERR;0;PRESENT;23;MODE;2
RAW_IMU;AX;-19.0;AY;-6.0;AZ;252.0;GX;-3.0;GY;1.0;GZ;0.0;MAGX;79.0;MAGY;-90.0;MAGZ;50.0
MOT;0;1000.0;1;1000.0;2;1000.0;3;1000.0;4;0.0;5;0.0;6;0.0;7;0.0;
RC;ROLL;1495.0;PITCH;1503.0;YAW;1508.0;THROTTLE;1062.0;AUX1;2004.0;AUX2;1500.0;AUX3;1500.0;AUX4;1500.0
ALTITUDE;52.0
DEBUG;DEBUG10.0;DEBUG2;0.0;DEBUG3;51.0;DEBUG4;0.0
ATTITUDE;ANGX;-13.0;ANGY;2.0;HEAD;-125.0
STATUS;CYCLETIME;2884;I2CERR;0;PRESENT;23;MODE;2
RAW_IMU;AX;-20.0;AY;-3.0;AZ;251.0;GX;-3.0;GY;4.0;GZ;0.0;MAGX;79.0;MAGY;-90.0;MAGZ;50.0
MOT;0;1000.0;1;1000.0;2;1000.0;3;1000.0;4;0.0;5;0.0;6;0.0;7;0.0;
RC;ROLL;1495.0;PITCH;1503.0;YAW;1508.0;THROTTLE;1062.0;AUX1;2004.0;AUX2;1500.0;AUX3;1500.0;AUX4;1500.0
ALTITUDE;51.0
DEBUG;DEBUG10.0;DEBUG2;0.0;DEBUG3;51.0;DEBUG4;0.0
ATTITUDE;ANGX;-14.0;ANGY;2.0;HEAD;-125.0
STATUS;CYCLETIME;2904;I2CERR;0;PRESENT;23;MODE;2
RAW_IMU;AX;-24.0;AY;-2.0;AZ;257.0;GX;-1.0;GY;3.0;GZ;0.0;MAGX;79.0;MAGY;-90.0;MAGZ;50.0
MOT;0;1000.0;1;1000.0;2;1000.0;3;1000.0;4;0.0;5;0.0;6;0.0;7;0.0;
RC;ROLL;1495.0;PITCH;1503.0;YAW;1508.0;THROTTLE;1062.0;AUX1;2004.0;AUX2;1500.0;AUX3;1500.0;AUX4;1500.0
ALTITUDE;51.0
DEBUG;DEBUG10.0;DEBUG2;0.0;DEBUG3;51.0;DEBUG4;0.0
ATTITUDE;ANGX;-14.0;ANGY;2.0;HEAD;-125.0
STATUS;CYCLETIME;2932;I2CERR;0;PRESENT;23;MODE;2
RAW_IMU;AX;-27.0;AY;3.0;AZ;260.0;GX;2.0;GY;2.0;GZ;0.0;MAGX;77.0;MAGY;-91.0;MAGZ;50.0
MOT;0;1000.0;1;1000.0;2;1000.0;3;1000.0;4;0.0;5;0.0;6;0.0;7;0.0;
RC;ROLL;1495.0;PITCH;1503.0;YAW;1506.0;THROTTLE;1062.0;AUX1;2004.0;AUX2;1500.0;AUX3;1500.0;AUX4;1500.0
ALTITUDE;51.0
DEBUG;DEBUG10.0;DEBUG2;0.0;DEBUG3;51.0;DEBUG4;0.0
ATTITUDE;ANGX;-13.0;ANGY;2.0;HEAD;-125.0
STATUS;CYCLETIME;2912;I2CERR;0;PRESENT;23;MODE;2
RAW_IMU;AX;-27.0;AY;3.0;AZ;260.0;GX;4.0;GY;0.0;GZ;1.0;MAGX;77.0;MAGY;-91.0;MAGZ;50.0
MOT;0;1000.0;1;1000.0;2;1000.0;3;1000.0;4;0.0;5;0.0;6;0.0;7;0.0;
RC;ROLL;1495.0;PITCH;1503.0;YAW;1506.0;THROTTLE;1062.0;AUX1;2004.0;AUX2;1500.0;AUX3;1500.0;AUX4;1500.0
ALTITUDE;51.0
DEBUG;DEBUG10.0;DEBUG2;0.0;DEBUG3;51.0;DEBUG4;0.0
ATTITUDE;ANGX;-13.0;ANGY;2.0;HEAD;-125.0
STATUS;CYCLETIME;2900;I2CERR;0;PRESENT;23;MODE;2
RAW_IMU;AX;-24.0;AY;1.0;AZ;255.0;GX;3.0;GY;-1.0;GZ;1.0;MAGX;76.0;MAGY;-91.0;MAGZ;52.0
MOT;0;1000.0;1;1000.0;2;1000.0;3;1000.0;4;0.0;5;0.0;6;0.0;7;0.0;
RC;ROLL;1495.0;PITCH;1503.0;YAW;1506.0;THROTTLE;1062.0;AUX1;2004.0;AUX2;1500.0;AUX3;1500.0;AUX4;1500.0
ALTITUDE;51.0
DEBUG;DEBUG10.0;DEBUG2;0.0;DEBUG3;51.0;DEBUG4;0.0
ATTITUDE;ANGX;-12.0;ANGY;2.0;HEAD;-125.0
STATUS;CYCLETIME;3020;I2CERR;0;PRESENT;23;MODE;2
RAW_IMU;AX;-22.0;AY;-2.0;AZ;252.0;GX;0.0;GY;-2.0;GZ;1.0;MAGX;76.0;MAGY;-91.0;MAGZ;52.0
MOT;0;1000.0;1;1000.0;2;1000.0;3;1000.0;4;0.0;5;0.0;6;0.0;7;0.0;
RC;ROLL;1495.0;PITCH;1503.0;YAW;1508.0;THROTTLE;1062.0;AUX1;2001.0;AUX2;1500.0;AUX3;1500.0;AUX4;1500.0
ALTITUDE;51.0
DEBUG;DEBUG10.0;DEBUG2;0.0;DEBUG3;51.0;DEBUG4;0.0
ATTITUDE;ANGX;-11.0;ANGY;2.0;HEAD;-125.0
STATUS;CYCLETIME;2908;I2CERR;0;PRESENT;23;MODE;2
RAW_IMU;AX;-20.0;AY;-3.0;AZ;253.0;GX;-3.0;GY;-1.0;GZ;1.0;MAGX;78.0;MAGY;-89.0;MAGZ;57.0
MOT;0;1000.0;1;1000.0;2;1000.0;3;1000.0;4;0.0;5;0.0;6;0.0;7;0.0;
RC;ROLL;1497.0;PITCH;1503.0;YAW;1508.0;THROTTLE;1062.0;AUX1;1998.0;AUX2;1500.0;AUX3;1500.0;AUX4;1500.0
ALTITUDE;51.0
DEBUG;DEBUG10.0;DEBUG2;0.0;DEBUG3;51.0;DEBUG4;0.0
ATTITUDE;ANGX;-12.0;ANGY;2.0;HEAD;-125.0
STATUS;CYCLETIME;2928;I2CERR;0;PRESENT;23;MODE;2
RAW_IMU;AX;-22.0;AY;-3.0;AZ;254.0;GX;-8.0;GY;1.0;GZ;1.0;MAGX;78.0;MAGY;-89.0;MAGZ;57.0
MOT;0;1000.0;1;1000.0;2;1000.0;3;1000.0;4;0.0;5;0.0;6;0.0;7;0.0;
RC;ROLL;1497.0;PITCH;1501.0;YAW;1508.0;THROTTLE;1062.0;AUX1;2000.0;AUX2;1500.0;AUX3;1500.0;AUX4;1500.0
ALTITUDE;51.0
DEBUG;DEBUG10.0;DEBUG2;0.0;DEBUG3;51.0;DEBUG4;0.0
ATTITUDE;ANGX;-12.0;ANGY;2.0;HEAD;-125.0
STATUS;CYCLETIME;2992;I2CERR;0;PRESENT;23;MODE;2
RAW_IMU;AX;-22.0;AY;-4.0;AZ;254.0;GX;-10.0;GY;3.0;GZ;0.0;MAGX;78.0;MAGY;-90.0;MAGZ;54.0
MOT;0;1000.0;1;1000.0;2;1000.0;3;1000.0;4;0.0;5;0.0;6;0.0;7;0.0;
RC;ROLL;1497.0;PITCH;1501.0;YAW;1510.0;THROTTLE;1062.0;AUX1;2002.0;AUX2;1500.0;AUX3;1500.0;AUX4;1500.0
ALTITUDE;51.0
DEBUG;DEBUG10.0;DEBUG2;0.0;DEBUG3;51.0;DEBUG4;0.0
ATTITUDE;ANGX;-13.0;ANGY;2.0;HEAD;-125.0
STATUS;CYCLETIME;2892;I2CERR;0;PRESENT;23;MODE;2
RAW_IMU;AX;-25.0;AY;-2.0;AZ;255.0;GX;-10.0;GY;4.0;GZ;1.0;MAGX;78.0;MAGY;-90.0;MAGZ;54.0
MOT;0;1000.0;1;1000.0;2;1000.0;3;1000.0;4;0.0;5;0.0;6;0.0;7;0.0;
RC;ROLL;1497.0;PITCH;1501.0;YAW;1510.0;THROTTLE;1062.0;AUX1;2002.0;AUX2;1500.0;AUX3;1500.0;AUX4;1500.0
ALTITUDE;51.0
DEBUG;DEBUG10.0;DEBUG2;0.0;DEBUG3;51.0;DEBUG4;0.0
ATTITUDE;ANGX;-14.0;ANGY;2.0;HEAD;-125.0
STATUS;CYCLETIME;2892;I2CERR;0;PRESENT;23;MODE;2
RAW_IMU;AX;-25.0;AY;-1.0;AZ;256.0;GX;-8.0;GY;2.0;GZ;2.0;MAGX;78.0;MAGY;-90.0;MAGZ;49.0
MOT;0;1000.0;1;1000.0;2;1000.0;3;1000.0;4;0.0;5;0.0;6;0.0;7;0.0;
RC;ROLL;1497.0;PITCH;1501.0;YAW;1510.0;THROTTLE;1062.0;AUX1;2002.0;AUX2;1500.0;AUX3;1500.0;AUX4;1500.0
ALTITUDE;51.0
DEBUG;DEBUG10.0;DEBUG2;0.0;DEBUG3;51.0;DEBUG4;0.0
ATTITUDE;ANGX;-15.0;ANGY;2.0;HEAD;-124.0
STATUS;CYCLETIME;2884;I2CERR;0;PRESENT;23;MODE;2
RAW_IMU;AX;-24.0;AY;-1.0;AZ;259.0;GX;-6.0;GY;0.0;GZ;2.0;MAGX;78.0;MAGY;-90.0;MAGZ;49.0
MOT;0;1000.0;1;1000.0;2;1000.0;3;1000.0;4;0.0;5;0.0;6;0.0;7;0.0;
RC;ROLL;1495.0;PITCH;1504.0;YAW;1510.0;THROTTLE;1062.0;AUX1;2002.0;AUX2;1500.0;AUX3;1500.0;AUX4;1500.0
ALTITUDE;51.0
DEBUG;DEBUG10.0;DEBUG2;0.0;DEBUG3;51.0;DEBUG4;0.0
ATTITUDE;ANGX;-15.0;ANGY;2.0;HEAD;-124.0
STATUS;CYCLETIME;2920;I2CERR;0;PRESENT;23;MODE;2
RAW_IMU;AX;-26.0;AY;0.0;AZ;258.0;GX;-5.0;GY;-1.0;GZ;2.0;MAGX;77.0;MAGY;-90.0;MAGZ;46.0
MOT;0;1000.0;1;1000.0;2;1000.0;3;1000.0;4;0.0;5;0.0;6;0.0;7;0.0;
RC;ROLL;1495.0;PITCH;1504.0;YAW;1510.0;THROTTLE;1062.0;AUX1;2002.0;AUX2;1500.0;AUX3;1500.0;AUX4;1500.0
ALTITUDE;51.0
DEBUG;DEBUG10.0;DEBUG2;0.0;DEBUG3;51.0;DEBUG4;0.0
ATTITUDE;ANGX;-16.0;ANGY;2.0;HEAD;-124.0
STATUS;CYCLETIME;3008;I2CERR;0;PRESENT;23;MODE;2
RAW_IMU;AX;-23.0;AY;-3.0;AZ;256.0;GX;-5.0;GY;-1.0;GZ;1.0;MAGX;77.0;MAGY;-90.0;MAGZ;46.0
MOT;0;1000.0;1;1000.0;2;1000.0;3;1000.0;4;0.0;5;0.0;6;0.0;7;0.0;
RC;ROLL;1495.0;PITCH;1504.0;YAW;1510.0;THROTTLE;1060.0;AUX1;2002.0;AUX2;1500.0;AUX3;1500.0;AUX4;1500.0
ALTITUDE;51.0
DEBUG;DEBUG10.0;DEBUG2;0.0;DEBUG3;51.0;DEBUG4;0.0
ATTITUDE;ANGX;-16.0;ANGY;2.0;HEAD;-124.0
STATUS;CYCLETIME;2892;I2CERR;0;PRESENT;23;MODE;2
RAW_IMU;AX;-23.0;AY;-4.0;AZ;252.0;GX;-4.0;GY;0.0;GZ;1.0;MAGX;77.0;MAGY;-90.0;MAGZ;46.0
MOT;0;1000.0;1;1000.0;2;1000.0;3;1000.0;4;0.0;5;0.0;6;0.0;7;0.0;
RC;ROLL;1495.0;PITCH;1502.0;YAW;1510.0;THROTTLE;1060.0;AUX1;2002.0;AUX2;1500.0;AUX3;1500.0;AUX4;1500.0
ALTITUDE;51.0
DEBUG;DEBUG10.0;DEBUG2;0.0;DEBUG3;51.0;DEBUG4;0.0
ATTITUDE;ANGX;-16.0;ANGY;1.0;HEAD;-124.0
STATUS;CYCLETIME;2900;I2CERR;0;PRESENT;23;MODE;2
RAW_IMU;AX;-21.0;AY;-5.0;AZ;253.0;GX;-5.0;GY;2.0;GZ;1.0;MAGX;78.0;MAGY;-91.0;MAGZ;45.0
MOT;0;1000.0;1;1000.0;2;1000.0;3;1000.0;4;0.0;5;0.0;6;0.0;7;0.0;
RC;ROLL;1495.0;PITCH;1502.0;YAW;1508.0;THROTTLE;1060.0;AUX1;2002.0;AUX2;1500.0;AUX3;1500.0;AUX4;1500.0
ALTITUDE;51.0
DEBUG;DEBUG10.0;DEBUG2;0.0;DEBUG3;51.0;DEBUG4;0.0
ATTITUDE;ANGX;-17.0;ANGY;1.0;HEAD;-124.0
STATUS;CYCLETIME;3052;I2CERR;0;PRESENT;23;MODE;2
RAW_IMU;AX;-24.0;AY;-4.0;AZ;252.0;GX;-4.0;GY;3.0;GZ;1.0;MAGX;78.0;MAGY;-91.0;MAGZ;45.0
MOT;0;1000.0;1;1000.0;2;1000.0;3;1000.0;4;0.0;5;0.0;6;0.0;7;0.0;
RC;ROLL;1495.0;PITCH;1502.0;YAW;1506.0;THROTTLE;1063.0;AUX1;2002.0;AUX2;1500.0;AUX3;1500.0;AUX4;1500.0
ALTITUDE;51.0
DEBUG;DEBUG10.0;DEBUG2;0.0;DEBUG3;51.0;DEBUG4;0.0
ATTITUDE;ANGX;-17.0;ANGY;2.0;HEAD;-124.0
STATUS;CYCLETIME;2900;I2CERR;0;PRESENT;23;MODE;2
RAW_IMU;AX;-24.0;AY;-2.0;AZ;255.0;GX;-4.0;GY;3.0;GZ;1.0;MAGX;78.0;MAGY;-90.0;MAGZ;42.0
MOT;0;1000.0;1;1000.0;2;1000.0;3;1000.0;4;0.0;5;0.0;6;0.0;7;0.0;
RC;ROLL;1492.0;PITCH;1502.0;YAW;1506.0;THROTTLE;1063.0;AUX1;2002.0;AUX2;1500.0;AUX3;1500.0;AUX4;1500.0
ALTITUDE;51.0
DEBUG;DEBUG10.0;DEBUG2;0.0;DEBUG3;51.0;DEBUG4;0.0
ATTITUDE;ANGX;-17.0;ANGY;2.0;HEAD;-124.0
STATUS;CYCLETIME;2904;I2CERR;0;PRESENT;23;MODE;2
RAW_IMU;AX;-25.0;AY;-2.0;AZ;255.0;GX;-1.0;GY;0.0;GZ;0.0;MAGX;78.0;MAGY;-90.0;MAGZ;42.0
MOT;0;1000.0;1;1000.0;2;1000.0;3;1000.0;4;0.0;5;0.0;6;0.0;7;0.0;
RC;ROLL;1492.0;PITCH;1502.0;YAW;1506.0;THROTTLE;1063.0;AUX1;2004.0;AUX2;1500.0;AUX3;1500.0;AUX4;1500.0
ALTITUDE;51.0
DEBUG;DEBUG10.0;DEBUG2;0.0;DEBUG3;51.0;DEBUG4;0.0
ATTITUDE;ANGX;-17.0;ANGY;2.0;HEAD;-124.0
STATUS;CYCLETIME;3008;I2CERR;0;PRESENT;23;MODE;2
RAW_IMU;AX;-25.0;AY;-1.0;AZ;256.0;GX;0.0;GY;0.0;GZ;0.0;MAGX;78.0;MAGY;-90.0;MAGZ;41.0
MOT;0;1000.0;1;1000.0;2;1000.0;3;1000.0;4;0.0;5;0.0;6;0.0;7;0.0;
RC;ROLL;1492.0;PITCH;1504.0;YAW;1506.0;THROTTLE;1063.0;AUX1;2004.0;AUX2;1500.0;AUX3;1500.0;AUX4;1500.0
ALTITUDE;51.0
DEBUG;DEBUG10.0;DEBUG2;0.0;DEBUG3;51.0;DEBUG4;0.0
ATTITUDE;ANGX;-17.0;ANGY;2.0;HEAD;-124.0
STATUS;CYCLETIME;2912;I2CERR;0;PRESENT;23;MODE;2
RAW_IMU;AX;-24.0;AY;-4.0;AZ;255.0;GX;2.0;GY;-2.0;GZ;0.0;MAGX;78.0;MAGY;-90.0;MAGZ;41.0
MOT;0;1000.0;1;1000.0;2;1000.0;3;1000.0;4;0.0;5;0.0;6;0.0;7;0.0;
RC;ROLL;1499.0;PITCH;1504.0;YAW;1506.0;THROTTLE;1063.0;AUX1;2004.0;AUX2;1500.0;AUX3;1500.0;AUX4;1500.0
ALTITUDE;51.0
DEBUG;DEBUG10.0;DEBUG2;0.0;DEBUG3;51.0;DEBUG4;0.0
ATTITUDE;ANGX;-16.0;ANGY;2.0;HEAD;-124.0
STATUS;CYCLETIME;2888;I2CERR;0;PRESENT;23;MODE;2
RAW_IMU;AX;-24.0;AY;-5.0;AZ;254.0;GX;4.0;GY;-1.0;GZ;0.0;MAGX;78.0;MAGY;-90.0;MAGZ;43.0
MOT;0;1000.0;1;1000.0;2;1000.0;3;1000.0;4;0.0;5;0.0;6;0.0;7;0.0;
RC;ROLL;1499.0;PITCH;1502.0;YAW;1506.0;THROTTLE;1063.0;AUX1;2004.0;AUX2;1500.0;AUX3;1500.0;AUX4;1500.0
ALTITUDE;51.0
DEBUG;DEBUG10.0;DEBUG2;0.0;DEBUG3;51.0;DEBUG4;0.0
ATTITUDE;ANGX;-16.0;ANGY;1.0;HEAD;-124.0
STATUS;CYCLETIME;2892;I2CERR;0;PRESENT;23;MODE;2
RAW_IMU;AX;-25.0;AY;-6.0;AZ;254.0;GX;5.0;GY;1.0;GZ;0.0;MAGX;78.0;MAGY;-90.0;MAGZ;43.0
MOT;0;1000.0;1;1000.0;2;1000.0;3;1000.0;4;0.0;5;0.0;6;0.0;7;0.0;
RC;ROLL;1499.0;PITCH;1504.0;YAW;1506.0;THROTTLE;1061.0;AUX1;2004.0;AUX2;1500.0;AUX3;1500.0;AUX4;1500.0
ALTITUDE;51.0
DEBUG;DEBUG10.0;DEBUG2;0.0;DEBUG3;51.0;DEBUG4;0.0
ATTITUDE;ANGX;-15.0;ANGY;1.0;HEAD;-124.0
STATUS;CYCLETIME;3200;I2CERR;0;PRESENT;23;MODE;2
RAW_IMU;AX;-25.0;AY;-5.0;AZ;254.0;GX;4.0;GY;3.0;GZ;0.0;MAGX;78.0;MAGY;-89.0;MAGZ;49.0
MOT;0;1000.0;1;1000.0;2;1000.0;3;1000.0;4;0.0;5;0.0;6;0.0;7;0.0;
RC;ROLL;1497.0;PITCH;1504.0;YAW;1512.0;THROTTLE;1061.0;AUX1;2001.0;AUX2;1500.0;AUX3;1500.0;AUX4;1500.0
ALTITUDE;51.0
DEBUG;DEBUG10.0;DEBUG2;0.0;DEBUG3;51.0;DEBUG4;0.0
ATTITUDE;ANGX;-14.0;ANGY;1.0;HEAD;-125.0
STATUS;CYCLETIME;2868;I2CERR;0;PRESENT;23;MODE;2
RAW_IMU;AX;-26.0;AY;-4.0;AZ;254.0;GX;3.0;GY;4.0;GZ;0.0;MAGX;78.0;MAGY;-89.0;MAGZ;49.0
MOT;0;1000.0;1;1000.0;2;1000.0;3;1000.0;4;0.0;5;0.0;6;0.0;7;0.0;
RC;ROLL;1497.0;PITCH;1504.0;YAW;1512.0;THROTTLE;1061.0;AUX1;2001.0;AUX2;1500.0;AUX3;1500.0;AUX4;1500.0
ALTITUDE;51.0
DEBUG;DEBUG10.0;DEBUG2;0.0;DEBUG3;51.0;DEBUG4;0.0
ATTITUDE;ANGX;-13.0;ANGY;2.0;HEAD;-125.0
STATUS;CYCLETIME;2908;I2CERR;0;PRESENT;23;MODE;2
RAW_IMU;AX;-26.0;AY;-2.0;AZ;257.0;GX;0.0;GY;3.0;GZ;0.0;MAGX;78.0;MAGY;-89.0;MAGZ;49.0
MOT;0;1000.0;1;1000.0;2;1000.0;3;1000.0;4;0.0;5;0.0;6;0.0;7;0.0;
RC;ROLL;1497.0;PITCH;1504.0;YAW;1512.0;THROTTLE;1061.0;AUX1;2001.0;AUX2;1500.0;AUX3;1500.0;AUX4;1500.0
ALTITUDE;51.0
DEBUG;DEBUG10.0;DEBUG2;0.0;DEBUG3;51.0;DEBUG4;0.0
ATTITUDE;ANGX;-13.0;ANGY;2.0;HEAD;-124.0
STATUS;CYCLETIME;2888;I2CERR;0;PRESENT;23;MODE;2
RAW_IMU;AX;-23.0;AY;4.0;AZ;256.0;GX;-1.0;GY;0.0;GZ;1.0;MAGX;77.0;MAGY;-89.0;MAGZ;53.0
MOT;0;1000.0;1;1000.0;2;1000.0;3;1000.0;4;0.0;5;0.0;6;0.0;7;0.0;
RC;ROLL;1497.0;PITCH;1504.0;YAW;1512.0;THROTTLE;1061.0;AUX1;2005.0;AUX2;1500.0;AUX3;1500.0;AUX4;1500.0
ALTITUDE;51.0
DEBUG;DEBUG10.0;DEBUG2;0.0;DEBUG3;51.0;DEBUG4;0.0
ATTITUDE;ANGX;-13.0;ANGY;2.0;HEAD;-124.0
STATUS;CYCLETIME;3004;I2CERR;0;PRESENT;23;MODE;2
RAW_IMU;AX;-22.0;AY;2.0;AZ;256.0;GX;-3.0;GY;-1.0;GZ;1.0;MAGX;77.0;MAGY;-89.0;MAGZ;53.0
MOT;0;1000.0;1;1000.0;2;1000.0;3;1000.0;4;0.0;5;0.0;6;0.0;7;0.0;
RC;ROLL;1494.0;PITCH;1504.0;YAW;1512.0;THROTTLE;1061.0;AUX1;2005.0;AUX2;1500.0;AUX3;1500.0;AUX4;1500.0
ALTITUDE;51.0
DEBUG;DEBUG10.0;DEBUG2;0.0;DEBUG3;51.0;DEBUG4;0.0
ATTITUDE;ANGX;-13.0;ANGY;2.0;HEAD;-124.0
STATUS;CYCLETIME;2884;I2CERR;0;PRESENT;23;MODE;2
RAW_IMU;AX;-22.0;AY;-2.0;AZ;255.0;GX;-4.0;GY;-1.0;GZ;0.0;MAGX;78.0;MAGY;-91.0;MAGZ;54.0
MOT;0;1000.0;1;1000.0;2;1000.0;3;1000.0;4;0.0;5;0.0;6;0.0;7;0.0;
RC;ROLL;1494.0;PITCH;1502.0;YAW;1512.0;THROTTLE;1061.0;AUX1;2005.0;AUX2;1500.0;AUX3;1500.0;AUX4;1500.0
ALTITUDE;51.0
DEBUG;DEBUG10.0;DEBUG2;0.0;DEBUG3;51.0;DEBUG4;0.0
ATTITUDE;ANGX;-13.0;ANGY;2.0;HEAD;-125.0
STATUS;CYCLETIME;2860;I2CERR;0;PRESENT;23;MODE;2
RAW_IMU;AX;-24.0;AY;-4.0;AZ;255.0;GX;-4.0;GY;0.0;GZ;0.0;MAGX;78.0;MAGY;-91.0;MAGZ;54.0
MOT;0;1000.0;1;1000.0;2;1000.0;3;1000.0;4;0.0;5;0.0;6;0.0;7;0.0;
RC;ROLL;1494.0;PITCH;1502.0;YAW;1512.0;THROTTLE;1061.0;AUX1;2002.0;AUX2;1500.0;AUX3;1500.0;AUX4;1500.0
ALTITUDE;51.0
DEBUG;DEBUG10.0;DEBUG2;0.0;DEBUG3;51.0;DEBUG4;0.0
ATTITUDE;ANGX;-13.0;ANGY;2.0;HEAD;-125.0
STATUS;CYCLETIME;3044;I2CERR;0;PRESENT;23;MODE;2
RAW_IMU;AX;-24.0;AY;-4.0;AZ;255.0;GX;-4.0;GY;2.0;GZ;0.0;MAGX;80.0;MAGY;-89.0;MAGZ;52.0
MOT;0;1000.0;1;1000.0;2;1000.0;3;1000.0;4;0.0;5;0.0;6;0.0;7;0.0;
RC;ROLL;1494.0;PITCH;1502.0;YAW;1510.0;THROTTLE;1061.0;AUX1;1999.0;AUX2;1500.0;AUX3;1500.0;AUX4;1500.0
ALTITUDE;51.0
DEBUG;DEBUG10.0;DEBUG2;0.0;DEBUG3;51.0;DEBUG4;0.0
ATTITUDE;ANGX;-13.0;ANGY;2.0;HEAD;-124.0
STATUS;CYCLETIME;2896;I2CERR;0;PRESENT;23;MODE;2
RAW_IMU;AX;-24.0;AY;-4.0;AZ;256.0;GX;-5.0;GY;3.0;GZ;0.0;MAGX;80.0;MAGY;-89.0;MAGZ;52.0
MOT;0;1000.0;1;1000.0;2;1000.0;3;1000.0;4;0.0;5;0.0;6;0.0;7;0.0;
RC;ROLL;1497.0;PITCH;1502.0;YAW;1510.0;THROTTLE;1061.0;AUX1;1999.0;AUX2;1500.0;AUX3;1500.0;AUX4;1500.0
ALTITUDE;51.0
DEBUG;DEBUG10.0;DEBUG2;0.0;DEBUG3;51.0;DEBUG4;0.0
ATTITUDE;ANGX;-14.0;ANGY;2.0;HEAD;-124.0
STATUS;CYCLETIME;2892;I2CERR;0;PRESENT;23;MODE;2
RAW_IMU;AX;-25.0;AY;-4.0;AZ;256.0;GX;-6.0;GY;3.0;GZ;1.0;MAGX;77.0;MAGY;-90.0;MAGZ;50.0
MOT;0;1000.0;1;1000.0;2;1000.0;3;1000.0;4;0.0;5;0.0;6;0.0;7;0.0;
RC;ROLL;1497.0;PITCH;1502.0;YAW;1510.0;THROTTLE;1059.0;AUX1;2004.0;AUX2;1500.0;AUX3;1500.0;AUX4;1500.0
ALTITUDE;51.0
DEBUG;DEBUG10.0;DEBUG2;0.0;DEBUG3;51.0;DEBUG4;0.0
ATTITUDE;ANGX;-14.0;ANGY;2.0;HEAD;-124.0
STATUS;CYCLETIME;2888;I2CERR;0;PRESENT;23;MODE;2
RAW_IMU;AX;-22.0;AY;-3.0;AZ;256.0;GX;-7.0;GY;2.0;GZ;1.0;MAGX;77.0;MAGY;-90.0;MAGZ;50.0
MOT;0;1000.0;1;1000.0;2;1000.0;3;1000.0;4;0.0;5;0.0;6;0.0;7;0.0;
RC;ROLL;1497.0;PITCH;1502.0;YAW;1510.0;THROTTLE;1059.0;AUX1;2004.0;AUX2;1500.0;AUX3;1500.0;AUX4;1500.0
ALTITUDE;50.0
DEBUG;DEBUG10.0;DEBUG2;0.0;DEBUG3;50.0;DEBUG4;0.0
ATTITUDE;ANGX;-15.0;ANGY;2.0;HEAD;-124.0
STATUS;CYCLETIME;2904;I2CERR;0;PRESENT;23;MODE;2
RAW_IMU;AX;-23.0;AY;-2.0;AZ;256.0;GX;-8.0;GY;1.0;GZ;1.0;MAGX;76.0;MAGY;-91.0;MAGZ;49.0
MOT;0;1000.0;1;1000.0;2;1000.0;3;1000.0;4;0.0;5;0.0;6;0.0;7;0.0;
RC;ROLL;1497.0;PITCH;1502.0;YAW;1510.0;THROTTLE;1059.0;AUX1;2004.0;AUX2;1500.0;AUX3;1500.0;AUX4;1500.0
ALTITUDE;50.0
DEBUG;DEBUG10.0;DEBUG2;0.0;DEBUG3;50.0;DEBUG4;0.0
ATTITUDE;ANGX;-15.0;ANGY;2.0;HEAD;-124.0
STATUS;CYCLETIME;3052;I2CERR;0;PRESENT;23;MODE;2
RAW_IMU;AX;-22.0;AY;1.0;AZ;257.0;GX;-7.0;GY;0.0;GZ;1.0;MAGX;76.0;MAGY;-91.0;MAGZ;49.0
MOT;0;1000.0;1;1000.0;2;1000.0;3;1000.0;4;0.0;5;0.0;6;0.0;7;0.0;
RC;ROLL;1497.0;PITCH;1505.0;YAW;1510.0;THROTTLE;1059.0;AUX1;2004.0;AUX2;1500.0;AUX3;1500.0;AUX4;1500.0
ALTITUDE;50.0
DEBUG;DEBUG10.0;DEBUG2;0.0;DEBUG3;50.0;DEBUG4;0.0
ATTITUDE;ANGX;-16.0;ANGY;2.0;HEAD;-124.0
STATUS;CYCLETIME;2896;I2CERR;0;PRESENT;23;MODE;2
RAW_IMU;AX;-23.0;AY;-1.0;AZ;255.0;GX;-6.0;GY;0.0;GZ;1.0;MAGX;77.0;MAGY;-91.0;MAGZ;44.0
MOT;0;1000.0;1;1000.0;2;1000.0;3;1000.0;4;0.0;5;0.0;6;0.0;7;0.0;
RC;ROLL;1497.0;PITCH;1505.0;YAW;1510.0;THROTTLE;1059.0;AUX1;2004.0;AUX2;1500.0;AUX3;1500.0;AUX4;1500.0
ALTITUDE;50.0
DEBUG;DEBUG10.0;DEBUG2;0.0;DEBUG3;50.0;DEBUG4;0.0
ATTITUDE;ANGX;-16.0;ANGY;2.0;HEAD;-124.0
STATUS;CYCLETIME;2912;I2CERR;0;PRESENT;23;MODE;2
RAW_IMU;AX;-23.0;AY;0.0;AZ;254.0;GX;-4.0;GY;0.0;GZ;1.0;MAGX;77.0;MAGY;-91.0;MAGZ;44.0
MOT;0;1000.0;1;1000.0;2;1000.0;3;1000.0;4;0.0;5;0.0;6;0.0;7;0.0;
RC;ROLL;1497.0;PITCH;1502.0;YAW;1508.0;THROTTLE;1059.0;AUX1;2004.0;AUX2;1500.0;AUX3;1500.0;AUX4;1500.0
ALTITUDE;50.0
DEBUG;DEBUG10.0;DEBUG2;0.0;DEBUG3;50.0;DEBUG4;0.0
ATTITUDE;ANGX;-16.0;ANGY;2.0;HEAD;-124.0
STATUS;CYCLETIME;3004;I2CERR;0;PRESENT;23;MODE;2
RAW_IMU;AX;-22.0;AY;-2.0;AZ;254.0;GX;-2.0;GY;0.0;GZ;1.0;MAGX;77.0;MAGY;-91.0;MAGZ;44.0
MOT;0;1000.0;1;1000.0;2;1000.0;3;1000.0;4;0.0;5;0.0;6;0.0;7;0.0;
RC;ROLL;1497.0;PITCH;1502.0;YAW;1508.0;THROTTLE;1059.0;AUX1;2004.0;AUX2;1500.0;AUX3;1500.0;AUX4;1500.0
ALTITUDE;50.0
DEBUG;DEBUG10.0;DEBUG2;0.0;DEBUG3;50.0;DEBUG4;0.0
ATTITUDE;ANGX;-16.0;ANGY;2.0;HEAD;-124.0
STATUS;CYCLETIME;2916;I2CERR;0;PRESENT;23;MODE;2
RAW_IMU;AX;-21.0;AY;-3.0;AZ;253.0;GX;-1.0;GY;1.0;GZ;0.0;MAGX;78.0;MAGY;-90.0;MAGZ;44.0
MOT;0;1000.0;1;1000.0;2;1000.0;3;1000.0;4;0.0;5;0.0;6;0.0;7;0.0;
RC;ROLL;1497.0;PITCH;1502.0;YAW;1511.0;THROTTLE;1059.0;AUX1;2004.0;AUX2;1500.0;AUX3;1500.0;AUX4;1500.0
ALTITUDE;50.0
DEBUG;DEBUG10.0;DEBUG2;0.0;DEBUG3;50.0;DEBUG4;0.0
ATTITUDE;ANGX;-16.0;ANGY;2.0;HEAD;-124.0
STATUS;CYCLETIME;2956;I2CERR;0;PRESENT;23;MODE;2
RAW_IMU;AX;-25.0;AY;-5.0;AZ;255.0;GX;0.0;GY;1.0;GZ;0.0;MAGX;78.0;MAGY;-90.0;MAGZ;44.0
MOT;0;1000.0;1;1000.0;2;1000.0;3;1000.0;4;0.0;5;0.0;6;0.0;7;0.0;
RC;ROLL;1497.0;PITCH;1502.0;YAW;1511.0;THROTTLE;1062.0;AUX1;2004.0;AUX2;1500.0;AUX3;1500.0;AUX4;1500.0
ALTITUDE;50.0
DEBUG;DEBUG10.0;DEBUG2;0.0;DEBUG3;50.0;DEBUG4;0.0
ATTITUDE;ANGX;-16.0;ANGY;2.0;HEAD;-124.0
STATUS;CYCLETIME;2888;I2CERR;0;PRESENT;23;MODE;2
RAW_IMU;AX;-23.0;AY;-3.0;AZ;253.0;GX;0.0;GY;1.0;GZ;0.0;MAGX;78.0;MAGY;-90.0;MAGZ;45.0
MOT;0;1000.0;1;1000.0;2;1000.0;3;1000.0;4;0.0;5;0.0;6;0.0;7;0.0;
RC;ROLL;1497.0;PITCH;1502.0;YAW;1511.0;THROTTLE;1062.0;AUX1;2004.0;AUX2;1500.0;AUX3;1500.0;AUX4;1500.0
ALTITUDE;50.0
DEBUG;DEBUG10.0;DEBUG2;0.0;DEBUG3;50.0;DEBUG4;0.0
ATTITUDE;ANGX;-16.0;ANGY;2.0;HEAD;-124.0
STATUS;CYCLETIME;2900;I2CERR;0;PRESENT;23;MODE;2
RAW_IMU;AX;-22.0;AY;-2.0;AZ;256.0;GX;0.0;GY;1.0;GZ;1.0;MAGX;78.0;MAGY;-90.0;MAGZ;45.0
MOT;0;1000.0;1;1000.0;2;1000.0;3;1000.0;4;0.0;5;0.0;6;0.0;7;0.0;
RC;ROLL;1497.0;PITCH;1502.0;YAW;1509.0;THROTTLE;1062.0;AUX1;2004.0;AUX2;1500.0;AUX3;1500.0;AUX4;1500.0
ALTITUDE;50.0
DEBUG;DEBUG10.0;DEBUG2;0.0;DEBUG3;50.0;DEBUG4;0.0
ATTITUDE;ANGX;-16.0;ANGY;2.0;HEAD;-124.0
STATUS;CYCLETIME;2912;I2CERR;0;PRESENT;23;MODE;2
RAW_IMU;AX;-23.0;AY;-1.0;AZ;257.0;GX;1.0;GY;0.0;GZ;1.0;MAGX;76.0;MAGY;-91.0;MAGZ;47.0
MOT;0;1000.0;1;1000.0;2;1000.0;3;1000.0;4;0.0;5;0.0;6;0.0;7;0.0;
RC;ROLL;1497.0;PITCH;1500.0;YAW;1509.0;THROTTLE;1062.0;AUX1;2002.0;AUX2;1500.0;AUX3;1500.0;AUX4;1500.0
ALTITUDE;50.0
DEBUG;DEBUG10.0;DEBUG2;0.0;DEBUG3;50.0;DEBUG4;0.0
ATTITUDE;ANGX;-15.0;ANGY;2.0;HEAD;-124.0
STATUS;CYCLETIME;2912;I2CERR;0;PRESENT;23;MODE;2
RAW_IMU;AX;-22.0;AY;0.0;AZ;254.0;GX;1.0;GY;1.0;GZ;0.0;MAGX;76.0;MAGY;-91.0;MAGZ;47.0
MOT;0;1000.0;1;1000.0;2;1000.0;3;1000.0;4;0.0;5;0.0;6;0.0;7;0.0;
RC;ROLL;1497.0;PITCH;1500.0;YAW;1509.0;THROTTLE;1062.0;AUX1;2002.0;AUX2;1500.0;AUX3;1500.0;AUX4;1500.0
ALTITUDE;50.0
DEBUG;DEBUG10.0;DEBUG2;0.0;DEBUG3;50.0;DEBUG4;0.0
ATTITUDE;ANGX;-15.0;ANGY;2.0;HEAD;-124.0
STATUS;CYCLETIME;2984;I2CERR;0;PRESENT;23;MODE;2
RAW_IMU;AX;-23.0;AY;-1.0;AZ;257.0;GX;2.0;GY;0.0;GZ;1.0;MAGX;77.0;MAGY;-90.0;MAGZ;49.0
MOT;0;1000.0;1;1000.0;2;1000.0;3;1000.0;4;0.0;5;0.0;6;0.0;7;0.0;
RC;ROLL;1497.0;PITCH;1502.0;YAW;1509.0;THROTTLE;1062.0;AUX1;2002.0;AUX2;1500.0;AUX3;1500.0;AUX4;1500.0
ALTITUDE;50.0
DEBUG;DEBUG10.0;DEBUG2;0.0;DEBUG3;50.0;DEBUG4;0.0
ATTITUDE;ANGX;-14.0;ANGY;2.0;HEAD;-124.0
STATUS;CYCLETIME;3008;I2CERR;0;PRESENT;23;MODE;2
RAW_IMU;AX;-22.0;AY;-2.0;AZ;256.0;GX;2.0;GY;0.0;GZ;0.0;MAGX;77.0;MAGY;-90.0;MAGZ;49.0
MOT;0;1000.0;1;1000.0;2;1000.0;3;1000.0;4;0.0;5;0.0;6;0.0;7;0.0;
RC;ROLL;1497.0;PITCH;1502.0;YAW;1509.0;THROTTLE;1062.0;AUX1;2002.0;AUX2;1500.0;AUX3;1500.0;AUX4;1500.0
ALTITUDE;50.0
DEBUG;DEBUG10.0;DEBUG2;0.0;DEBUG3;50.0;DEBUG4;0.0
ATTITUDE;ANGX;-14.0;ANGY;2.0;HEAD;-124.0
STATUS;CYCLETIME;3176;I2CERR;0;PRESENT;23;MODE;2
RAW_IMU;AX;-22.0;AY;-2.0;AZ;256.0;GX;2.0;GY;0.0;GZ;1.0;MAGX;78.0;MAGY;-90.0;MAGZ;51.0
MOT;0;1000.0;1;1000.0;2;1000.0;3;1000.0;4;0.0;5;0.0;6;0.0;7;0.0;
RC;ROLL;1497.0;PITCH;1502.0;YAW;1509.0;THROTTLE;1062.0;AUX1;2002.0;AUX2;1500.0;AUX3;1500.0;AUX4;1500.0
ALTITUDE;50.0
DEBUG;DEBUG10.0;DEBUG2;0.0;DEBUG3;50.0;DEBUG4;0.0
ATTITUDE;ANGX;-13.0;ANGY;2.0;HEAD;-124.0
STATUS;CYCLETIME;2904;I2CERR;0;PRESENT;23;MODE;2
RAW_IMU;AX;-23.0;AY;-1.0;AZ;256.0;GX;1.0;GY;1.0;GZ;0.0;MAGX;78.0;MAGY;-90.0;MAGZ;51.0
MOT;0;1000.0;1;1000.0;2;1000.0;3;1000.0;4;0.0;5;0.0;6;0.0;7;0.0;
RC;ROLL;1494.0;PITCH;1502.0;YAW;1509.0;THROTTLE;1062.0;AUX1;2002.0;AUX2;1500.0;AUX3;1500.0;AUX4;1500.0
ALTITUDE;50.0
