IDENT;V;220;TYPE;3
MSP_MOTOR_PINS
STATUS;CYCLETIME;2888;I2CERR;0;PRESENT;23;MODE;0
RAW_IMU;AX;78.0;AY;-11.0;AZ;247.0;GX;0.0;GY;0.0;GZ;-1.0;MAGX;17.0;MAGY;-111.0;MAGZ;77.0
MOT;0;1000.0;1;1000.0;2;1000.0;3;1000.0;4;0.0;5;0.0;6;0.0;7;0.0;
RC;ROLL;1497.0;PITCH;1515.0;YAW;1536.0;THROTTLE;1058.0;AUX1;1547.0;AUX2;1500.0;AUX3;1500.0;AUX4;1500.0
ALTITUDE;0.0
DEBUG;DEBUG10.0;DEBUG2;0.0;DEBUG3;0.0;DEBUG4;0.0
ATTITUDE;ANGX;16.0;ANGY;-4.0;HEAD;184.0
STATUS;CYCLETIME;2892;I2CERR;0;PRESENT;23;MODE;0
RAW_IMU;AX;79.0;AY;-11.0;AZ;246.0;GX;0.0;GY;0.0;GZ;-1.0;MAGX;17.0;MAGY;-111.0;MAGZ;77.0
MOT;0;1000.0;1;1000.0;2;1000.0;3;1000.0;4;0.0;5;0.0;6;0.0;7;0.0;
RC;ROLL;1497.0;PITCH;1515.0;YAW;1536.0;THROTTLE;1058.0;AUX1;1547.0;AUX2;1500.0;AUX3;1500.0;AUX4;1500.0
ALTITUDE;0.0
DEBUG;DEBUG10.0;DEBUG2;0.0;DEBUG3;0.0;DEBUG4;0.0
ATTITUDE;ANGX;16.0;ANGY;-4.0;HEAD;184.0
ATTITUDE;ANGX;16.0;ANGY;-4.0;HEAD;184.0
STATUS;CYCLETIME;2900;I2CERR;0;PRESENT;23;MODE;0
RAW_IMU;AX;79.0;AY;-11.0;AZ;247.0;GX;0.0;GY;0.0;GZ;-1.0;MAGX;17.0;MAGY;-112.0;MAGZ;78.0
MOT;0;1000.0;1;1000.0;2;1000.0;3;1000.0;4;0.0;5;0.0;6;0.0;7;0.0;
RC;ROLL;1497.0;PITCH;1515.0;YAW;1536.0;THROTTLE;1058.0;AUX1;1547.0;AUX2;1500.0;AUX3;1500.0;AUX4;1500.0
ALTITUDE;0.0
DEBUG;DEBUG10.0;DEBUG2;0.0;DEBUG3;0.0;DEBUG4;0.0
ATTITUDE;ANGX;16.0;ANGY;-4.0;HEAD;184.0
STATUS;CYCLETIME;2892;I2CERR;0;PRESENT;23;MODE;0
RAW_IMU;AX;80.0;AY;-14.0;AZ;246.0;GX;-1.0;GY;0.0;GZ;-2.0;MAGX;17.0;MAGY;-112.0;MAGZ;78.0
MOT;0;1000.0;1;1000.0;2;1000.0;3;1000.0;4;0.0;5;0.0;6;0.0;7;0.0;
RC;ROLL;1497.0;PITCH;1515.0;YAW;1536.0;THROTTLE;1058.0;AUX1;1547.0;AUX2;1500.0;AUX3;1500.0;AUX4;1500.0
ALTITUDE;0.0
DEBUG;DEBUG10.0;DEBUG2;0.0;DEBUG3;0.0;DEBUG4;0.0
ATTITUDE;ANGX;16.0;ANGY;-4.0;HEAD;184.0
STATUS;CYCLETIME;2908;I2CERR;0;PRESENT;23;MODE;0
RAW_IMU;AX;78.0;AY;-11.0;AZ;249.0;GX;0.0;GY;0.0;GZ;-2.0;MAGX;16.0;MAGY;-110.0;MAGZ;77.0
MOT;0;1000.0;1;1000.0;2;1000.0;3;1000.0;4;0.0;5;0.0;6;0.0;7;0.0;
RC;ROLL;1497.0;PITCH;1515.0;YAW;1536.0;THROTTLE;1058.0;AUX1;1547.0;AUX2;1500.0;AUX3;1500.0;AUX4;1500.0
ALTITUDE;0.0
DEBUG;DEBUG10.0;DEBUG2;0.0;DEBUG3;0.0;DEBUG4;0.0
ATTITUDE;ANGX;16.0;ANGY;-4.0;HEAD;184.0
STATUS;CYCLETIME;2888;I2CERR;0;PRESENT;23;MODE;0
RAW_IMU;AX;81.0;AY;-12.0;AZ;247.0;GX;0.0;GY;0.0;GZ;-1.0;MAGX;16.0;MAGY;-110.0;MAGZ;77.0
MOT;0;1000.0;1;1000.0;2;1000.0;3;1000.0;4;0.0;5;0.0;6;0.0;7;0.0;
RC;ROLL;1497.0;PITCH;1515.0;YAW;1536.0;THROTTLE;1058.0;AUX1;1547.0;AUX2;1500.0;AUX3;1500.0;AUX4;1500.0
ALTITUDE;0.0
DEBUG;DEBUG10.0;DEBUG2;0.0;DEBUG3;0.0;DEBUG4;0.0
ATTITUDE;ANGX;16.0;ANGY;-4.0;HEAD;184.0
STATUS;CYCLETIME;2872;I2CERR;0;PRESENT;23;MODE;0
RAW_IMU;AX;80.0;AY;-11.0;AZ;248.0;GX;0.0;GY;0.0;GZ;-1.0;MAGX;16.0;MAGY;-112.0;MAGZ;77.0
MOT;0;1000.0;1;1000.0;2;1000.0;3;1000.0;4;0.0;5;0.0;6;0.0;7;0.0;
RC;ROLL;1497.0;PITCH;1515.0;YAW;1536.0;THROTTLE;1058.0;AUX1;1547.0;AUX2;1500.0;AUX3;1500.0;AUX4;1500.0
ALTITUDE;0.0
DEBUG;DEBUG10.0;DEBUG2;0.0;DEBUG3;0.0;DEBUG4;0.0
ATTITUDE;ANGX;16.0;ANGY;-4.0;HEAD;184.0
STATUS;CYCLETIME;2920;I2CERR;0;PRESENT;23;MODE;0
RAW_IMU;AX;80.0;AY;-12.0;AZ;246.0;GX;0.0;GY;0.0;GZ;-1.0;MAGX;16.0;MAGY;-112.0;MAGZ;77.0
MOT;0;1000.0;1;1000.0;2;1000.0;3;1000.0;4;0.0;5;0.0;6;0.0;7;0.0;
RC;ROLL;1497.0;PITCH;1515.0;YAW;1536.0;THROTTLE;1058.0;AUX1;1547.0;AUX2;1500.0;AUX3;1500.0;AUX4;1500.0
ALTITUDE;0.0
DEBUG;DEBUG10.0;DEBUG2;0.0;DEBUG3;0.0;DEBUG4;0.0
ATTITUDE;ANGX;16.0;ANGY;-4.0;HEAD;184.0
STATUS;CYCLETIME;2884;I2CERR;0;PRESENT;23;MODE;0
RAW_IMU;AX;77.0;AY;-13.0;AZ;248.0;GX;0.0;GY;0.0;GZ;-1.0;MAGX;16.0;MAGY;-111.0;MAGZ;77.0
MOT;0;1000.0;1;1000.0;2;1000.0;3;1000.0;4;0.0;5;0.0;6;0.0;7;0.0;
RC;ROLL;1497.0;PITCH;1515.0;YAW;1536.0;THROTTLE;1058.0;AUX1;1547.0;AUX2;1500.0;AUX3;1500.0;AUX4;1500.0
ALTITUDE;0.0
DEBUG;DEBUG10.0;DEBUG2;0.0;DEBUG3;0.0;DEBUG4;0.0
ATTITUDE;ANGX;16.0;ANGY;-4.0;HEAD;184.0
STATUS;CYCLETIME;2904;I2CERR;0;PRESENT;23;MODE;0
RAW_IMU;AX;79.0;AY;-13.0;AZ;247.0;GX;0.0;GY;0.0;GZ;-1.0;MAGX;16.0;MAGY;-111.0;MAGZ;77.0
MOT;0;1000.0;1;1000.0;2;1000.0;3;1000.0;4;0.0;5;0.0;6;0.0;7;0.0;
RC;ROLL;1497.0;PITCH;1515.0;YAW;1536.0;THROTTLE;1058.0;AUX1;1547.0;AUX2;1500.0;AUX3;1500.0;AUX4;1500.0
ALTITUDE;0.0
DEBUG;DEBUG10.0;DEBUG2;0.0;DEBUG3;0.0;DEBUG4;0.0
ATTITUDE;ANGX;16.0;ANGY;-4.0;HEAD;184.0
STATUS;CYCLETIME;2904;I2CERR;0;PRESENT;23;MODE;0
RAW_IMU;AX;79.0;AY;-12.0;AZ;247.0;GX;0.0;GY;0.0;GZ;-1.0;MAGX;17.0;MAGY;-112.0;MAGZ;77.0
MOT;0;1000.0;1;1000.0;2;1000.0;3;1000.0;4;0.0;5;0.0;6;0.0;7;0.0;
RC;ROLL;1497.0;PITCH;1515.0;YAW;1536.0;THROTTLE;1058.0;AUX1;1547.0;AUX2;1500.0;AUX3;1500.0;AUX4;1500.0
ALTITUDE;0.0
DEBUG;DEBUG10.0;DEBUG2;0.0;DEBUG3;0.0;DEBUG4;0.0
ATTITUDE;ANGX;16.0;ANGY;-4.0;HEAD;184.0
STATUS;CYCLETIME;2904;I2CERR;0;PRESENT;23;MODE;0
RAW_IMU;AX;78.0;AY;-12.0;AZ;245.0;GX;0.0;GY;0.0;GZ;-1.0;MAGX;17.0;MAGY;-112.0;MAGZ;77.0
MOT;0;1000.0;1;1000.0;2;1000.0;3;1000.0;4;0.0;5;0.0;6;0.0;7;0.0;
RC;ROLL;1497.0;PITCH;1515.0;YAW;1536.0;THROTTLE;1058.0;AUX1;1547.0;AUX2;1500.0;AUX3;1500.0;AUX4;1500.0
ALTITUDE;0.0
DEBUG;DEBUG10.0;DEBUG2;0.0;DEBUG3;0.0;DEBUG4;0.0
ATTITUDE;ANGX;16.0;ANGY;-4.0;HEAD;184.0
STATUS;CYCLETIME;2876;I2CERR;0;PRESENT;23;MODE;0
RAW_IMU;AX;78.0;AY;-12.0;AZ;247.0;GX;-1.0;GY;0.0;GZ;-2.0;MAGX;17.0;MAGY;-111.0;MAGZ;77.0
MOT;0;1000.0;1;1000.0;2;1000.0;3;1000.0;4;0.0;5;0.0;6;0.0;7;0.0;
RC;ROLL;1497.0;PITCH;1515.0;YAW;1536.0;THROTTLE;1058.0;AUX1;1547.0;AUX2;1500.0;AUX3;1500.0;AUX4;1500.0
ALTITUDE;0.0
DEBUG;DEBUG10.0;DEBUG2;0.0;DEBUG3;0.0;DEBUG4;0.0
ATTITUDE;ANGX;16.0;ANGY;-4.0;HEAD;184.0
STATUS;CYCLETIME;2896;I2CERR;0;PRESENT;23;MODE;0
RAW_IMU;AX;76.0;AY;-11.0;AZ;245.0;GX;-1.0;GY;0.0;GZ;-2.0;MAGX;17.0;MAGY;-111.0;MAGZ;77.0
MOT;0;1000.0;1;1000.0;2;1000.0;3;1000.0;4;0.0;5;0.0;6;0.0;7;0.0;
RC;ROLL;1497.0;PITCH;1515.0;YAW;1536.0;THROTTLE;1058.0;AUX1;1547.0;AUX2;1500.0;AUX3;1500.0;AUX4;1500.0
ALTITUDE;0.0
DEBUG;DEBUG10.0;DEBUG2;0.0;DEBUG3;0.0;DEBUG4;0.0
ATTITUDE;ANGX;16.0;ANGY;-4.0;HEAD;184.0
STATUS;CYCLETIME;3004;I2CERR;0;PRESENT;23;MODE;0
RAW_IMU;AX;78.0;AY;-11.0;AZ;245.0;GX;-1.0;GY;0.0;GZ;-2.0;MAGX;17.0;MAGY;-110.0;MAGZ;77.0
MOT;0;1000.0;1;1000.0;2;1000.0;3;1000.0;4;0.0;5;0.0;6;0.0;7;0.0;
RC;ROLL;1497.0;PITCH;1515.0;YAW;1536.0;THROTTLE;1058.0;AUX1;1547.0;AUX2;1500.0;AUX3;1500.0;AUX4;1500.0
ALTITUDE;0.0
DEBUG;DEBUG10.0;DEBUG2;0.0;DEBUG3;0.0;DEBUG4;0.0
ATTITUDE;ANGX;16.0;ANGY;-4.0;HEAD;184.0
STATUS;CYCLETIME;2904;I2CERR;0;PRESENT;23;MODE;0
RAW_IMU;AX;82.0;AY;-11.0;AZ;245.0;GX;0.0;GY;0.0;GZ;-1.0;MAGX;17.0;MAGY;-110.0;MAGZ;77.0
MOT;0;1000.0;1;1000.0;2;1000.0;3;1000.0;4;0.0;5;0.0;6;0.0;7;0.0;
RC;ROLL;1497.0;PITCH;1515.0;YAW;1536.0;THROTTLE;1058.0;AUX1;1547.0;AUX2;1500.0;AUX3;1500.0;AUX4;1500.0
ALTITUDE;0.0
DEBUG;DEBUG10.0;DEBUG2;0.0;DEBUG3;0.0;DEBUG4;0.0
ATTITUDE;ANGX;16.0;ANGY;-4.0;HEAD;184.0
STATUS;CYCLETIME;3008;I2CERR;0;PRESENT;23;MODE;0
RAW_IMU;AX;82.0;AY;-9.0;AZ;246.0;GX;0.0;GY;0.0;GZ;-1.0;MAGX;16.0;MAGY;-111.0;MAGZ;77.0
MOT;0;1000.0;1;1000.0;2;1000.0;3;1000.0;4;0.0;5;0.0;6;0.0;7;0.0;
RC;ROLL;1497.0;PITCH;1515.0;YAW;1536.0;THROTTLE;1058.0;AUX1;1547.0;AUX2;1500.0;AUX3;1500.0;AUX4;1500.0
ALTITUDE;0.0
DEBUG;DEBUG10.0;DEBUG2;0.0;DEBUG3;0.0;DEBUG4;0.0
ATTITUDE;ANGX;16.0;ANGY;-4.0;HEAD;184.0
STATUS;CYCLETIME;2876;I2CERR;0;PRESENT;23;MODE;0
RAW_IMU;AX;80.0;AY;-12.0;AZ;246.0;GX;0.0;GY;0.0;GZ;-1.0;MAGX;16.0;MAGY;-111.0;MAGZ;77.0
MOT;0;1000.0;1;1000.0;2;1000.0;3;1000.0;4;0.0;5;0.0;6;0.0;7;0.0;
RC;ROLL;1497.0;PITCH;1515.0;YAW;1536.0;THROTTLE;1058.0;AUX1;1547.0;AUX2;1500.0;AUX3;1500.0;AUX4;1500.0
ALTITUDE;0.0
DEBUG;DEBUG10.0;DEBUG2;0.0;DEBUG3;0.0;DEBUG4;0.0
ATTITUDE;ANGX;16.0;ANGY;-4.0;HEAD;184.0
STATUS;CYCLETIME;2872;I2CERR;0;PRESENT;23;MODE;0
RAW_IMU;AX;77.0;AY;-11.0;AZ;246.0;GX;0.0;GY;0.0;GZ;-1.0;MAGX;16.0;MAGY;-111.0;MAGZ;77.0
MOT;0;1000.0;1;1000.0;2;1000.0;3;1000.0;4;0.0;5;0.0;6;0.0;7;0.0;
RC;ROLL;1497.0;PITCH;1515.0;YAW;1536.0;THROTTLE;1058.0;AUX1;1547.0;AUX2;1500.0;AUX3;1500.0;AUX4;1500.0
ALTITUDE;0.0
DEBUG;DEBUG10.0;DEBUG2;0.0;DEBUG3;0.0;DEBUG4;0.0
ATTITUDE;ANGX;16.0;ANGY;-4.0;HEAD;184.0
STATUS;CYCLETIME;2844;I2CERR;0;PRESENT;23;MODE;0
RAW_IMU;AX;77.0;AY;-10.0;AZ;246.0;GX;0.0;GY;0.0;GZ;-1.0;MAGX;17.0;MAGY;-112.0;MAGZ;77.0
MOT;0;1000.0;1;1000.0;2;1000.0;3;1000.0;4;0.0;5;0.0;6;0.0;7;0.0;
RC;ROLL;1497.0;PITCH;1515.0;YAW;1536.0;THROTTLE;1058.0;AUX1;1547.0;AUX2;1500.0;AUX3;1500.0;AUX4;1500.0
ALTITUDE;0.0
DEBUG;DEBUG10.0;DEBUG2;0.0;DEBUG3;0.0;DEBUG4;0.0
ATTITUDE;ANGX;16.0;ANGY;-4.0;HEAD;184.0
STATUS;CYCLETIME;2892;I2CERR;0;PRESENT;23;MODE;0
RAW_IMU;AX;79.0;AY;-10.0;AZ;242.0;GX;0.0;GY;0.0;GZ;-1.0;MAGX;17.0;MAGY;-112.0;MAGZ;77.0
MOT;0;1000.0;1;1000.0;2;1000.0;3;1000.0;4;0.0;5;0.0;6;0.0;7;0.0;
RC;ROLL;1497.0;PITCH;1515.0;YAW;1536.0;THROTTLE;1058.0;AUX1;1547.0;AUX2;1500.0;AUX3;1500.0;AUX4;1500.0
ALTITUDE;0.0
DEBUG;DEBUG10.0;DEBUG2;0.0;DEBUG3;0.0;DEBUG4;0.0
ATTITUDE;ANGX;16.0;ANGY;-4.0;HEAD;184.0
STATUS;CYCLETIME;2892;I2CERR;0;PRESENT;23;MODE;0
RAW_IMU;AX;79.0;AY;-12.0;AZ;243.0;GX;-1.0;GY;0.0;GZ;-2.0;MAGX;16.0;MAGY;-112.0;MAGZ;76.0
MOT;0;1000.0;1;1000.0;2;1000.0;3;1000.0;4;0.0;5;0.0;6;0.0;7;0.0;
RC;ROLL;1497.0;PITCH;1515.0;YAW;1536.0;THROTTLE;1058.0;AUX1;1547.0;AUX2;1500.0;AUX3;1500.0;AUX4;1500.0
ALTITUDE;0.0
DEBUG;DEBUG10.0;DEBUG2;0.0;DEBUG3;0.0;DEBUG4;0.0
ATTITUDE;ANGX;16.0;ANGY;-4.0;HEAD;184.0
STATUS;CYCLETIME;2896;I2CERR;0;PRESENT;23;MODE;0
RAW_IMU;AX;80.0;AY;-10.0;AZ;246.0;GX;-1.0;GY;0.0;GZ;-2.0;MAGX;16.0;MAGY;-112.0;MAGZ;76.0
MOT;0;1000.0;1;1000.0;2;1000.0;3;1000.0;4;0.0;5;0.0;6;0.0;7;0.0;
RC;ROLL;1497.0;PITCH;1515.0;YAW;1536.0;THROTTLE;1058.0;AUX1;1547.0;AUX2;1500.0;AUX3;1500.0;AUX4;1500.0
ALTITUDE;0.0
DEBUG;DEBUG10.0;DEBUG2;0.0;DEBUG3;0.0;DEBUG4;0.0
ATTITUDE;ANGX;16.0;ANGY;-4.0;HEAD;184.0
STATUS;CYCLETIME;2900;I2CERR;0;PRESENT;23;MODE;0
RAW_IMU;AX;80.0;AY;-10.0;AZ;244.0;GX;-1.0;GY;0.0;GZ;-2.0;MAGX;17.0;MAGY;-111.0;MAGZ;78.0
MOT;0;1000.0;1;1000.0;2;1000.0;3;1000.0;4;0.0;5;0.0;6;0.0;7;0.0;
RC;ROLL;1497.0;PITCH;1515.0;YAW;1536.0;THROTTLE;1058.0;AUX1;1547.0;AUX2;1500.0;AUX3;1500.0;AUX4;1500.0
ALTITUDE;0.0
DEBUG;DEBUG10.0;DEBUG2;0.0;DEBUG3;0.0;DEBUG4;0.0
ATTITUDE;ANGX;16.0;ANGY;-4.0;HEAD;184.0
STATUS;CYCLETIME;3000;I2CERR;0;PRESENT;23;MODE;0
RAW_IMU;AX;80.0;AY;-11.0;AZ;246.0;GX;0.0;GY;0.0;GZ;-1.0;MAGX;17.0;MAGY;-111.0;MAGZ;78.0
MOT;0;1000.0;1;1000.0;2;1000.0;3;1000.0;4;0.0;5;0.0;6;0.0;7;0.0;
RC;ROLL;1497.0;PITCH;1515.0;YAW;1536.0;THROTTLE;1058.0;AUX1;1547.0;AUX2;1500.0;AUX3;1500.0;AUX4;1500.0
ALTITUDE;0.0
DEBUG;DEBUG10.0;DEBUG2;0.0;DEBUG3;0.0;DEBUG4;0.0
ATTITUDE;ANGX;16.0;ANGY;-4.0;HEAD;184.0
STATUS;CYCLETIME;2904;I2CERR;0;PRESENT;23;MODE;0
RAW_IMU;AX;77.0;AY;-14.0;AZ;247.0;GX;0.0;GY;0.0;GZ;-1.0;MAGX;17.0;MAGY;-111.0;MAGZ;76.0
MOT;0;1000.0;1;1000.0;2;1000.0;3;1000.0;4;0.0;5;0.0;6;0.0;7;0.0;
RC;ROLL;1497.0;PITCH;1515.0;YAW;1536.0;THROTTLE;1058.0;AUX1;1547.0;AUX2;1500.0;AUX3;1500.0;AUX4;1500.0
ALTITUDE;0.0
DEBUG;DEBUG10.0;DEBUG2;0.0;DEBUG3;0.0;DEBUG4;0.0
ATTITUDE;ANGX;16.0;ANGY;-4.0;HEAD;184.0
STATUS;CYCLETIME;2900;I2CERR;0;PRESENT;23;MODE;0
RAW_IMU;AX;79.0;AY;-13.0;AZ;246.0;GX;0.0;GY;0.0;GZ;-1.0;MAGX;17.0;MAGY;-111.0;MAGZ;76.0
MOT;0;1000.0;1;1000.0;2;1000.0;3;1000.0;4;0.0;5;0.0;6;0.0;7;0.0;
RC;ROLL;1497.0;PITCH;1515.0;YAW;1536.0;THROTTLE;1058.0;AUX1;1547.0;AUX2;1500.0;AUX3;1500.0;AUX4;1500.0
ALTITUDE;0.0
DEBUG;DEBUG10.0;DEBUG2;0.0;DEBUG3;0.0;DEBUG4;0.0
ATTITUDE;ANGX;16.0;ANGY;-4.0;HEAD;184.0
STATUS;CYCLETIME;2972;I2CERR;0;PRESENT;23;MODE;0
RAW_IMU;AX;79.0;AY;-11.0;AZ;247.0;GX;0.0;GY;0.0;GZ;-1.0;MAGX;16.0;MAGY;-111.0;MAGZ;76.0
MOT;0;1000.0;1;1000.0;2;1000.0;3;1000.0;4;0.0;5;0.0;6;0.0;7;0.0;
RC;ROLL;1497.0;PITCH;1515.0;YAW;1536.0;THROTTLE;1058.0;AUX1;1547.0;AUX2;1500.0;AUX3;1500.0;AUX4;1500.0
ALTITUDE;0.0
DEBUG;DEBUG10.0;DEBUG2;0.0;DEBUG3;0.0;DEBUG4;0.0
ATTITUDE;ANGX;16.0;ANGY;-4.0;HEAD;184.0
STATUS;CYCLETIME;2872;I2CERR;0;PRESENT;23;MODE;0
RAW_IMU;AX;81.0;AY;-10.0;AZ;246.0;GX;0.0;GY;0.0;GZ;-1.0;MAGX;16.0;MAGY;-111.0;MAGZ;76.0
MOT;0;1000.0;1;1000.0;2;1000.0;3;1000.0;4;0.0;5;0.0;6;0.0;7;0.0;
RC;ROLL;1497.0;PITCH;1515.0;YAW;1536.0;THROTTLE;1058.0;AUX1;1547.0;AUX2;1500.0;AUX3;1500.0;AUX4;1500.0
ALTITUDE;0.0
DEBUG;DEBUG10.0;DEBUG2;0.0;DEBUG3;0.0;DEBUG4;0.0
ATTITUDE;ANGX;16.0;ANGY;-4.0;HEAD;184.0
STATUS;CYCLETIME;2984;I2CERR;0;PRESENT;23;MODE;0
RAW_IMU;AX;79.0;AY;-13.0;AZ;247.0;GX;0.0;GY;0.0;GZ;-1.0;MAGX;16.0;MAGY;-113.0;MAGZ;77.0
MOT;0;1000.0;1;1000.0;2;1000.0;3;1000.0;4;0.0;5;0.0;6;0.0;7;0.0;
RC;ROLL;1497.0;PITCH;1515.0;YAW;1536.0;THROTTLE;1058.0;AUX1;1547.0;AUX2;1500.0;AUX3;1500.0;AUX4;1500.0
ALTITUDE;0.0
DEBUG;DEBUG10.0;DEBUG2;0.0;DEBUG3;0.0;DEBUG4;0.0
ATTITUDE;ANGX;16.0;ANGY;-4.0;HEAD;184.0
STATUS;CYCLETIME;2908;I2CERR;0;PRESENT;23;MODE;0
RAW_IMU;AX;78.0;AY;-11.0;AZ;245.0;GX;0.0;GY;0.0;GZ;-1.0;MAGX;16.0;MAGY;-113.0;MAGZ;77.0
MOT;0;1000.0;1;1000.0;2;1000.0;3;1000.0;4;0.0;5;0.0;6;0.0;7;0.0;
RC;ROLL;1497.0;PITCH;1515.0;YAW;1536.0;THROTTLE;1058.0;AUX1;1547.0;AUX2;1500.0;AUX3;1500.0;AUX4;1500.0
ALTITUDE;0.0
DEBUG;DEBUG10.0;DEBUG2;0.0;DEBUG3;0.0;DEBUG4;0.0
ATTITUDE;ANGX;16.0;ANGY;-4.0;HEAD;184.0
STATUS;CYCLETIME;2900;I2CERR;0;PRESENT;23;MODE;0
RAW_IMU;AX;78.0;AY;-11.0;AZ;246.0;GX;0.0;GY;0.0;GZ;-1.0;MAGX;16.0;MAGY;-113.0;MAGZ;77.0
MOT;0;1000.0;1;1000.0;2;1000.0;3;1000.0;4;0.0;5;0.0;6;0.0;7;0.0;
RC;ROLL;1497.0;PITCH;1515.0;YAW;1536.0;THROTTLE;1058.0;AUX1;1547.0;AUX2;1500.0;AUX3;1500.0;AUX4;1500.0
ALTITUDE;0.0
DEBUG;DEBUG10.0;DEBUG2;0.0;DEBUG3;0.0;DEBUG4;0.0
ATTITUDE;ANGX;16.0;ANGY;-4.0;HEAD;184.0
STATUS;CYCLETIME;2904;I2CERR;0;PRESENT;23;MODE;0
RAW_IMU;AX;79.0;AY;-10.0;AZ;246.0;GX;0.0;GY;0.0;GZ;-1.0;MAGX;17.0;MAGY;-112.0;MAGZ;77.0
MOT;0;1000.0;1;1000.0;2;1000.0;3;1000.0;4;0.0;5;0.0;6;0.0;7;0.0;
RC;ROLL;1497.0;PITCH;1515.0;YAW;1536.0;THROTTLE;1058.0;AUX1;1547.0;AUX2;1500.0;AUX3;1500.0;AUX4;1500.0
ALTITUDE;0.0
DEBUG;DEBUG10.0;DEBUG2;0.0;DEBUG3;0.0;DEBUG4;0.0
ATTITUDE;ANGX;16.0;ANGY;-4.0;HEAD;184.0
STATUS;CYCLETIME;2924;I2CERR;0;PRESENT;23;MODE;0
RAW_IMU;AX;78.0;AY;-10.0;AZ;247.0;GX;0.0;GY;0.0;GZ;-1.0;MAGX;17.0;MAGY;-112.0;MAGZ;77.0
MOT;0;1000.0;1;1000.0;2;1000.0;3;1000.0;4;0.0;5;0.0;6;0.0;7;0.0;
RC;ROLL;1497.0;PITCH;1515.0;YAW;1536.0;THROTTLE;1058.0;AUX1;1547.0;AUX2;1500.0;AUX3;1500.0;AUX4;1500.0
ALTITUDE;0.0
DEBUG;DEBUG10.0;DEBUG2;0.0;DEBUG3;0.0;DEBUG4;0.0
ATTITUDE;ANGX;16.0;ANGY;-4.0;HEAD;184.0
STATUS;CYCLETIME;2876;I2CERR;0;PRESENT;23;MODE;0
RAW_IMU;AX;77.0;AY;-11.0;AZ;245.0;GX;0.0;GY;0.0;GZ;-1.0;MAGX;16.0;MAGY;-112.0;MAGZ;76.0
MOT;0;1000.0;1;1000.0;2;1000.0;3;1000.0;4;0.0;5;0.0;6;0.0;7;0.0;
RC;ROLL;1497.0;PITCH;1515.0;YAW;1536.0;THROTTLE;1058.0;AUX1;1547.0;AUX2;1500.0;AUX3;1500.0;AUX4;1500.0
ALTITUDE;0.0
DEBUG;DEBUG10.0;DEBUG2;0.0;DEBUG3;0.0;DEBUG4;0.0
ATTITUDE;ANGX;16.0;ANGY;-4.0;HEAD;184.0
STATUS;CYCLETIME;2880;I2CERR;0;PRESENT;23;MODE;0
RAW_IMU;AX;78.0;AY;-10.0;AZ;244.0;GX;0.0;GY;0.0;GZ;-1.0;MAGX;16.0;MAGY;-112.0;MAGZ;76.0
MOT;0;1000.0;1;1000.0;2;1000.0;3;1000.0;4;0.0;5;0.0;6;0.0;7;0.0;
RC;ROLL;1497.0;PITCH;1515.0;YAW;1536.0;THROTTLE;1058.0;AUX1;1547.0;AUX2;1500.0;AUX3;1500.0;AUX4;1500.0
ALTITUDE;0.0
DEBUG;DEBUG10.0;DEBUG2;0.0;DEBUG3;0.0;DEBUG4;0.0
ATTITUDE;ANGX;16.0;ANGY;-4.0;HEAD;184.0
STATUS;CYCLETIME;2880;I2CERR;0;PRESENT;23;MODE;0
RAW_IMU;AX;80.0;AY;-11.0;AZ;245.0;GX;0.0;GY;0.0;GZ;-1.0;MAGX;16.0;MAGY;-111.0;MAGZ;77.0
MOT;0;1000.0;1;1000.0;2;1000.0;3;1000.0;4;0.0;5;0.0;6;0.0;7;0.0;
RC;ROLL;1497.0;PITCH;1515.0;YAW;1536.0;THROTTLE;1058.0;AUX1;1547.0;AUX2;1500.0;AUX3;1500.0;AUX4;1500.0
ALTITUDE;0.0
DEBUG;DEBUG10.0;DEBUG2;0.0;DEBUG3;0.0;DEBUG4;0.0
ATTITUDE;ANGX;16.0;ANGY;-4.0;HEAD;184.0
STATUS;CYCLETIME;2976;I2CERR;0;PRESENT;23;MODE;0
RAW_IMU;AX;80.0;AY;-10.0;AZ;245.0;GX;0.0;GY;0.0;GZ;-1.0;MAGX;16.0;MAGY;-111.0;MAGZ;77.0
MOT;0;1000.0;1;1000.0;2;1000.0;3;1000.0;4;0.0;5;0.0;6;0.0;7;0.0;
RC;ROLL;1497.0;PITCH;1515.0;YAW;1536.0;THROTTLE;1058.0;AUX1;1547.0;AUX2;1500.0;AUX3;1500.0;AUX4;1500.0
ALTITUDE;0.0
DEBUG;DEBUG10.0;DEBUG2;0.0;DEBUG3;0.0;DEBUG4;0.0
ATTITUDE;ANGX;16.0;ANGY;-4.0;HEAD;184.0
STATUS;CYCLETIME;2872;I2CERR;0;PRESENT;23;MODE;0
RAW_IMU;AX;78.0;AY;-12.0;AZ;246.0;GX;0.0;GY;0.0;GZ;-1.0;MAGX;16.0;MAGY;-111.0;MAGZ;77.0
MOT;0;1000.0;1;1000.0;2;1000.0;3;1000.0;4;0.0;5;0.0;6;0.0;7;0.0;
RC;ROLL;1497.0;PITCH;1515.0;YAW;1536.0;THROTTLE;1058.0;AUX1;1547.0;AUX2;1500.0;AUX3;1500.0;AUX4;1500.0
ALTITUDE;0.0
DEBUG;DEBUG10.0;DEBUG2;0.0;DEBUG3;0.0;DEBUG4;0.0
ATTITUDE;ANGX;16.0;ANGY;-4.0;HEAD;184.0
STATUS;CYCLETIME;2908;I2CERR;0;PRESENT;23;MODE;0
RAW_IMU;AX;78.0;AY;-12.0;AZ;246.0;GX;0.0;GY;0.0;GZ;-2.0;MAGX;16.0;MAGY;-111.0;MAGZ;77.0
MOT;0;1000.0;1;1000.0;2;1000.0;3;1000.0;4;0.0;5;0.0;6;0.0;7;0.0;
RC;ROLL;1497.0;PITCH;1515.0;YAW;1536.0;THROTTLE;1058.0;AUX1;1547.0;AUX2;1500.0;AUX3;1500.0;AUX4;1500.0
ALTITUDE;0.0
DEBUG;DEBUG10.0;DEBUG2;0.0;DEBUG3;0.0;DEBUG4;0.0
ATTITUDE;ANGX;16.0;ANGY;-4.0;HEAD;184.0
STATUS;CYCLETIME;2892;I2CERR;0;PRESENT;23;MODE;0
RAW_IMU;AX;78.0;AY;-11.0;AZ;244.0;GX;0.0;GY;0.0;GZ;-2.0;MAGX;18.0;MAGY;-111.0;MAGZ;77.0
MOT;0;1000.0;1;1000.0;2;1000.0;3;1000.0;4;0.0;5;0.0;6;0.0;7;0.0;
RC;ROLL;1497.0;PITCH;1515.0;YAW;1536.0;THROTTLE;1058.0;AUX1;1547.0;AUX2;1500.0;AUX3;1500.0;AUX4;1500.0
ALTITUDE;0.0
DEBUG;DEBUG10.0;DEBUG2;0.0;DEBUG3;0.0;DEBUG4;0.0
ATTITUDE;ANGX;16.0;ANGY;-4.0;HEAD;184.0
STATUS;CYCLETIME;2904;I2CERR;0;PRESENT;23;MODE;0
RAW_IMU;AX;78.0;AY;-12.0;AZ;246.0;GX;-1.0;GY;0.0;GZ;-2.0;MAGX;18.0;MAGY;-111.0;MAGZ;77.0
MOT;0;1000.0;1;1000.0;2;1000.0;3;1000.0;4;0.0;5;0.0;6;0.0;7;0.0;
RC;ROLL;1497.0;PITCH;1515.0;YAW;1536.0;THROTTLE;1058.0;AUX1;1547.0;AUX2;1500.0;AUX3;1500.0;AUX4;1500.0
ALTITUDE;0.0
DEBUG;DEBUG10.0;DEBUG2;0.0;DEBUG3;0.0;DEBUG4;0.0
ATTITUDE;ANGX;16.0;ANGY;-4.0;HEAD;184.0
STATUS;CYCLETIME;3012;I2CERR;0;PRESENT;23;MODE;0
RAW_IMU;AX;79.0;AY;-12.0;AZ;244.0;GX;0.0;GY;0.0;GZ;-2.0;MAGX;16.0;MAGY;-112.0;MAGZ;76.0
MOT;0;1000.0;1;1000.0;2;1000.0;3;1000.0;4;0.0;5;0.0;6;0.0;7;0.0;
RC;ROLL;1497.0;PITCH;1515.0;YAW;1536.0;THROTTLE;1058.0;AUX1;1547.0;AUX2;1500.0;AUX3;1500.0;AUX4;1500.0
ALTITUDE;0.0
DEBUG;DEBUG10.0;DEBUG2;0.0;DEBUG3;0.0;DEBUG4;0.0
ATTITUDE;ANGX;16.0;ANGY;-4.0;HEAD;184.0
STATUS;CYCLETIME;2900;I2CERR;0;PRESENT;23;MODE;0
RAW_IMU;AX;78.0;AY;-11.0;AZ;246.0;GX;0.0;GY;0.0;GZ;-1.0;MAGX;16.0;MAGY;-112.0;MAGZ;76.0
MOT;0;1000.0;1;1000.0;2;1000.0;3;1000.0;4;0.0;5;0.0;6;0.0;7;0.0;
RC;ROLL;1497.0;PITCH;1515.0;YAW;1536.0;THROTTLE;1058.0;AUX1;1547.0;AUX2;1500.0;AUX3;1500.0;AUX4;1500.0
ALTITUDE;0.0
DEBUG;DEBUG10.0;DEBUG2;0.0;DEBUG3;0.0;DEBUG4;0.0
ATTITUDE;ANGX;16.0;ANGY;-4.0;HEAD;184.0
STATUS;CYCLETIME;2888;I2CERR;0;PRESENT;23;MODE;0
RAW_IMU;AX;79.0;AY;-10.0;AZ;247.0;GX;0.0;GY;0.0;GZ;-2.0;MAGX;16.0;MAGY;-112.0;MAGZ;76.0
MOT;0;1000.0;1;1000.0;2;1000.0;3;1000.0;4;0.0;5;0.0;6;0.0;7;0.0;
RC;ROLL;1497.0;PITCH;1515.0;YAW;1536.0;THROTTLE;1058.0;AUX1;1547.0;AUX2;1500.0;AUX3;1500.0;AUX4;1500.0
ALTITUDE;0.0
DEBUG;DEBUG10.0;DEBUG2;0.0;DEBUG3;0.0;DEBUG4;0.0
ATTITUDE;ANGX;16.0;ANGY;-4.0;HEAD;184.0
STATUS;CYCLETIME;2888;I2CERR;0;PRESENT;23;MODE;0
RAW_IMU;AX;80.0;AY;-11.0;AZ;245.0;GX;-1.0;GY;0.0;GZ;-2.0;MAGX;17.0;MAGY;-112.0;MAGZ;75.0
MOT;0;1000.0;1;1000.0;2;1000.0;3;1000.0;4;0.0;5;0.0;6;0.0;7;0.0;
RC;ROLL;1497.0;PITCH;1515.0;YAW;1536.0;THROTTLE;1058.0;AUX1;1547.0;AUX2;1500.0;AUX3;1500.0;AUX4;1500.0
ALTITUDE;0.0
DEBUG;DEBUG10.0;DEBUG2;0.0;DEBUG3;0.0;DEBUG4;0.0
ATTITUDE;ANGX;16.0;ANGY;-4.0;HEAD;184.0
STATUS;CYCLETIME;2896;I2CERR;0;PRESENT;23;MODE;0
RAW_IMU;AX;80.0;AY;-9.0;AZ;244.0;GX;0.0;GY;0.0;GZ;-1.0;MAGX;17.0;MAGY;-112.0;MAGZ;75.0
MOT;0;1000.0;1;1000.0;2;1000.0;3;1000.0;4;0.0;5;0.0;6;0.0;7;0.0;
RC;ROLL;1497.0;PITCH;1515.0;YAW;1536.0;THROTTLE;1058.0;AUX1;1547.0;AUX2;1500.0;AUX3;1500.0;AUX4;1500.0
ALTITUDE;0.0
DEBUG;DEBUG10.0;DEBUG2;0.0;DEBUG3;0.0;DEBUG4;0.0
ATTITUDE;ANGX;16.0;ANGY;-4.0;HEAD;184.0
STATUS;CYCLETIME;2900;I2CERR;0;PRESENT;23;MODE;0
RAW_IMU;AX;79.0;AY;-11.0;AZ;245.0;GX;0.0;GY;0.0;GZ;-2.0;MAGX;16.0;MAGY;-111.0;MAGZ;77.0
MOT;0;1000.0;1;1000.0;2;1000.0;3;1000.0;4;0.0;5;0.0;6;0.0;7;0.0;
RC;ROLL;1497.0;PITCH;1515.0;YAW;1536.0;THROTTLE;1058.0;AUX1;1547.0;AUX2;1500.0;AUX3;1500.0;AUX4;1500.0
ALTITUDE;0.0
DEBUG;DEBUG10.0;DEBUG2;0.0;DEBUG3;0.0;DEBUG4;0.0
ATTITUDE;ANGX;16.0;ANGY;-4.0;HEAD;184.0
STATUS;CYCLETIME;2892;I2CERR;0;PRESENT;23;MODE;0
RAW_IMU;AX;81.0;AY;-10.0;AZ;244.0;GX;-1.0;GY;0.0;GZ;-2.0;MAGX;16.0;MAGY;-111.0;MAGZ;77.0
MOT;0;1000.0;1;1000.0;2;1000.0;3;1000.0;4;0.0;5;0.0;6;0.0;7;0.0;
RC;ROLL;1497.0;PITCH;1515.0;YAW;1536.0;THROTTLE;1058.0;AUX1;1547.0;AUX2;1500.0;AUX3;1500.0;AUX4;1500.0
ALTITUDE;0.0
DEBUG;DEBUG10.0;DEBUG2;0.0;DEBUG3;0.0;DEBUG4;0.0
ATTITUDE;ANGX;16.0;ANGY;-4.0;HEAD;184.0
STATUS;CYCLETIME;2900;I2CERR;0;PRESENT;23;MODE;0
RAW_IMU;AX;81.0;AY;-12.0;AZ;245.0;GX;0.0;GY;0.0;GZ;-2.0;MAGX;17.0;MAGY;-111.0;MAGZ;77.0
MOT;0;1000.0;1;1000.0;2;1000.0;3;1000.0;4;0.0;5;0.0;6;0.0;7;0.0;
RC;ROLL;1497.0;PITCH;1515.0;YAW;1536.0;THROTTLE;1058.0;AUX1;1547.0;AUX2;1500.0;AUX3;1500.0;AUX4;1500.0
ALTITUDE;0.0
DEBUG;DEBUG10.0;DEBUG2;0.0;DEBUG3;0.0;DEBUG4;0.0
ATTITUDE;ANGX;16.0;ANGY;-4.0;HEAD;184.0
STATUS;CYCLETIME;3004;I2CERR;0;PRESENT;23;MODE;0
RAW_IMU;AX;80.0;AY;-13.0;AZ;245.0;GX;-1.0;GY;0.0;GZ;-2.0;MAGX;17.0;MAGY;-111.0;MAGZ;77.0
MOT;0;1000.0;1;1000.0;2;1000.0;3;1000.0;4;0.0;5;0.0;6;0.0;7;0.0;
RC;ROLL;1497.0;PITCH;1515.0;YAW;1536.0;THROTTLE;1058.0;AUX1;1547.0;AUX2;1500.0;AUX3;1500.0;AUX4;1500.0
ALTITUDE;0.0
DEBUG;DEBUG10.0;DEBUG2;0.0;DEBUG3;0.0;DEBUG4;0.0
ATTITUDE;ANGX;16.0;ANGY;-4.0;HEAD;184.0
STATUS;CYCLETIME;2900;I2CERR;0;PRESENT;23;MODE;0
RAW_IMU;AX;79.0;AY;-10.0;AZ;247.0;GX;0.0;GY;0.0;GZ;-1.0;MAGX;16.0;MAGY;-112.0;MAGZ;77.0
MOT;0;1000.0;1;1000.0;2;1000.0;3;1000.0;4;0.0;5;0.0;6;0.0;7;0.0;
RC;ROLL;1497.0;PITCH;1515.0;YAW;1536.0;THROTTLE;1058.0;AUX1;1547.0;AUX2;1500.0;AUX3;1500.0;AUX4;1500.0
ALTITUDE;0.0
DEBUG;DEBUG10.0;DEBUG2;0.0;DEBUG3;0.0;DEBUG4;0.0
ATTITUDE;ANGX;16.0;ANGY;-4.0;HEAD;184.0
STATUS;CYCLETIME;2892;I2CERR;0;PRESENT;23;MODE;0
RAW_IMU;AX;79.0;AY;-10.0;AZ;245.0;GX;0.0;GY;0.0;GZ;-1.0;MAGX;16.0;MAGY;-112.0;MAGZ;77.0
MOT;0;1000.0;1;1000.0;2;1000.0;3;1000.0;4;0.0;5;0.0;6;0.0;7;0.0;
RC;ROLL;1497.0;PITCH;1515.0;YAW;1536.0;THROTTLE;1058.0;AUX1;1547.0;AUX2;1500.0;AUX3;1500.0;AUX4;1500.0
ALTITUDE;0.0
DEBUG;DEBUG10.0;DEBUG2;0.0;DEBUG3;0.0;DEBUG4;0.0
ATTITUDE;ANGX;16.0;ANGY;-4.0;HEAD;184.0
STATUS;CYCLETIME;2900;I2CERR;0;PRESENT;23;MODE;0
RAW_IMU;AX;81.0;AY;-9.0;AZ;248.0;GX;0.0;GY;0.0;GZ;-1.0;MAGX;17.0;MAGY;-112.0;MAGZ;77.0
MOT;0;1000.0;1;1000.0;2;1000.0;3;1000.0;4;0.0;5;0.0;6;0.0;7;0.0;
RC;ROLL;1497.0;PITCH;1515.0;YAW;1536.0;THROTTLE;1058.0;AUX1;1547.0;AUX2;1500.0;AUX3;1500.0;AUX4;1500.0
ALTITUDE;0.0
DEBUG;DEBUG10.0;DEBUG2;0.0;DEBUG3;0.0;DEBUG4;0.0
ATTITUDE;ANGX;16.0;ANGY;-4.0;HEAD;184.0
STATUS;CYCLETIME;2888;I2CERR;0;PRESENT;23;MODE;0
RAW_IMU;AX;77.0;AY;-10.0;AZ;249.0;GX;0.0;GY;0.0;GZ;-2.0;MAGX;17.0;MAGY;-112.0;MAGZ;77.0
MOT;0;1000.0;1;1000.0;2;1000.0;3;1000.0;4;0.0;5;0.0;6;0.0;7;0.0;
RC;ROLL;1497.0;PITCH;1515.0;YAW;1536.0;THROTTLE;1058.0;AUX1;1547.0;AUX2;1500.0;AUX3;1500.0;AUX4;1500.0
ALTITUDE;0.0
DEBUG;DEBUG10.0;DEBUG2;0.0;DEBUG3;0.0;DEBUG4;0.0
ATTITUDE;ANGX;16.0;ANGY;-4.0;HEAD;184.0
STATUS;CYCLETIME;3012;I2CERR;0;PRESENT;23;MODE;0
RAW_IMU;AX;77.0;AY;-10.0;AZ;247.0;GX;0.0;GY;0.0;GZ;-1.0;MAGX;17.0;MAGY;-111.0;MAGZ;78.0
MOT;0;1000.0;1;1000.0;2;1000.0;3;1000.0;4;0.0;5;0.0;6;0.0;7;0.0;
RC;ROLL;1497.0;PITCH;1518.0;YAW;1536.0;THROTTLE;1058.0;AUX1;1544.0;AUX2;1500.0;AUX3;1500.0;AUX4;1500.0
ALTITUDE;0.0
DEBUG;DEBUG10.0;DEBUG2;0.0;DEBUG3;0.0;DEBUG4;0.0
ATTITUDE;ANGX;16.0;ANGY;-4.0;HEAD;184.0
STATUS;CYCLETIME;2888;I2CERR;0;PRESENT;23;MODE;0
RAW_IMU;AX;80.0;AY;-10.0;AZ;245.0;GX;0.0;GY;0.0;GZ;-1.0;MAGX;17.0;MAGY;-111.0;MAGZ;78.0
MOT;0;1000.0;1;1000.0;2;1000.0;3;1000.0;4;0.0;5;0.0;6;0.0;7;0.0;
RC;ROLL;1497.0;PITCH;1518.0;YAW;1536.0;THROTTLE;1058.0;AUX1;1544.0;AUX2;1500.0;AUX3;1500.0;AUX4;1500.0
ALTITUDE;0.0
DEBUG;DEBUG10.0;DEBUG2;0.0;DEBUG3;0.0;DEBUG4;0.0
ATTITUDE;ANGX;16.0;ANGY;-4.0;HEAD;184.0
STATUS;CYCLETIME;2924;I2CERR;0;PRESENT;23;MODE;0
RAW_IMU;AX;80.0;AY;-11.0;AZ;245.0;GX;-1.0;GY;0.0;GZ;-2.0;MAGX;17.0;MAGY;-111.0;MAGZ;78.0
MOT;0;1000.0;1;1000.0;2;1000.0;3;1000.0;4;0.0;5;0.0;6;0.0;7;0.0;
RC;ROLL;1495.0;PITCH;1518.0;YAW;1536.0;THROTTLE;1058.0;AUX1;1544.0;AUX2;1500.0;AUX3;1500.0;AUX4;1500.0
ALTITUDE;0.0
DEBUG;DEBUG10.0;DEBUG2;0.0;DEBUG3;0.0;DEBUG4;0.0
ATTITUDE;ANGX;16.0;ANGY;-4.0;HEAD;184.0
STATUS;CYCLETIME;2952;I2CERR;0;PRESENT;23;MODE;0
RAW_IMU;AX;78.0;AY;-11.0;AZ;246.0;GX;0.0;GY;0.0;GZ;-2.0;MAGX;16.0;MAGY;-112.0;MAGZ;77.0
MOT;0;1000.0;1;1000.0;2;1000.0;3;1000.0;4;0.0;5;0.0;6;0.0;7;0.0;
RC;ROLL;1495.0;PITCH;1518.0;YAW;1536.0;THROTTLE;1058.0;AUX1;1544.0;AUX2;1500.0;AUX3;1500.0;AUX4;1500.0
ALTITUDE;0.0
DEBUG;DEBUG10.0;DEBUG2;0.0;DEBUG3;0.0;DEBUG4;0.0
ATTITUDE;ANGX;16.0;ANGY;-4.0;HEAD;184.0
STATUS;CYCLETIME;2908;I2CERR;0;PRESENT;23;MODE;0
RAW_IMU;AX;80.0;AY;-13.0;AZ;245.0;GX;-1.0;GY;0.0;GZ;-2.0;MAGX;16.0;MAGY;-112.0;MAGZ;77.0
MOT;0;1000.0;1;1000.0;2;1000.0;3;1000.0;4;0.0;5;0.0;6;0.0;7;0.0;
RC;ROLL;1495.0;PITCH;1518.0;YAW;1536.0;THROTTLE;1058.0;AUX1;1544.0;AUX2;1500.0;AUX3;1500.0;AUX4;1500.0
ALTITUDE;0.0
DEBUG;DEBUG10.0;DEBUG2;0.0;DEBUG3;0.0;DEBUG4;0.0
ATTITUDE;ANGX;16.0;ANGY;-4.0;HEAD;184.0
STATUS;CYCLETIME;2892;I2CERR;0;PRESENT;23;MODE;0
RAW_IMU;AX;81.0;AY;-13.0;AZ;246.0;GX;0.0;GY;0.0;GZ;-2.0;MAGX;18.0;MAGY;-111.0;MAGZ;77.0
MOT;0;1000.0;1;1000.0;2;1000.0;3;1000.0;4;0.0;5;0.0;6;0.0;7;0.0;
RC;ROLL;1495.0;PITCH;1518.0;YAW;1536.0;THROTTLE;1060.0;AUX1;1544.0;AUX2;1500.0;AUX3;1500.0;AUX4;1500.0
ALTITUDE;0.0
DEBUG;DEBUG10.0;DEBUG2;0.0;DEBUG3;0.0;DEBUG4;0.0
ATTITUDE;ANGX;16.0;ANGY;-4.0;HEAD;184.0
STATUS;CYCLETIME;2904;I2CERR;0;PRESENT;23;MODE;0
RAW_IMU;AX;82.0;AY;-11.0;AZ;247.0;GX;-1.0;GY;0.0;GZ;-1.0;MAGX;18.0;MAGY;-111.0;MAGZ;77.0
MOT;0;1000.0;1;1000.0;2;1000.0;3;1000.0;4;0.0;5;0.0;6;0.0;7;0.0;
RC;ROLL;1495.0;PITCH;1518.0;YAW;1536.0;THROTTLE;1060.0;AUX1;1544.0;AUX2;1500.0;AUX3;1500.0;AUX4;1500.0
ALTITUDE;0.0
DEBUG;DEBUG10.0;DEBUG2;0.0;DEBUG3;0.0;DEBUG4;0.0
ATTITUDE;ANGX;16.0;ANGY;-4.0;HEAD;184.0
STATUS;CYCLETIME;2904;I2CERR;0;PRESENT;23;MODE;0
RAW_IMU;AX;78.0;AY;-10.0;AZ;248.0;GX;-1.0;GY;0.0;GZ;-1.0;MAGX;17.0;MAGY;-110.0;MAGZ;76.0
MOT;0;1000.0;1;1000.0;2;1000.0;3;1000.0;4;0.0;5;0.0;6;0.0;7;0.0;
RC;ROLL;1495.0;PITCH;1518.0;YAW;1536.0;THROTTLE;1060.0;AUX1;1544.0;AUX2;1500.0;AUX3;1500.0;AUX4;1500.0
ALTITUDE;0.0
DEBUG;DEBUG10.0;DEBUG2;0.0;DEBUG3;0.0;DEBUG4;0.0
ATTITUDE;ANGX;16.0;ANGY;-4.0;HEAD;184.0
STATUS;CYCLETIME;3036;I2CERR;0;PRESENT;23;MODE;0
RAW_IMU;AX;80.0;AY;-11.0;AZ;246.0;GX;0.0;GY;0.0;GZ;-1.0;MAGX;17.0;MAGY;-110.0;MAGZ;76.0
MOT;0;1000.0;1;1000.0;2;1000.0;3;1000.0;4;0.0;5;0.0;6;0.0;7;0.0;
RC;ROLL;1495.0;PITCH;1516.0;YAW;1538.0;THROTTLE;1060.0;AUX1;1544.0;AUX2;1500.0;AUX3;1500.0;AUX4;1500.0
ALTITUDE;0.0
DEBUG;DEBUG10.0;DEBUG2;0.0;DEBUG3;0.0;DEBUG4;0.0
ATTITUDE;ANGX;16.0;ANGY;-4.0;HEAD;184.0
STATUS;CYCLETIME;2896;I2CERR;0;PRESENT;23;MODE;0
RAW_IMU;AX;82.0;AY;-10.0;AZ;246.0;GX;0.0;GY;0.0;GZ;-1.0;MAGX;17.0;MAGY;-111.0;MAGZ;77.0
MOT;0;1000.0;1;1000.0;2;1000.0;3;1000.0;4;0.0;5;0.0;6;0.0;7;0.0;
RC;ROLL;1498.0;PITCH;1516.0;YAW;1538.0;THROTTLE;1060.0;AUX1;1544.0;AUX2;1500.0;AUX3;1500.0;AUX4;1500.0
ALTITUDE;0.0
DEBUG;DEBUG10.0;DEBUG2;0.0;DEBUG3;0.0;DEBUG4;0.0
ATTITUDE;ANGX;16.0;ANGY;-4.0;HEAD;184.0
STATUS;CYCLETIME;2900;I2CERR;0;PRESENT;23;MODE;0
RAW_IMU;AX;80.0;AY;-11.0;AZ;246.0;GX;0.0;GY;0.0;GZ;-1.0;MAGX;17.0;MAGY;-111.0;MAGZ;77.0
MOT;0;1000.0;1;1000.0;2;1000.0;3;1000.0;4;0.0;5;0.0;6;0.0;7;0.0;
RC;ROLL;1498.0;PITCH;1516.0;YAW;1538.0;THROTTLE;1060.0;AUX1;1544.0;AUX2;1500.0;AUX3;1500.0;AUX4;1500.0
ALTITUDE;0.0
DEBUG;DEBUG10.0;DEBUG2;0.0;DEBUG3;0.0;DEBUG4;0.0
ATTITUDE;ANGX;16.0;ANGY;-4.0;HEAD;184.0
STATUS;CYCLETIME;2892;I2CERR;0;PRESENT;23;MODE;0
RAW_IMU;AX;81.0;AY;-12.0;AZ;245.0;GX;-1.0;GY;0.0;GZ;-2.0;MAGX;16.0;MAGY;-111.0;MAGZ;77.0
MOT;0;1000.0;1;1000.0;2;1000.0;3;1000.0;4;0.0;5;0.0;6;0.0;7;0.0;
RC;ROLL;1498.0;PITCH;1516.0;YAW;1538.0;THROTTLE;1060.0;AUX1;1544.0;AUX2;1500.0;AUX3;1500.0;AUX4;1500.0
ALTITUDE;0.0
DEBUG;DEBUG10.0;DEBUG2;0.0;DEBUG3;0.0;DEBUG4;0.0
ATTITUDE;ANGX;16.0;ANGY;-4.0;HEAD;184.0
STATUS;CYCLETIME;2940;I2CERR;0;PRESENT;23;MODE;0
RAW_IMU;AX;79.0;AY;-9.0;AZ;247.0;GX;0.0;GY;0.0;GZ;-2.0;MAGX;16.0;MAGY;-111.0;MAGZ;77.0
MOT;0;1000.0;1;1000.0;2;1000.0;3;1000.0;4;0.0;5;0.0;6;0.0;7;0.0;
RC;ROLL;1498.0;PITCH;1516.0;YAW;1538.0;THROTTLE;1060.0;AUX1;1544.0;AUX2;1500.0;AUX3;1500.0;AUX4;1500.0
ALTITUDE;0.0
DEBUG;DEBUG10.0;DEBUG2;0.0;DEBUG3;0.0;DEBUG4;0.0
ATTITUDE;ANGX;16.0;ANGY;-4.0;HEAD;184.0
STATUS;CYCLETIME;2900;I2CERR;0;PRESENT;23;MODE;0
RAW_IMU;AX;79.0;AY;-9.0;AZ;245.0;GX;-1.0;GY;0.0;GZ;-2.0;MAGX;16.0;MAGY;-111.0;MAGZ;77.0
MOT;0;1000.0;1;1000.0;2;1000.0;3;1000.0;4;0.0;5;0.0;6;0.0;7;0.0;
RC;ROLL;1496.0;PITCH;1516.0;YAW;1538.0;THROTTLE;1060.0;AUX1;1544.0;AUX2;1500.0;AUX3;1500.0;AUX4;1500.0
ALTITUDE;0.0
DEBUG;DEBUG10.0;DEBUG2;0.0;DEBUG3;0.0;DEBUG4;0.0
ATTITUDE;ANGX;16.0;ANGY;-4.0;HEAD;184.0
STATUS;CYCLETIME;2900;I2CERR;0;PRESENT;23;MODE;0
RAW_IMU;AX;79.0;AY;-11.0;AZ;245.0;GX;-1.0;GY;0.0;GZ;-2.0;MAGX;16.0;MAGY;-111.0;MAGZ;77.0
MOT;0;1000.0;1;1000.0;2;1000.0;3;1000.0;4;0.0;5;0.0;6;0.0;7;0.0;
RC;ROLL;1496.0;PITCH;1516.0;YAW;1538.0;THROTTLE;1060.0;AUX1;1544.0;AUX2;1500.0;AUX3;1500.0;AUX4;1500.0
ALTITUDE;0.0
DEBUG;DEBUG10.0;DEBUG2;0.0;DEBUG3;0.0;DEBUG4;0.0
ATTITUDE;ANGX;16.0;ANGY;-4.0;HEAD;184.0
STATUS;CYCLETIME;2896;I2CERR;0;PRESENT;23;MODE;0
RAW_IMU;AX;77.0;AY;-12.0;AZ;247.0;GX;0.0;GY;0.0;GZ;-1.0;MAGX;16.0;MAGY;-111.0;MAGZ;77.0
MOT;0;1000.0;1;1000.0;2;1000.0;3;1000.0;4;0.0;5;0.0;6;0.0;7;0.0;
RC;ROLL;1496.0;PITCH;1516.0;YAW;1538.0;THROTTLE;1060.0;AUX1;1544.0;AUX2;1500.0;AUX3;1500.0;AUX4;1500.0
ALTITUDE;0.0
DEBUG;DEBUG10.0;DEBUG2;0.0;DEBUG3;0.0;DEBUG4;0.0
ATTITUDE;ANGX;16.0;ANGY;-4.0;HEAD;184.0
STATUS;CYCLETIME;3012;I2CERR;0;PRESENT;23;MODE;0
RAW_IMU;AX;78.0;AY;-11.0;AZ;248.0;GX;-1.0;GY;0.0;GZ;-2.0;MAGX;17.0;MAGY;-111.0;MAGZ;77.0
MOT;0;1000.0;1;1000.0;2;1000.0;3;1000.0;4;0.0;5;0.0;6;0.0;7;0.0;
RC;ROLL;1498.0;PITCH;1516.0;YAW;1538.0;THROTTLE;1060.0;AUX1;1544.0;AUX2;1500.0;AUX3;1500.0;AUX4;1500.0
ALTITUDE;0.0
DEBUG;DEBUG10.0;DEBUG2;0.0;DEBUG3;0.0;DEBUG4;0.0
ATTITUDE;ANGX;16.0;ANGY;-4.0;HEAD;184.0
STATUS;CYCLETIME;2916;I2CERR;0;PRESENT;23;MODE;0
RAW_IMU;AX;79.0;AY;-9.0;AZ;248.0;GX;0.0;GY;0.0;GZ;-2.0;MAGX;17.0;MAGY;-111.0;MAGZ;77.0
MOT;0;1000.0;1;1000.0;2;1000.0;3;1000.0;4;0.0;5;0.0;6;0.0;7;0.0;
RC;ROLL;1498.0;PITCH;1516.0;YAW;1538.0;THROTTLE;1060.0;AUX1;1544.0;AUX2;1500.0;AUX3;1500.0;AUX4;1500.0
ALTITUDE;0.0
DEBUG;DEBUG10.0;DEBUG2;0.0;DEBUG3;0.0;DEBUG4;0.0
ATTITUDE;ANGX;16.0;ANGY;-4.0;HEAD;184.0
STATUS;CYCLETIME;2908;I2CERR;0;PRESENT;23;MODE;0
RAW_IMU;AX;78.0;AY;-10.0;AZ;246.0;GX;0.0;GY;0.0;GZ;-1.0;MAGX;17.0;MAGY;-111.0;MAGZ;77.0
MOT;0;1000.0;1;1000.0;2;1000.0;3;1000.0;4;0.0;5;0.0;6;0.0;7;0.0;
RC;ROLL;1498.0;PITCH;1516.0;YAW;1538.0;THROTTLE;1060.0;AUX1;1544.0;AUX2;1500.0;AUX3;1500.0;AUX4;1500.0
ALTITUDE;0.0
DEBUG;DEBUG10.0;DEBUG2;0.0;DEBUG3;0.0;DEBUG4;0.0
ATTITUDE;ANGX;16.0;ANGY;-4.0;HEAD;184.0
STATUS;CYCLETIME;2996;I2CERR;0;PRESENT;23;MODE;0
RAW_IMU;AX;76.0;AY;-11.0;AZ;245.0;GX;0.0;GY;0.0;GZ;-2.0;MAGX;17.0;MAGY;-111.0;MAGZ;77.0
MOT;0;1000.0;1;1000.0;2;1000.0;3;1000.0;4;0.0;5;0.0;6;0.0;7;0.0;
RC;ROLL;1498.0;PITCH;1516.0;YAW;1538.0;THROTTLE;1060.0;AUX1;1544.0;AUX2;1500.0;AUX3;1500.0;AUX4;1500.0
ALTITUDE;0.0
DEBUG;DEBUG10.0;DEBUG2;0.0;DEBUG3;0.0;DEBUG4;0.0
ATTITUDE;ANGX;16.0;ANGY;-4.0;HEAD;184.0
STATUS;CYCLETIME;2888;I2CERR;0;PRESENT;23;MODE;0
RAW_IMU;AX;78.0;AY;-11.0;AZ;246.0;GX;-1.0;GY;0.0;GZ;-2.0;MAGX;18.0;MAGY;-112.0;MAGZ;77.0
MOT;0;1000.0;1;1000.0;2;1000.0;3;1000.0;4;0.0;5;0.0;6;0.0;7;0.0;
RC;ROLL;1495.0;PITCH;1516.0;YAW;1538.0;THROTTLE;1060.0;AUX1;1544.0;AUX2;1500.0;AUX3;1500.0;AUX4;1500.0
ALTITUDE;0.0
DEBUG;DEBUG10.0;DEBUG2;0.0;DEBUG3;0.0;DEBUG4;0.0
ATTITUDE;ANGX;16.0;ANGY;-4.0;HEAD;184.0
STATUS;CYCLETIME;2908;I2CERR;0;PRESENT;23;MODE;0
RAW_IMU;AX;80.0;AY;-12.0;AZ;246.0;GX;-1.0;GY;0.0;GZ;-2.0;MAGX;18.0;MAGY;-112.0;MAGZ;77.0
MOT;0;1000.0;1;1000.0;2;1000.0;3;1000.0;4;0.0;5;0.0;6;0.0;7;0.0;
RC;ROLL;1495.0;PITCH;1516.0;YAW;1538.0;THROTTLE;1060.0;AUX1;1544.0;AUX2;1500.0;AUX3;1500.0;AUX4;1500.0
ALTITUDE;0.0
DEBUG;DEBUG10.0;DEBUG2;0.0;DEBUG3;0.0;DEBUG4;0.0
ATTITUDE;ANGX;16.0;ANGY;-4.0;HEAD;184.0
STATUS;CYCLETIME;2928;I2CERR;0;PRESENT;23;MODE;0
RAW_IMU;AX;81.0;AY;-11.0;AZ;245.0;GX;-1.0;GY;0.0;GZ;-2.0;MAGX;17.0;MAGY;-111.0;MAGZ;78.0
MOT;0;1000.0;1;1000.0;2;1000.0;3;1000.0;4;0.0;5;0.0;6;0.0;7;0.0;
RC;ROLL;1495.0;PITCH;1516.0;YAW;1536.0;THROTTLE;1060.0;AUX1;1546.0;AUX2;1500.0;AUX3;1500.0;AUX4;1500.0
ALTITUDE;0.0
DEBUG;DEBUG10.0;DEBUG2;0.0;DEBUG3;0.0;DEBUG4;0.0
ATTITUDE;ANGX;16.0;ANGY;-4.0;HEAD;184.0
STATUS;CYCLETIME;2896;I2CERR;0;PRESENT;23;MODE;0
RAW_IMU;AX;82.0;AY;-9.0;AZ;246.0;GX;-1.0;GY;0.0;GZ;-2.0;MAGX;17.0;MAGY;-111.0;MAGZ;78.0
MOT;0;1000.0;1;1000.0;2;1000.0;3;1000.0;4;0.0;5;0.0;6;0.0;7;0.0;
RC;ROLL;1495.0;PITCH;1516.0;YAW;1536.0;THROTTLE;1060.0;AUX1;1546.0;AUX2;1500.0;AUX3;1500.0;AUX4;1500.0
ALTITUDE;0.0
DEBUG;DEBUG10.0;DEBUG2;0.0;DEBUG3;0.0;DEBUG4;0.0
ATTITUDE;ANGX;16.0;ANGY;-4.0;HEAD;184.0
STATUS;CYCLETIME;3188;I2CERR;0;PRESENT;23;MODE;0
RAW_IMU;AX;80.0;AY;-10.0;AZ;245.0;GX;0.0;GY;0.0;GZ;-1.0;MAGX;17.0;MAGY;-111.0;MAGZ;76.0
MOT;0;1000.0;1;1000.0;2;1000.0;3;1000.0;4;0.0;5;0.0;6;0.0;7;0.0;
RC;ROLL;1495.0;PITCH;1516.0;YAW;1536.0;THROTTLE;1060.0;AUX1;1546.0;AUX2;1500.0;AUX3;1500.0;AUX4;1500.0
ALTITUDE;0.0
DEBUG;DEBUG10.0;DEBUG2;0.0;DEBUG3;0.0;DEBUG4;0.0
ATTITUDE;ANGX;16.0;ANGY;-4.0;HEAD;184.0
STATUS;CYCLETIME;2908;I2CERR;0;PRESENT;23;MODE;0
RAW_IMU;AX;81.0;AY;-11.0;AZ;246.0;GX;-1.0;GY;0.0;GZ;-2.0;MAGX;17.0;MAGY;-111.0;MAGZ;76.0
MOT;0;1000.0;1;1000.0;2;1000.0;3;1000.0;4;0.0;5;0.0;6;0.0;7;0.0;
RC;ROLL;1493.0;PITCH;1518.0;YAW;1536.0;THROTTLE;1060.0;AUX1;1546.0;AUX2;1500.0;AUX3;1500.0;AUX4;1500.0
ALTITUDE;0.0
DEBUG;DEBUG10.0;DEBUG2;0.0;DEBUG3;0.0;DEBUG4;0.0
ATTITUDE;ANGX;16.0;ANGY;-4.0;HEAD;184.0
STATUS;CYCLETIME;2924;I2CERR;0;PRESENT;23;MODE;0
RAW_IMU;AX;80.0;AY;-9.0;AZ;244.0;GX;-1.0;GY;0.0;GZ;-2.0;MAGX;17.0;MAGY;-111.0;MAGZ;76.0
MOT;0;1000.0;1;1000.0;2;1000.0;3;1000.0;4;0.0;5;0.0;6;0.0;7;0.0;
RC;ROLL;1493.0;PITCH;1518.0;YAW;1536.0;THROTTLE;1060.0;AUX1;1546.0;AUX2;1500.0;AUX3;1500.0;AUX4;1500.0
ALTITUDE;0.0
DEBUG;DEBUG10.0;DEBUG2;0.0;DEBUG3;0.0;DEBUG4;0.0
ATTITUDE;ANGX;16.0;ANGY;-4.0;HEAD;184.0
STATUS;CYCLETIME;3008;I2CERR;0;PRESENT;23;MODE;0
RAW_IMU;AX;79.0;AY;-11.0;AZ;244.0;GX;0.0;GY;0.0;GZ;-2.0;MAGX;17.0;MAGY;-110.0;MAGZ;78.0
MOT;0;1000.0;1;1000.0;2;1000.0;3;1000.0;4;0.0;5;0.0;6;0.0;7;0.0;
RC;ROLL;1493.0;PITCH;1518.0;YAW;1536.0;THROTTLE;1060.0;AUX1;1546.0;AUX2;1500.0;AUX3;1500.0;AUX4;1500.0
ALTITUDE;0.0
DEBUG;DEBUG10.0;DEBUG2;0.0;DEBUG3;0.0;DEBUG4;0.0
ATTITUDE;ANGX;16.0;ANGY;-4.0;HEAD;184.0
STATUS;CYCLETIME;2912;I2CERR;0;PRESENT;23;MODE;0
RAW_IMU;AX;81.0;AY;-12.0;AZ;243.0;GX;0.0;GY;0.0;GZ;-2.0;MAGX;17.0;MAGY;-110.0;MAGZ;78.0
MOT;0;1000.0;1;1000.0;2;1000.0;3;1000.0;4;0.0;5;0.0;6;0.0;7;0.0;
RC;ROLL;1493.0;PITCH;1518.0;YAW;1536.0;THROTTLE;1060.0;AUX1;1546.0;AUX2;1500.0;AUX3;1500.0;AUX4;1500.0
ALTITUDE;0.0
DEBUG;DEBUG10.0;DEBUG2;0.0;DEBUG3;0.0;DEBUG4;0.0
ATTITUDE;ANGX;16.0;ANGY;-4.0;HEAD;184.0
STATUS;CYCLETIME;2904;I2CERR;0;PRESENT;23;MODE;0
RAW_IMU;AX;81.0;AY;-10.0;AZ;244.0;GX;0.0;GY;0.0;GZ;-2.0;MAGX;17.0;MAGY;-111.0;MAGZ;77.0
MOT;0;1000.0;1;1000.0;2;1000.0;3;1000.0;4;0.0;5;0.0;6;0.0;7;0.0;
RC;ROLL;1493.0;PITCH;1520.0;YAW;1536.0;THROTTLE;1060.0;AUX1;1544.0;AUX2;1500.0;AUX3;1500.0;AUX4;1500.0
ALTITUDE;0.0
DEBUG;DEBUG10.0;DEBUG2;0.0;DEBUG3;0.0;DEBUG4;0.0
ATTITUDE;ANGX;16.0;ANGY;-4.0;HEAD;184.0
STATUS;CYCLETIME;2908;I2CERR;0;PRESENT;23;MODE;0
RAW_IMU;AX;79.0;AY;-11.0;AZ;245.0;GX;0.0;GY;0.0;GZ;-1.0;MAGX;17.0;MAGY;-111.0;MAGZ;77.0
MOT;0;1000.0;1;1000.0;2;1000.0;3;1000.0;4;0.0;5;0.0;6;0.0;7;0.0;
RC;ROLL;1493.0;PITCH;1518.0;YAW;1538.0;THROTTLE;1060.0;AUX1;1544.0;AUX2;1500.0;AUX3;1500.0;AUX4;1500.0
ALTITUDE;0.0
DEBUG;DEBUG10.0;DEBUG2;0.0;DEBUG3;0.0;DEBUG4;0.0
ATTITUDE;ANGX;16.0;ANGY;-4.0;HEAD;184.0
STATUS;CYCLETIME;2936;I2CERR;0;PRESENT;23;MODE;0
RAW_IMU;AX;80.0;AY;-12.0;AZ;243.0;GX;-1.0;GY;0.0;GZ;-2.0;MAGX;17.0;MAGY;-111.0;MAGZ;77.0
MOT;0;1000.0;1;1000.0;2;1000.0;3;1000.0;4;0.0;5;0.0;6;0.0;7;0.0;
RC;ROLL;1495.0;PITCH;1516.0;YAW;1538.0;THROTTLE;1060.0;AUX1;1544.0;AUX2;1500.0;AUX3;1500.0;AUX4;1500.0
ALTITUDE;0.0
DEBUG;DEBUG10.0;DEBUG2;0.0;DEBUG3;0.0;DEBUG4;0.0
ATTITUDE;ANGX;16.0;ANGY;-4.0;HEAD;184.0
STATUS;CYCLETIME;2888;I2CERR;0;PRESENT;23;MODE;0
RAW_IMU;AX;81.0;AY;-10.0;AZ;245.0;GX;0.0;GY;0.0;GZ;-2.0;MAGX;17.0;MAGY;-111.0;MAGZ;77.0
MOT;0;1000.0;1;1000.0;2;1000.0;3;1000.0;4;0.0;5;0.0;6;0.0;7;0.0;
RC;ROLL;1495.0;PITCH;1516.0;YAW;1538.0;THROTTLE;1060.0;AUX1;1544.0;AUX2;1500.0;AUX3;1500.0;AUX4;1500.0
ALTITUDE;0.0
DEBUG;DEBUG10.0;DEBUG2;0.0;DEBUG3;0.0;DEBUG4;0.0
ATTITUDE;ANGX;16.0;ANGY;-4.0;HEAD;184.0
STATUS;CYCLETIME;3000;I2CERR;0;PRESENT;23;MODE;0
RAW_IMU;AX;79.0;AY;-9.0;AZ;243.0;GX;0.0;GY;0.0;GZ;-1.0;MAGX;16.0;MAGY;-111.0;MAGZ;76.0
MOT;0;1000.0;1;1000.0;2;1000.0;3;1000.0;4;0.0;5;0.0;6;0.0;7;0.0;
RC;ROLL;1495.0;PITCH;1516.0;YAW;1536.0;THROTTLE;1060.0;AUX1;1544.0;AUX2;1500.0;AUX3;1500.0;AUX4;1500.0
ALTITUDE;0.0
DEBUG;DEBUG10.0;DEBUG2;0.0;DEBUG3;0.0;DEBUG4;0.0
ATTITUDE;ANGX;16.0;ANGY;-4.0;HEAD;184.0
STATUS;CYCLETIME;2948;I2CERR;0;PRESENT;23;MODE;0
RAW_IMU;AX;80.0;AY;-9.0;AZ;245.0;GX;0.0;GY;0.0;GZ;-2.0;MAGX;16.0;MAGY;-111.0;MAGZ;76.0
MOT;0;1000.0;1;1000.0;2;1000.0;3;1000.0;4;0.0;5;0.0;6;0.0;7;0.0;
RC;ROLL;1495.0;PITCH;1516.0;YAW;1536.0;THROTTLE;1060.0;AUX1;1544.0;AUX2;1500.0;AUX3;1500.0;AUX4;1500.0
ALTITUDE;0.0
DEBUG;DEBUG10.0;DEBUG2;0.0;DEBUG3;0.0;DEBUG4;0.0
ATTITUDE;ANGX;16.0;ANGY;-4.0;HEAD;184.0
STATUS;CYCLETIME;2892;I2CERR;0;PRESENT;23;MODE;0
RAW_IMU;AX;80.0;AY;-8.0;AZ;245.0;GX;-1.0;GY;0.0;GZ;-2.0;MAGX;16.0;MAGY;-112.0;MAGZ;77.0
MOT;0;1000.0;1;1000.0;2;1000.0;3;1000.0;4;0.0;5;0.0;6;0.0;7;0.0;
RC;ROLL;1495.0;PITCH;1516.0;YAW;1536.0;THROTTLE;1060.0;AUX1;1544.0;AUX2;1500.0;AUX3;1500.0;AUX4;1500.0
ALTITUDE;0.0
DEBUG;DEBUG10.0;DEBUG2;0.0;DEBUG3;0.0;DEBUG4;0.0
ATTITUDE;ANGX;16.0;ANGY;-4.0;HEAD;184.0
STATUS;CYCLETIME;2908;I2CERR;0;PRESENT;23;MODE;0
RAW_IMU;AX;79.0;AY;-8.0;AZ;248.0;GX;-1.0;GY;0.0;GZ;-2.0;MAGX;16.0;MAGY;-112.0;MAGZ;77.0
MOT;0;1000.0;1;1000.0;2;1000.0;3;1000.0;4;0.0;5;0.0;6;0.0;7;0.0;
RC;ROLL;1495.0;PITCH;1516.0;YAW;1536.0;THROTTLE;1060.0;AUX1;1544.0;AUX2;1500.0;AUX3;1500.0;AUX4;1500.0
ALTITUDE;0.0
DEBUG;DEBUG10.0;DEBUG2;0.0;DEBUG3;0.0;DEBUG4;0.0
ATTITUDE;ANGX;16.0;ANGY;-4.0;HEAD;184.0
STATUS;CYCLETIME;2920;I2CERR;0;PRESENT;23;MODE;0
RAW_IMU;AX;79.0;AY;-10.0;AZ;247.0;GX;0.0;GY;0.0;GZ;-1.0;MAGX;16.0;MAGY;-111.0;MAGZ;78.0
MOT;0;1000.0;1;1000.0;2;1000.0;3;1000.0;4;0.0;5;0.0;6;0.0;7;0.0;
RC;ROLL;1495.0;PITCH;1516.0;YAW;1536.0;THROTTLE;1060.0;AUX1;1544.0;AUX2;1500.0;AUX3;1500.0;AUX4;1500.0
ALTITUDE;0.0
DEBUG;DEBUG10.0;DEBUG2;0.0;DEBUG3;0.0;DEBUG4;0.0
ATTITUDE;ANGX;16.0;ANGY;-4.0;HEAD;184.0
STATUS;CYCLETIME;2900;I2CERR;0;PRESENT;23;MODE;0
RAW_IMU;AX;79.0;AY;-9.0;AZ;246.0;GX;0.0;GY;0.0;GZ;-1.0;MAGX;16.0;MAGY;-111.0;MAGZ;78.0
MOT;0;1000.0;1;1000.0;2;1000.0;3;1000.0;4;0.0;5;0.0;6;0.0;7;0.0;
RC;ROLL;1495.0;PITCH;1516.0;YAW;1536.0;THROTTLE;1060.0;AUX1;1544.0;AUX2;1500.0;AUX3;1500.0;AUX4;1500.0
ALTITUDE;0.0
DEBUG;DEBUG10.0;DEBUG2;0.0;DEBUG3;0.0;DEBUG4;0.0
ATTITUDE;ANGX;16.0;ANGY;-4.0;HEAD;184.0
STATUS;CYCLETIME;2864;I2CERR;0;PRESENT;23;MODE;0
RAW_IMU;AX;82.0;AY;-11.0;AZ;247.0;GX;0.0;GY;0.0;GZ;-1.0;MAGX;16.0;MAGY;-111.0;MAGZ;78.0
MOT;0;1000.0;1;1000.0;2;1000.0;3;1000.0;4;0.0;5;0.0;6;0.0;7;0.0;
RC;ROLL;1495.0;PITCH;1516.0;YAW;1536.0;THROTTLE;1062.0;AUX1;1544.0;AUX2;1500.0;AUX3;1500.0;AUX4;1500.0
ALTITUDE;0.0
DEBUG;DEBUG10.0;DEBUG2;0.0;DEBUG3;0.0;DEBUG4;0.0
ATTITUDE;ANGX;16.0;ANGY;-4.0;HEAD;184.0
STATUS;CYCLETIME;3012;I2CERR;0;PRESENT;23;MODE;0
RAW_IMU;AX;81.0;AY;-12.0;AZ;246.0;GX;0.0;GY;0.0;GZ;-2.0;MAGX;16.0;MAGY;-111.0;MAGZ;76.0
MOT;0;1000.0;1;1000.0;2;1000.0;3;1000.0;4;0.0;5;0.0;6;0.0;7;0.0;
RC;ROLL;1495.0;PITCH;1516.0;YAW;1536.0;THROTTLE;1062.0;AUX1;1544.0;AUX2;1500.0;AUX3;1500.0;AUX4;1500.0
ALTITUDE;0.0
DEBUG;DEBUG10.0;DEBUG2;0.0;DEBUG3;0.0;DEBUG4;0.0
ATTITUDE;ANGX;16.0;ANGY;-4.0;HEAD;184.0
STATUS;CYCLETIME;2932;I2CERR;0;PRESENT;23;MODE;0
RAW_IMU;AX;81.0;AY;-11.0;AZ;248.0;GX;0.0;GY;0.0;GZ;-1.0;MAGX;16.0;MAGY;-111.0;MAGZ;76.0
MOT;0;1000.0;1;1000.0;2;1000.0;3;1000.0;4;0.0;5;0.0;6;0.0;7;0.0;
RC;ROLL;1495.0;PITCH;1518.0;YAW;1536.0;THROTTLE;1062.0;AUX1;1544.0;AUX2;1500.0;AUX3;1500.0;AUX4;1500.0
ALTITUDE;0.0
DEBUG;DEBUG10.0;DEBUG2;0.0;DEBUG3;0.0;DEBUG4;0.0
ATTITUDE;ANGX;16.0;ANGY;-4.0;HEAD;184.0
STATUS;CYCLETIME;2884;I2CERR;0;PRESENT;23;MODE;0
RAW_IMU;AX;81.0;AY;-12.0;AZ;248.0;GX;0.0;GY;0.0;GZ;-1.0;MAGX;17.0;MAGY;-111.0;MAGZ;77.0
MOT;0;1000.0;1;1000.0;2;1000.0;3;1000.0;4;0.0;5;0.0;6;0.0;7;0.0;
RC;ROLL;1495.0;PITCH;1520.0;YAW;1536.0;THROTTLE;1062.0;AUX1;1544.0;AUX2;1500.0;AUX3;1500.0;AUX4;1500.0
ALTITUDE;0.0
DEBUG;DEBUG10.0;DEBUG2;0.0;DEBUG3;0.0;DEBUG4;0.0
ATTITUDE;ANGX;16.0;ANGY;-4.0;HEAD;184.0
STATUS;CYCLETIME;3008;I2CERR;0;PRESENT;23;MODE;0
RAW_IMU;AX;82.0;AY;-12.0;AZ;248.0;GX;0.0;GY;0.0;GZ;-2.0;MAGX;17.0;MAGY;-111.0;MAGZ;77.0
MOT;0;1000.0;1;1000.0;2;1000.0;3;1000.0;4;0.0;5;0.0;6;0.0;7;0.0;
RC;ROLL;1495.0;PITCH;1520.0;YAW;1536.0;THROTTLE;1062.0;AUX1;1544.0;AUX2;1500.0;AUX3;1500.0;AUX4;1500.0
ALTITUDE;0.0
DEBUG;DEBUG10.0;DEBUG2;0.0;DEBUG3;0.0;DEBUG4;0.0
ATTITUDE;ANGX;16.0;ANGY;-4.0;HEAD;184.0
STATUS;CYCLETIME;2908;I2CERR;0;PRESENT;23;MODE;0
RAW_IMU;AX;80.0;AY;-12.0;AZ;248.0;GX;0.0;GY;0.0;GZ;-1.0;MAGX;17.0;MAGY;-110.0;MAGZ;77.0
MOT;0;1000.0;1;1000.0;2;1000.0;3;1000.0;4;0.0;5;0.0;6;0.0;7;0.0;
RC;ROLL;1495.0;PITCH;1520.0;YAW;1536.0;THROTTLE;1060.0;AUX1;1542.0;AUX2;1500.0;AUX3;1500.0;AUX4;1500.0
ALTITUDE;0.0
DEBUG;DEBUG10.0;DEBUG2;0.0;DEBUG3;0.0;DEBUG4;0.0
ATTITUDE;ANGX;16.0;ANGY;-4.0;HEAD;184.0
STATUS;CYCLETIME;2948;I2CERR;0;PRESENT;23;MODE;0
RAW_IMU;AX;79.0;AY;-10.0;AZ;248.0;GX;0.0;GY;0.0;GZ;-1.0;MAGX;17.0;MAGY;-110.0;MAGZ;77.0
MOT;0;1000.0;1;1000.0;2;1000.0;3;1000.0;4;0.0;5;0.0;6;0.0;7;0.0;
RC;ROLL;1495.0;PITCH;1520.0;YAW;1536.0;THROTTLE;1060.0;AUX1;1542.0;AUX2;1500.0;AUX3;1500.0;AUX4;1500.0
ALTITUDE;0.0
DEBUG;DEBUG10.0;DEBUG2;0.0;DEBUG3;0.0;DEBUG4;0.0
ATTITUDE;ANGX;16.0;ANGY;-4.0;HEAD;184.0
STATUS;CYCLETIME;2896;I2CERR;0;PRESENT;23;MODE;0
RAW_IMU;AX;77.0;AY;-9.0;AZ;245.0;GX;0.0;GY;0.0;GZ;-1.0;MAGX;16.0;MAGY;-111.0;MAGZ;76.0
MOT;0;1000.0;1;1000.0;2;1000.0;3;1000.0;4;0.0;5;0.0;6;0.0;7;0.0;
RC;ROLL;1495.0;PITCH;1520.0;YAW;1536.0;THROTTLE;1060.0;AUX1;1545.0;AUX2;1500.0;AUX3;1500.0;AUX4;1500.0
ALTITUDE;0.0
DEBUG;DEBUG10.0;DEBUG2;0.0;DEBUG3;0.0;DEBUG4;0.0
ATTITUDE;ANGX;16.0;ANGY;-4.0;HEAD;184.0
STATUS;CYCLETIME;2864;I2CERR;0;PRESENT;23;MODE;0
RAW_IMU;AX;79.0;AY;-9.0;AZ;246.0;GX;0.0;GY;0.0;GZ;-1.0;MAGX;16.0;MAGY;-111.0;MAGZ;76.0
MOT;0;1000.0;1;1000.0;2;1000.0;3;1000.0;4;0.0;5;0.0;6;0.0;7;0.0;
RC;ROLL;1495.0;PITCH;1518.0;YAW;1536.0;THROTTLE;1060.0;AUX1;1545.0;AUX2;1500.0;AUX3;1500.0;AUX4;1500.0
ALTITUDE;0.0
DEBUG;DEBUG10.0;DEBUG2;0.0;DEBUG3;0.0;DEBUG4;0.0
ATTITUDE;ANGX;16.0;ANGY;-4.0;HEAD;184.0
STATUS;CYCLETIME;2892;I2CERR;0;PRESENT;23;MODE;0
RAW_IMU;AX;79.0;AY;-10.0;AZ;244.0;GX;0.0;GY;0.0;GZ;-1.0;MAGX;16.0;MAGY;-111.0;MAGZ;76.0
MOT;0;1000.0;1;1000.0;2;1000.0;3;1000.0;4;0.0;5;0.0;6;0.0;7;0.0;
RC;ROLL;1495.0;PITCH;1518.0;YAW;1536.0;THROTTLE;1060.0;AUX1;1545.0;AUX2;1500.0;AUX3;1500.0;AUX4;1500.0
ALTITUDE;0.0
DEBUG;DEBUG10.0;DEBUG2;0.0;DEBUG3;0.0;DEBUG4;0.0
ATTITUDE;ANGX;16.0;ANGY;-4.0;HEAD;184.0
STATUS;CYCLETIME;2912;I2CERR;0;PRESENT;23;MODE;0
RAW_IMU;AX;79.0;AY;-12.0;AZ;246.0;GX;0.0;GY;0.0;GZ;-1.0;MAGX;16.0;MAGY;-111.0;MAGZ;76.0
MOT;0;1000.0;1;1000.0;2;1000.0;3;1000.0;4;0.0;5;0.0;6;0.0;7;0.0;
RC;ROLL;1495.0;PITCH;1518.0;YAW;1536.0;THROTTLE;1060.0;AUX1;1545.0;AUX2;1500.0;AUX3;1500.0;AUX4;1500.0
ALTITUDE;0.0
DEBUG;DEBUG10.0;DEBUG2;0.0;DEBUG3;0.0;DEBUG4;0.0
ATTITUDE;ANGX;16.0;ANGY;-4.0;HEAD;184.0
STATUS;CYCLETIME;2984;I2CERR;0;PRESENT;23;MODE;0
RAW_IMU;AX;80.0;AY;-13.0;AZ;248.0;GX;0.0;GY;0.0;GZ;-1.0;MAGX;17.0;MAGY;-112.0;MAGZ;77.0
MOT;0;1000.0;1;1000.0;2;1000.0;3;1000.0;4;0.0;5;0.0;6;0.0;7;0.0;
RC;ROLL;1495.0;PITCH;1518.0;YAW;1536.0;THROTTLE;1060.0;AUX1;1545.0;AUX2;1500.0;AUX3;1500.0;AUX4;1500.0
ALTITUDE;0.0
DEBUG;DEBUG10.0;DEBUG2;0.0;DEBUG3;0.0;DEBUG4;0.0
ATTITUDE;ANGX;16.0;ANGY;-4.0;HEAD;184.0
STATUS;CYCLETIME;2876;I2CERR;0;PRESENT;23;MODE;0
RAW_IMU;AX;79.0;AY;-13.0;AZ;247.0;GX;0.0;GY;0.0;GZ;-1.0;MAGX;17.0;MAGY;-112.0;MAGZ;77.0
MOT;0;1000.0;1;1000.0;2;1000.0;3;1000.0;4;0.0;5;0.0;6;0.0;7;0.0;
RC;ROLL;1495.0;PITCH;1518.0;YAW;1536.0;THROTTLE;1060.0;AUX1;1543.0;AUX2;1500.0;AUX3;1500.0;AUX4;1500.0
ALTITUDE;0.0
DEBUG;DEBUG10.0;DEBUG2;0.0;DEBUG3;0.0;DEBUG4;0.0
ATTITUDE;ANGX;16.0;ANGY;-4.0;HEAD;184.0
STATUS;CYCLETIME;2900;I2CERR;0;PRESENT;23;MODE;0
RAW_IMU;AX;78.0;AY;-11.0;AZ;245.0;GX;0.0;GY;0.0;GZ;-2.0;MAGX;17.0;MAGY;-112.0;MAGZ;77.0
MOT;0;1000.0;1;1000.0;2;1000.0;3;1000.0;4;0.0;5;0.0;6;0.0;7;0.0;
RC;ROLL;1495.0;PITCH;1518.0;YAW;1536.0;THROTTLE;1060.0;AUX1;1543.0;AUX2;1500.0;AUX3;1500.0;AUX4;1500.0
ALTITUDE;0.0
DEBUG;DEBUG10.0;DEBUG2;0.0;DEBUG3;0.0;DEBUG4;0.0
ATTITUDE;ANGX;16.0;ANGY;-4.0;HEAD;184.0
STATUS;CYCLETIME;2912;I2CERR;0;PRESENT;23;MODE;0
RAW_IMU;AX;78.0;AY;-10.0;AZ;247.0;GX;0.0;GY;0.0;GZ;-1.0;MAGX;17.0;MAGY;-112.0;MAGZ;77.0
MOT;0;1000.0;1;1000.0;2;1000.0;3;1000.0;4;0.0;5;0.0;6;0.0;7;0.0;
RC;ROLL;1495.0;PITCH;1518.0;YAW;1536.0;THROTTLE;1060.0;AUX1;1543.0;AUX2;1500.0;AUX3;1500.0;AUX4;1500.0
ALTITUDE;0.0
DEBUG;DEBUG10.0;DEBUG2;0.0;DEBUG3;0.0;DEBUG4;0.0
ATTITUDE;ANGX;16.0;ANGY;-4.0;HEAD;184.0
STATUS;CYCLETIME;2932;I2CERR;0;PRESENT;23;MODE;0
RAW_IMU;AX;80.0;AY;-12.0;AZ;247.0;GX;0.0;GY;0.0;GZ;-1.0;MAGX;17.0;MAGY;-112.0;MAGZ;77.0
MOT;0;1000.0;1;1000.0;2;1000.0;3;1000.0;4;0.0;5;0.0;6;0.0;7;0.0;
RC;ROLL;1495.0;PITCH;1518.0;YAW;1536.0;THROTTLE;1060.0;AUX1;1543.0;AUX2;1500.0;AUX3;1500.0;AUX4;1500.0
ALTITUDE;0.0
DEBUG;DEBUG10.0;DEBUG2;0.0;DEBUG3;0.0;DEBUG4;0.0
ATTITUDE;ANGX;16.0;ANGY;-4.0;HEAD;184.0
STATUS;CYCLETIME;2928;I2CERR;0;PRESENT;23;MODE;0
RAW_IMU;AX;78.0;AY;-10.0;AZ;246.0;GX;0.0;GY;0.0;GZ;-1.0;MAGX;16.0;MAGY;-112.0;MAGZ;77.0
MOT;0;1000.0;1;1000.0;2;1000.0;3;1000.0;4;0.0;5;0.0;6;0.0;7;0.0;
RC;ROLL;1495.0;PITCH;1518.0;YAW;1536.0;THROTTLE;1060.0;AUX1;1543.0;AUX2;1500.0;AUX3;1500.0;AUX4;1500.0
ALTITUDE;0.0
DEBUG;DEBUG10.0;DEBUG2;0.0;DEBUG3;0.0;DEBUG4;0.0
ATTITUDE;ANGX;16.0;ANGY;-4.0;HEAD;184.0
STATUS;CYCLETIME;3012;I2CERR;0;PRESENT;23;MODE;0
RAW_IMU;AX;77.0;AY;-12.0;AZ;247.0;GX;0.0;GY;0.0;GZ;-2.0;MAGX;16.0;MAGY;-112.0;MAGZ;77.0
MOT;0;1000.0;1;1000.0;2;1000.0;3;1000.0;4;0.0;5;0.0;6;0.0;7;0.0;
RC;ROLL;1495.0;PITCH;1518.0;YAW;1536.0;THROTTLE;1062.0;AUX1;1543.0;AUX2;1500.0;AUX3;1500.0;AUX4;1500.0
ALTITUDE;0.0
DEBUG;DEBUG10.0;DEBUG2;0.0;DEBUG3;0.0;DEBUG4;0.0
ATTITUDE;ANGX;16.0;ANGY;-4.0;HEAD;184.0
STATUS;CYCLETIME;2904;I2CERR;0;PRESENT;23;MODE;0
RAW_IMU;AX;79.0;AY;-13.0;AZ;247.0;GX;0.0;GY;0.0;GZ;-1.0;MAGX;17.0;MAGY;-110.0;MAGZ;77.0
MOT;0;1000.0;1;1000.0;2;1000.0;3;1000.0;4;0.0;5;0.0;6;0.0;7;0.0;
RC;ROLL;1495.0;PITCH;1518.0;YAW;1536.0;THROTTLE;1060.0;AUX1;1543.0;AUX2;1500.0;AUX3;1500.0;AUX4;1500.0
ALTITUDE;0.0
DEBUG;DEBUG10.0;DEBUG2;0.0;DEBUG3;0.0;DEBUG4;0.0
ATTITUDE;ANGX;16.0;ANGY;-4.0;HEAD;184.0
STATUS;CYCLETIME;2916;I2CERR;0;PRESENT;23;MODE;0
RAW_IMU;AX;79.0;AY;-13.0;AZ;245.0;GX;0.0;GY;0.0;GZ;-2.0;MAGX;17.0;MAGY;-110.0;MAGZ;77.0
MOT;0;1000.0;1;1000.0;2;1000.0;3;1000.0;4;0.0;5;0.0;6;0.0;7;0.0;
RC;ROLL;1495.0;PITCH;1518.0;YAW;1536.0;THROTTLE;1060.0;AUX1;1543.0;AUX2;1500.0;AUX3;1500.0;AUX4;1500.0
ALTITUDE;0.0
DEBUG;DEBUG10.0;DEBUG2;0.0;DEBUG3;0.0;DEBUG4;0.0
ATTITUDE;ANGX;16.0;ANGY;-4.0;HEAD;184.0
STATUS;CYCLETIME;2916;I2CERR;0;PRESENT;23;MODE;0
RAW_IMU;AX;80.0;AY;-11.0;AZ;244.0;GX;0.0;GY;0.0;GZ;-1.0;MAGX;17.0;MAGY;-110.0;MAGZ;77.0
MOT;0;1000.0;1;1000.0;2;1000.0;3;1000.0;4;0.0;5;0.0;6;0.0;7;0.0;
RC;ROLL;1495.0;PITCH;1518.0;YAW;1536.0;THROTTLE;1060.0;AUX1;1543.0;AUX2;1500.0;AUX3;1500.0;AUX4;1500.0
ALTITUDE;0.0
DEBUG;DEBUG10.0;DEBUG2;0.0;DEBUG3;0.0;DEBUG4;0.0
ATTITUDE;ANGX;16.0;ANGY;-4.0;HEAD;184.0
STATUS;CYCLETIME;2916;I2CERR;0;PRESENT;23;MODE;0
RAW_IMU;AX;80.0;AY;-10.0;AZ;245.0;GX;0.0;GY;0.0;GZ;-2.0;MAGX;17.0;MAGY;-110.0;MAGZ;77.0
MOT;0;1000.0;1;1000.0;2;1000.0;3;1000.0;4;0.0;5;0.0;6;0.0;7;0.0;
RC;ROLL;1495.0;PITCH;1518.0;YAW;1536.0;THROTTLE;1060.0;AUX1;1543.0;AUX2;1500.0;AUX3;1500.0;AUX4;1500.0
ALTITUDE;0.0
DEBUG;DEBUG10.0;DEBUG2;0.0;DEBUG3;0.0;DEBUG4;0.0
ATTITUDE;ANGX;16.0;ANGY;-4.0;HEAD;184.0
STATUS;CYCLETIME;3180;I2CERR;0;PRESENT;23;MODE;0
RAW_IMU;AX;83.0;AY;-9.0;AZ;244.0;GX;0.0;GY;0.0;GZ;-2.0;MAGX;17.0;MAGY;-111.0;MAGZ;76.0
MOT;0;1000.0;1;1000.0;2;1000.0;3;1000.0;4;0.0;5;0.0;6;0.0;7;0.0;
RC;ROLL;1497.0;PITCH;1518.0;YAW;1536.0;THROTTLE;1060.0;AUX1;1543.0;AUX2;1500.0;AUX3;1500.0;AUX4;1500.0
ALTITUDE;0.0
DEBUG;DEBUG10.0;DEBUG2;0.0;DEBUG3;0.0;DEBUG4;0.0
ATTITUDE;ANGX;16.0;ANGY;-4.0;HEAD;184.0
STATUS;CYCLETIME;3008;I2CERR;0;PRESENT;23;MODE;0
RAW_IMU;AX;81.0;AY;-11.0;AZ;244.0;GX;0.0;GY;0.0;GZ;-2.0;MAGX;17.0;MAGY;-111.0;MAGZ;76.0
MOT;0;1000.0;1;1000.0;2;1000.0;3;1000.0;4;0.0;5;0.0;6;0.0;7;0.0;
RC;ROLL;1497.0;PITCH;1518.0;YAW;1536.0;THROTTLE;1060.0;AUX1;1543.0;AUX2;1500.0;AUX3;1500.0;AUX4;1500.0
ALTITUDE;0.0
DEBUG;DEBUG10.0;DEBUG2;0.0;DEBUG3;0.0;DEBUG4;0.0
ATTITUDE;ANGX;16.0;ANGY;-4.0;HEAD;184.0
STATUS;CYCLETIME;2920;I2CERR;0;PRESENT;23;MODE;0
RAW_IMU;AX;79.0;AY;-7.0;AZ;243.0;GX;0.0;GY;0.0;GZ;-1.0;MAGX;17.0;MAGY;-111.0;MAGZ;76.0
MOT;0;1000.0;1;1000.0;2;1000.0;3;1000.0;4;0.0;5;0.0;6;0.0;7;0.0;
RC;ROLL;1497.0;PITCH;1518.0;YAW;1550.0;THROTTLE;1060.0;AUX1;1543.0;AUX2;1500.0;AUX3;1500.0;AUX4;1500.0
ALTITUDE;0.0
DEBUG;DEBUG10.0;DEBUG2;0.0;DEBUG3;0.0;DEBUG4;0.0
ATTITUDE;ANGX;16.0;ANGY;-4.0;HEAD;184.0
STATUS;CYCLETIME;3072;I2CERR;0;PRESENT;23;MODE;0
RAW_IMU;AX;79.0;AY;-8.0;AZ;243.0;GX;0.0;GY;0.0;GZ;-1.0;MAGX;17.0;MAGY;-111.0;MAGZ;77.0
MOT;0;1000.0;1;1000.0;2;1000.0;3;1000.0;4;0.0;5;0.0;6;0.0;7;0.0;
RC;ROLL;1497.0;PITCH;1518.0;YAW;1611.0;THROTTLE;1060.0;AUX1;1543.0;AUX2;1500.0;AUX3;1500.0;AUX4;1500.0
ALTITUDE;0.0
DEBUG;DEBUG10.0;DEBUG2;0.0;DEBUG3;0.0;DEBUG4;0.0
ATTITUDE;ANGX;16.0;ANGY;-4.0;HEAD;184.0
STATUS;CYCLETIME;2888;I2CERR;0;PRESENT;23;MODE;0
RAW_IMU;AX;81.0;AY;-10.0;AZ;244.0;GX;-1.0;GY;0.0;GZ;-2.0;MAGX;17.0;MAGY;-111.0;MAGZ;77.0
MOT;0;1000.0;1;1000.0;2;1000.0;3;1000.0;4;0.0;5;0.0;6;0.0;7;0.0;
RC;ROLL;1495.0;PITCH;1518.0;YAW;1657.0;THROTTLE;1060.0;AUX1;1543.0;AUX2;1500.0;AUX3;1500.0;AUX4;1500.0
ALTITUDE;0.0
DEBUG;DEBUG10.0;DEBUG2;0.0;DEBUG3;0.0;DEBUG4;0.0
ATTITUDE;ANGX;16.0;ANGY;-4.0;HEAD;184.0
STATUS;CYCLETIME;2920;I2CERR;0;PRESENT;23;MODE;0
RAW_IMU;AX;80.0;AY;-8.0;AZ;246.0;GX;-1.0;GY;0.0;GZ;-2.0;MAGX;17.0;MAGY;-111.0;MAGZ;77.0
MOT;0;1000.0;1;1000.0;2;1000.0;3;1000.0;4;0.0;5;0.0;6;0.0;7;0.0;
RC;ROLL;1495.0;PITCH;1518.0;YAW;1713.0;THROTTLE;1058.0;AUX1;1543.0;AUX2;1500.0;AUX3;1500.0;AUX4;1500.0
ALTITUDE;0.0
DEBUG;DEBUG10.0;DEBUG2;0.0;DEBUG3;0.0;DEBUG4;0.0
ATTITUDE;ANGX;16.0;ANGY;-4.0;HEAD;184.0
STATUS;CYCLETIME;3000;I2CERR;0;PRESENT;23;MODE;0
RAW_IMU;AX;81.0;AY;-10.0;AZ;246.0;GX;-1.0;GY;0.0;GZ;-2.0;MAGX;17.0;MAGY;-111.0;MAGZ;77.0
MOT;0;1000.0;1;1000.0;2;1000.0;3;1000.0;4;0.0;5;0.0;6;0.0;7;0.0;
RC;ROLL;1495.0;PITCH;1516.0;YAW;1797.0;THROTTLE;1056.0;AUX1;1543.0;AUX2;1500.0;AUX3;1500.0;AUX4;1500.0
ALTITUDE;0.0
DEBUG;DEBUG10.0;DEBUG2;0.0;DEBUG3;0.0;DEBUG4;0.0
ATTITUDE;ANGX;16.0;ANGY;-4.0;HEAD;184.0
STATUS;CYCLETIME;2908;I2CERR;0;PRESENT;23;MODE;0
RAW_IMU;AX;78.0;AY;-9.0;AZ;247.0;GX;-1.0;GY;0.0;GZ;-2.0;MAGX;16.0;MAGY;-111.0;MAGZ;76.0
MOT;0;1000.0;1;1000.0;2;1000.0;3;1000.0;4;0.0;5;0.0;6;0.0;7;0.0;
RC;ROLL;1497.0;PITCH;1516.0;YAW;1857.0;THROTTLE;1056.0;AUX1;1543.0;AUX2;1500.0;AUX3;1500.0;AUX4;1500.0
ALTITUDE;0.0
DEBUG;DEBUG10.0;DEBUG2;0.0;DEBUG3;0.0;DEBUG4;0.0
ATTITUDE;ANGX;16.0;ANGY;-4.0;HEAD;184.0
STATUS;CYCLETIME;2964;I2CERR;0;PRESENT;23;MODE;0
RAW_IMU;AX;77.0;AY;-8.0;AZ;246.0;GX;0.0;GY;0.0;GZ;-1.0;MAGX;16.0;MAGY;-111.0;MAGZ;76.0
MOT;0;1000.0;1;1000.0;2;1000.0;3;1000.0;4;0.0;5;0.0;6;0.0;7;0.0;
RC;ROLL;1495.0;PITCH;1521.0;YAW;1910.0;THROTTLE;1056.0;AUX1;1543.0;AUX2;1500.0;AUX3;1500.0;AUX4;1500.0
ALTITUDE;0.0
DEBUG;DEBUG10.0;DEBUG2;0.0;DEBUG3;0.0;DEBUG4;0.0
ATTITUDE;ANGX;16.0;ANGY;-4.0;HEAD;184.0
STATUS;CYCLETIME;2992;I2CERR;0;PRESENT;23;MODE;0
RAW_IMU;AX;81.0;AY;-9.0;AZ;246.0;GX;0.0;GY;0.0;GZ;-2.0;MAGX;17.0;MAGY;-111.0;MAGZ;77.0
MOT;0;1000.0;1;1000.0;2;1000.0;3;1000.0;4;0.0;5;0.0;6;0.0;7;0.0;
RC;ROLL;1493.0;PITCH;1521.0;YAW;1914.0;THROTTLE;1056.0;AUX1;1543.0;AUX2;1500.0;AUX3;1500.0;AUX4;1500.0
ALTITUDE;0.0
DEBUG;DEBUG10.0;DEBUG2;0.0;DEBUG3;0.0;DEBUG4;0.0
ATTITUDE;ANGX;16.0;ANGY;-4.0;HEAD;184.0
STATUS;CYCLETIME;2916;I2CERR;0;PRESENT;23;MODE;0
RAW_IMU;AX;81.0;AY;-10.0;AZ;246.0;GX;-1.0;GY;0.0;GZ;-2.0;MAGX;17.0;MAGY;-111.0;MAGZ;77.0
MOT;0;1000.0;1;1000.0;2;1000.0;3;1000.0;4;0.0;5;0.0;6;0.0;7;0.0;
RC;ROLL;1493.0;PITCH;1521.0;YAW;1916.0;THROTTLE;1054.0;AUX1;1543.0;AUX2;1500.0;AUX3;1500.0;AUX4;1500.0
ALTITUDE;0.0
DEBUG;DEBUG10.0;DEBUG2;0.0;DEBUG3;0.0;DEBUG4;0.0
ATTITUDE;ANGX;16.0;ANGY;-4.0;HEAD;184.0
STATUS;CYCLETIME;2908;I2CERR;0;PRESENT;23;MODE;0
RAW_IMU;AX;80.0;AY;-12.0;AZ;246.0;GX;0.0;GY;0.0;GZ;-1.0;MAGX;16.0;MAGY;-111.0;MAGZ;77.0
MOT;0;1000.0;1;1000.0;2;1000.0;3;1000.0;4;0.0;5;0.0;6;0.0;7;0.0;
RC;ROLL;1495.0;PITCH;1519.0;YAW;1918.0;THROTTLE;1054.0;AUX1;1543.0;AUX2;1500.0;AUX3;1500.0;AUX4;1500.0
ALTITUDE;0.0
DEBUG;DEBUG10.0;DEBUG2;0.0;DEBUG3;0.0;DEBUG4;0.0
ATTITUDE;ANGX;16.0;ANGY;-4.0;HEAD;184.0
STATUS;CYCLETIME;2944;I2CERR;0;PRESENT;23;MODE;0
RAW_IMU;AX;79.0;AY;-9.0;AZ;244.0;GX;0.0;GY;0.0;GZ;-1.0;MAGX;16.0;MAGY;-111.0;MAGZ;77.0
MOT;0;1000.0;1;1000.0;2;1000.0;3;1000.0;4;0.0;5;0.0;6;0.0;7;0.0;
RC;ROLL;1495.0;PITCH;1519.0;YAW;1918.0;THROTTLE;1054.0;AUX1;1543.0;AUX2;1500.0;AUX3;1500.0;AUX4;1500.0
ALTITUDE;0.0
DEBUG;DEBUG10.0;DEBUG2;0.0;DEBUG3;0.0;DEBUG4;0.0
ATTITUDE;ANGX;16.0;ANGY;-4.0;HEAD;184.0
STATUS;CYCLETIME;2888;I2CERR;0;PRESENT;23;MODE;0
RAW_IMU;AX;80.0;AY;-9.0;AZ;244.0;GX;0.0;GY;0.0;GZ;-1.0;MAGX;17.0;MAGY;-112.0;MAGZ;77.0
MOT;0;1000.0;1;1000.0;2;1000.0;3;1000.0;4;0.0;5;0.0;6;0.0;7;0.0;
RC;ROLL;1495.0;PITCH;1519.0;YAW;1918.0;THROTTLE;1054.0;AUX1;1543.0;AUX2;1500.0;AUX3;1500.0;AUX4;1500.0
ALTITUDE;0.0
DEBUG;DEBUG10.0;DEBUG2;0.0;DEBUG3;0.0;DEBUG4;0.0
ATTITUDE;ANGX;16.0;ANGY;-4.0;HEAD;184.0
STATUS;CYCLETIME;3008;I2CERR;0;PRESENT;23;MODE;0
RAW_IMU;AX;79.0;AY;-13.0;AZ;246.0;GX;0.0;GY;0.0;GZ;-2.0;MAGX;17.0;MAGY;-112.0;MAGZ;77.0
MOT;0;1000.0;1;1000.0;2;1000.0;3;1000.0;4;0.0;5;0.0;6;0.0;7;0.0;
RC;ROLL;1495.0;PITCH;1519.0;YAW;1918.0;THROTTLE;1054.0;AUX1;1543.0;AUX2;1500.0;AUX3;1500.0;AUX4;1500.0
ALTITUDE;0.0
DEBUG;DEBUG10.0;DEBUG2;0.0;DEBUG3;0.0;DEBUG4;0.0
ATTITUDE;ANGX;16.0;ANGY;-4.0;HEAD;184.0
STATUS;CYCLETIME;2900;I2CERR;0;PRESENT;23;MODE;0
RAW_IMU;AX;79.0;AY;-13.0;AZ;243.0;GX;0.0;GY;0.0;GZ;-2.0;MAGX;17.0;MAGY;-112.0;MAGZ;77.0
MOT;0;1000.0;1;1000.0;2;1000.0;3;1000.0;4;0.0;5;0.0;6;0.0;7;0.0;
RC;ROLL;1495.0;PITCH;1519.0;YAW;1918.0;THROTTLE;1054.0;AUX1;1543.0;AUX2;1500.0;AUX3;1500.0;AUX4;1500.0
ALTITUDE;0.0
DEBUG;DEBUG10.0;DEBUG2;0.0;DEBUG3;0.0;DEBUG4;0.0
ATTITUDE;ANGX;16.0;ANGY;-4.0;HEAD;184.0
STATUS;CYCLETIME;2936;I2CERR;0;PRESENT;23;MODE;0
RAW_IMU;AX;78.0;AY;-11.0;AZ;245.0;GX;0.0;GY;0.0;GZ;-2.0;MAGX;17.0;MAGY;-111.0;MAGZ;77.0
MOT;0;1000.0;1;1000.0;2;1000.0;3;1000.0;4;0.0;5;0.0;6;0.0;7;0.0;
RC;ROLL;1495.0;PITCH;1519.0;YAW;1918.0;THROTTLE;1054.0;AUX1;1543.0;AUX2;1500.0;AUX3;1500.0;AUX4;1500.0
ALTITUDE;0.0
DEBUG;DEBUG10.0;DEBUG2;0.0;DEBUG3;0.0;DEBUG4;0.0
ATTITUDE;ANGX;16.0;ANGY;-4.0;HEAD;184.0
STATUS;CYCLETIME;2932;I2CERR;0;PRESENT;23;MODE;1
RAW_IMU;AX;77.0;AY;-10.0;AZ;247.0;GX;0.0;GY;0.0;GZ;-2.0;MAGX;17.0;MAGY;-111.0;MAGZ;77.0
MOT;0;1150.0;1;1150.0;2;1150.0;3;1150.0;4;0.0;5;0.0;6;0.0;7;0.0;
RC;ROLL;1495.0;PITCH;1519.0;YAW;1918.0;THROTTLE;1054.0;AUX1;1543.0;AUX2;1500.0;AUX3;1500.0;AUX4;1500.0
ALTITUDE;0.0
DEBUG;DEBUG10.0;DEBUG2;0.0;DEBUG3;0.0;DEBUG4;0.0
ATTITUDE;ANGX;16.0;ANGY;-4.0;HEAD;184.0
STATUS;CYCLETIME;2896;I2CERR;0;PRESENT;23;MODE;1
RAW_IMU;AX;79.0;AY;-12.0;AZ;245.0;GX;-1.0;GY;0.0;GZ;-2.0;MAGX;17.0;MAGY;-111.0;MAGZ;77.0
MOT;0;1150.0;1;1150.0;2;1150.0;3;1150.0;4;0.0;5;0.0;6;0.0;7;0.0;
RC;ROLL;1495.0;PITCH;1519.0;YAW;1918.0;THROTTLE;1052.0;AUX1;1543.0;AUX2;1500.0;AUX3;1500.0;AUX4;1500.0
ALTITUDE;0.0
DEBUG;DEBUG10.0;DEBUG2;0.0;DEBUG3;0.0;DEBUG4;0.0
ATTITUDE;ANGX;16.0;ANGY;-4.0;HEAD;184.0
STATUS;CYCLETIME;2892;I2CERR;0;PRESENT;23;MODE;1
RAW_IMU;AX;79.0;AY;-13.0;AZ;244.0;GX;-1.0;GY;0.0;GZ;-2.0;MAGX;17.0;MAGY;-111.0;MAGZ;77.0
MOT;0;1150.0;1;1150.0;2;1150.0;3;1150.0;4;0.0;5;0.0;6;0.0;7;0.0;
RC;ROLL;1495.0;PITCH;1519.0;YAW;1921.0;THROTTLE;1052.0;AUX1;1543.0;AUX2;1500.0;AUX3;1500.0;AUX4;1500.0
ALTITUDE;0.0
DEBUG;DEBUG10.0;DEBUG2;0.0;DEBUG3;0.0;DEBUG4;0.0
ATTITUDE;ANGX;16.0;ANGY;-4.0;HEAD;184.0
STATUS;CYCLETIME;2904;I2CERR;0;PRESENT;23;MODE;1
RAW_IMU;AX;80.0;AY;-13.0;AZ;243.0;GX;0.0;GY;0.0;GZ;-2.0;MAGX;16.0;MAGY;-112.0;MAGZ;77.0
MOT;0;1150.0;1;1150.0;2;1150.0;3;1150.0;4;0.0;5;0.0;6;0.0;7;0.0;
RC;ROLL;1495.0;PITCH;1519.0;YAW;1921.0;THROTTLE;1052.0;AUX1;1541.0;AUX2;1500.0;AUX3;1500.0;AUX4;1500.0
ALTITUDE;0.0
DEBUG;DEBUG10.0;DEBUG2;0.0;DEBUG3;0.0;DEBUG4;0.0
ATTITUDE;ANGX;16.0;ANGY;-4.0;HEAD;184.0
STATUS;CYCLETIME;2900;I2CERR;0;PRESENT;23;MODE;1
RAW_IMU;AX;79.0;AY;-11.0;AZ;244.0;GX;0.0;GY;0.0;GZ;-1.0;MAGX;16.0;MAGY;-112.0;MAGZ;77.0
MOT;0;1150.0;1;1150.0;2;1150.0;3;1150.0;4;0.0;5;0.0;6;0.0;7;0.0;
RC;ROLL;1495.0;PITCH;1519.0;YAW;1921.0;THROTTLE;1052.0;AUX1;1541.0;AUX2;1500.0;AUX3;1500.0;AUX4;1500.0
ALTITUDE;0.0
DEBUG;DEBUG10.0;DEBUG2;0.0;DEBUG3;0.0;DEBUG4;0.0
ATTITUDE;ANGX;16.0;ANGY;-4.0;HEAD;184.0
STATUS;CYCLETIME;2960;I2CERR;0;PRESENT;23;MODE;1
RAW_IMU;AX;78.0;AY;-12.0;AZ;246.0;GX;0.0;GY;0.0;GZ;-1.0;MAGX;17.0;MAGY;-111.0;MAGZ;77.0
MOT;0;1150.0;1;1150.0;2;1150.0;3;1150.0;4;0.0;5;0.0;6;0.0;7;0.0;
RC;ROLL;1495.0;PITCH;1517.0;YAW;1921.0;THROTTLE;1052.0;AUX1;1541.0;AUX2;1500.0;AUX3;1500.0;AUX4;1500.0
ALTITUDE;0.0
DEBUG;DEBUG10.0;DEBUG2;0.0;DEBUG3;0.0;DEBUG4;0.0
ATTITUDE;ANGX;16.0;ANGY;-4.0;HEAD;184.0
STATUS;CYCLETIME;2896;I2CERR;0;PRESENT;23;MODE;1
RAW_IMU;AX;79.0;AY;-12.0;AZ;245.0;GX;0.0;GY;0.0;GZ;-1.0;MAGX;17.0;MAGY;-111.0;MAGZ;77.0
MOT;0;1150.0;1;1150.0;2;1150.0;3;1150.0;4;0.0;5;0.0;6;0.0;7;0.0;
RC;ROLL;1495.0;PITCH;1517.0;YAW;1921.0;THROTTLE;1052.0;AUX1;1541.0;AUX2;1500.0;AUX3;1500.0;AUX4;1500.0
ALTITUDE;0.0
DEBUG;DEBUG10.0;DEBUG2;0.0;DEBUG3;0.0;DEBUG4;0.0
ATTITUDE;ANGX;16.0;ANGY;-4.0;HEAD;184.0
STATUS;CYCLETIME;2868;I2CERR;0;PRESENT;23;MODE;1
RAW_IMU;AX;79.0;AY;-12.0;AZ;246.0;GX;0.0;GY;0.0;GZ;-1.0;MAGX;17.0;MAGY;-111.0;MAGZ;78.0
MOT;0;1150.0;1;1150.0;2;1150.0;3;1150.0;4;0.0;5;0.0;6;0.0;7;0.0;
RC;ROLL;1495.0;PITCH;1517.0;YAW;1921.0;THROTTLE;1052.0;AUX1;1541.0;AUX2;1500.0;AUX3;1500.0;AUX4;1500.0
ALTITUDE;0.0
DEBUG;DEBUG10.0;DEBUG2;0.0;DEBUG3;0.0;DEBUG4;0.0
ATTITUDE;ANGX;16.0;ANGY;-4.0;HEAD;184.0
STATUS;CYCLETIME;2904;I2CERR;0;PRESENT;23;MODE;1
RAW_IMU;AX;79.0;AY;-13.0;AZ;245.0;GX;0.0;GY;0.0;GZ;-1.0;MAGX;17.0;MAGY;-111.0;MAGZ;78.0
MOT;0;1150.0;1;1150.0;2;1150.0;3;1150.0;4;0.0;5;0.0;6;0.0;7;0.0;
RC;ROLL;1495.0;PITCH;1517.0;YAW;1921.0;THROTTLE;1054.0;AUX1;1541.0;AUX2;1500.0;AUX3;1500.0;AUX4;1500.0
ALTITUDE;0.0
DEBUG;DEBUG10.0;DEBUG2;0.0;DEBUG3;0.0;DEBUG4;0.0
ATTITUDE;ANGX;16.0;ANGY;-4.0;HEAD;184.0
STATUS;CYCLETIME;2936;I2CERR;0;PRESENT;23;MODE;1
RAW_IMU;AX;78.0;AY;-12.0;AZ;245.0;GX;0.0;GY;0.0;GZ;-2.0;MAGX;17.0;MAGY;-111.0;MAGZ;78.0
MOT;0;1150.0;1;1150.0;2;1150.0;3;1150.0;4;0.0;5;0.0;6;0.0;7;0.0;
RC;ROLL;1495.0;PITCH;1517.0;YAW;1919.0;THROTTLE;1054.0;AUX1;1541.0;AUX2;1500.0;AUX3;1500.0;AUX4;1500.0
ALTITUDE;0.0
DEBUG;DEBUG10.0;DEBUG2;0.0;DEBUG3;0.0;DEBUG4;0.0
ATTITUDE;ANGX;16.0;ANGY;-4.0;HEAD;184.0
STATUS;CYCLETIME;2908;I2CERR;0;PRESENT;23;MODE;1
RAW_IMU;AX;80.0;AY;-11.0;AZ;246.0;GX;0.0;GY;0.0;GZ;-1.0;MAGX;17.0;MAGY;-112.0;MAGZ;77.0
MOT;0;1150.0;1;1150.0;2;1150.0;3;1150.0;4;0.0;5;0.0;6;0.0;7;0.0;
RC;ROLL;1495.0;PITCH;1517.0;YAW;1897.0;THROTTLE;1054.0;AUX1;1541.0;AUX2;1500.0;AUX3;1500.0;AUX4;1500.0
ALTITUDE;0.0
DEBUG;DEBUG10.0;DEBUG2;0.0;DEBUG3;0.0;DEBUG4;0.0
ATTITUDE;ANGX;16.0;ANGY;-4.0;HEAD;184.0
STATUS;CYCLETIME;2888;I2CERR;0;PRESENT;23;MODE;1
RAW_IMU;AX;79.0;AY;-8.0;AZ;246.0;GX;0.0;GY;0.0;GZ;-1.0;MAGX;17.0;MAGY;-112.0;MAGZ;77.0
MOT;0;1150.0;1;1150.0;2;1150.0;3;1150.0;4;0.0;5;0.0;6;0.0;7;0.0;
RC;ROLL;1495.0;PITCH;1517.0;YAW;1850.0;THROTTLE;1054.0;AUX1;1541.0;AUX2;1500.0;AUX3;1500.0;AUX4;1500.0
ALTITUDE;0.0
DEBUG;DEBUG10.0;DEBUG2;0.0;DEBUG3;0.0;DEBUG4;0.0
ATTITUDE;ANGX;16.0;ANGY;-4.0;HEAD;184.0
STATUS;CYCLETIME;2900;I2CERR;0;PRESENT;23;MODE;1
RAW_IMU;AX;80.0;AY;-11.0;AZ;245.0;GX;0.0;GY;0.0;GZ;-1.0;MAGX;17.0;MAGY;-112.0;MAGZ;77.0
MOT;0;1150.0;1;1150.0;2;1150.0;3;1150.0;4;0.0;5;0.0;6;0.0;7;0.0;
RC;ROLL;1495.0;PITCH;1517.0;YAW;1758.0;THROTTLE;1054.0;AUX1;1541.0;AUX2;1500.0;AUX3;1500.0;AUX4;1500.0
ALTITUDE;0.0
DEBUG;DEBUG10.0;DEBUG2;0.0;DEBUG3;0.0;DEBUG4;0.0
ATTITUDE;ANGX;16.0;ANGY;-4.0;HEAD;184.0
STATUS;CYCLETIME;2996;I2CERR;0;PRESENT;23;MODE;1
RAW_IMU;AX;80.0;AY;-11.0;AZ;244.0;GX;0.0;GY;0.0;GZ;-1.0;MAGX;17.0;MAGY;-112.0;MAGZ;77.0
MOT;0;1150.0;1;1150.0;2;1150.0;3;1150.0;4;0.0;5;0.0;6;0.0;7;0.0;
RC;ROLL;1495.0;PITCH;1517.0;YAW;1652.0;THROTTLE;1054.0;AUX1;1541.0;AUX2;1500.0;AUX3;1500.0;AUX4;1500.0
ALTITUDE;0.0
DEBUG;DEBUG10.0;DEBUG2;0.0;DEBUG3;0.0;DEBUG4;0.0
ATTITUDE;ANGX;16.0;ANGY;-4.0;HEAD;184.0
STATUS;CYCLETIME;2952;I2CERR;0;PRESENT;23;MODE;1
