IDENT;V;220;TYPE;3
MSP_MOTOR_PINS
STATUS;CYCLETIME;2856;I2CERR;0;PRESENT;23;MODE;0
RAW_IMU;AX;3.0;AY;3.0;AZ;254.0;GX;0.0;GY;0.0;GZ;0.0;MAGX;93.0;MAGY;-73.0;MAGZ;0.0
MOT;0;1000.0;1;1000.0;2;1000.0;3;1000.0;4;0.0;5;0.0;6;0.0;7;0.0;
RC;ROLL;1500.0;PITCH;1507.0;YAW;1514.0;THROTTLE;1056.0;AUX1;1680.0;AUX2;1500.0;AUX3;1500.0;AUX4;1500.0
ALTITUDE;0.0
DEBUG;DEBUG10.0;DEBUG2;0.0;DEBUG3;0.0;DEBUG4;0.0
ATTITUDE;ANGX;0.0;ANGY;0.0;HEAD;-117.0
STATUS;CYCLETIME;2972;I2CERR;0;PRESENT;23;MODE;0
RAW_IMU;AX;0.0;AY;2.0;AZ;257.0;GX;0.0;GY;0.0;GZ;0.0;MAGX;93.0;MAGY;-72.0;MAGZ;1.0
MOT;0;1000.0;1;1000.0;2;1000.0;3;1000.0;4;0.0;5;0.0;6;0.0;7;0.0;
RC;ROLL;1500.0;PITCH;1507.0;YAW;1507.0;THROTTLE;1058.0;AUX1;1685.0;AUX2;1500.0;AUX3;1500.0;AUX4;1500.0
ALTITUDE;0.0
DEBUG;DEBUG10.0;DEBUG2;0.0;DEBUG3;0.0;DEBUG4;0.0
ATTITUDE;ANGX;0.0;ANGY;0.0;HEAD;-117.0
STATUS;CYCLETIME;2880;I2CERR;0;PRESENT;23;MODE;0
RAW_IMU;AX;3.0;AY;1.0;AZ;256.0;GX;0.0;GY;0.0;GZ;0.0;MAGX;93.0;MAGY;-72.0;MAGZ;1.0
MOT;0;1000.0;1;1000.0;2;1000.0;3;1000.0;4;0.0;5;0.0;6;0.0;7;0.0;
RC;ROLL;1495.0;PITCH;1507.0;YAW;1511.0;THROTTLE;1061.0;AUX1;1680.0;AUX2;1500.0;AUX3;1500.0;AUX4;1500.0
ALTITUDE;0.0
DEBUG;DEBUG10.0;DEBUG2;0.0;DEBUG3;0.0;DEBUG4;0.0
ATTITUDE;ANGX;0.0;ANGY;0.0;HEAD;-117.0
STATUS;CYCLETIME;2852;I2CERR;0;PRESENT;23;MODE;0
RAW_IMU;AX;3.0;AY;2.0;AZ;257.0;GX;0.0;GY;0.0;GZ;0.0;MAGX;94.0;MAGY;-73.0;MAGZ;0.0
MOT;0;1000.0;1;1000.0;2;1000.0;3;1000.0;4;0.0;5;0.0;6;0.0;7;0.0;
RC;ROLL;1490.0;PITCH;1510.0;YAW;1518.0;THROTTLE;1061.0;AUX1;1678.0;AUX2;1500.0;AUX3;1500.0;AUX4;1500.0
ALTITUDE;0.0
DEBUG;DEBUG10.0;DEBUG2;0.0;DEBUG3;0.0;DEBUG4;0.0
ATTITUDE;ANGX;0.0;ANGY;0.0;HEAD;-117.0
STATUS;CYCLETIME;3016;I2CERR;0;PRESENT;23;MODE;0
RAW_IMU;AX;5.0;AY;1.0;AZ;257.0;GX;0.0;GY;0.0;GZ;0.0;MAGX;94.0;MAGY;-73.0;MAGZ;0.0
MOT;0;1000.0;1;1000.0;2;1000.0;3;1000.0;4;0.0;5;0.0;6;0.0;7;0.0;
RC;ROLL;1490.0;PITCH;1504.0;YAW;1509.0;THROTTLE;1067.0;AUX1;1678.0;AUX2;1500.0;AUX3;1500.0;AUX4;1500.0
ALTITUDE;0.0
DEBUG;DEBUG10.0;DEBUG2;0.0;DEBUG3;0.0;DEBUG4;0.0
ATTITUDE;ANGX;0.0;ANGY;0.0;HEAD;-117.0
STATUS;CYCLETIME;2896;I2CERR;0;PRESENT;23;MODE;0
RAW_IMU;AX;6.0;AY;2.0;AZ;259.0;GX;0.0;GY;0.0;GZ;0.0;MAGX;93.0;MAGY;-73.0;MAGZ;1.0
MOT;0;1000.0;1;1000.0;2;1000.0;3;1000.0;4;0.0;5;0.0;6;0.0;7;0.0;
RC;ROLL;1493.0;PITCH;1500.0;YAW;1505.0;THROTTLE;1070.0;AUX1;1678.0;AUX2;1500.0;AUX3;1500.0;AUX4;1500.0
ALTITUDE;0.0
DEBUG;DEBUG10.0;DEBUG2;0.0;DEBUG3;0.0;DEBUG4;0.0
ATTITUDE;ANGX;0.0;ANGY;0.0;HEAD;-117.0
STATUS;CYCLETIME;2912;I2CERR;0;PRESENT;23;MODE;0
RAW_IMU;AX;3.0;AY;3.0;AZ;257.0;GX;0.0;GY;0.0;GZ;0.0;MAGX;93.0;MAGY;-73.0;MAGZ;1.0
MOT;0;1000.0;1;1000.0;2;1000.0;3;1000.0;4;0.0;5;0.0;6;0.0;7;0.0;
RC;ROLL;1493.0;PITCH;1505.0;YAW;1505.0;THROTTLE;1068.0;AUX1;1682.0;AUX2;1500.0;AUX3;1500.0;AUX4;1500.0
ALTITUDE;0.0
DEBUG;DEBUG10.0;DEBUG2;0.0;DEBUG3;0.0;DEBUG4;0.0
ATTITUDE;ANGX;0.0;ANGY;0.0;HEAD;-117.0
STATUS;CYCLETIME;2952;I2CERR;0;PRESENT;23;MODE;0
RAW_IMU;AX;3.0;AY;1.0;AZ;257.0;GX;0.0;GY;0.0;GZ;0.0;MAGX;93.0;MAGY;-73.0;MAGZ;1.0
MOT;0;1000.0;1;1000.0;2;1000.0;3;1000.0;4;0.0;5;0.0;6;0.0;7;0.0;
RC;ROLL;1493.0;PITCH;1505.0;YAW;1511.0;THROTTLE;1061.0;AUX1;1682.0;AUX2;1500.0;AUX3;1500.0;AUX4;1500.0
ALTITUDE;0.0
DEBUG;DEBUG10.0;DEBUG2;0.0;DEBUG3;0.0;DEBUG4;0.0
ATTITUDE;ANGX;0.0;ANGY;0.0;HEAD;-117.0
STATUS;CYCLETIME;2892;I2CERR;0;PRESENT;23;MODE;0
RAW_IMU;AX;2.0;AY;-1.0;AZ;259.0;GX;0.0;GY;0.0;GZ;0.0;MAGX;94.0;MAGY;-73.0;MAGZ;0.0
MOT;0;1000.0;1;1000.0;2;1000.0;3;1000.0;4;0.0;5;0.0;6;0.0;7;0.0;
RC;ROLL;1493.0;PITCH;1505.0;YAW;1511.0;THROTTLE;1059.0;AUX1;1687.0;AUX2;1500.0;AUX3;1500.0;AUX4;1500.0
ALTITUDE;0.0
DEBUG;DEBUG10.0;DEBUG2;0.0;DEBUG3;0.0;DEBUG4;0.0
ATTITUDE;ANGX;0.0;ANGY;0.0;HEAD;-117.0
STATUS;CYCLETIME;2960;I2CERR;0;PRESENT;23;MODE;0
RAW_IMU;AX;1.0;AY;1.0;AZ;258.0;GX;0.0;GY;0.0;GZ;0.0;MAGX;94.0;MAGY;-73.0;MAGZ;0.0
MOT;0;1000.0;1;1000.0;2;1000.0;3;1000.0;4;0.0;5;0.0;6;0.0;7;0.0;
RC;ROLL;1491.0;PITCH;1505.0;YAW;1516.0;THROTTLE;1059.0;AUX1;1681.0;AUX2;1500.0;AUX3;1500.0;AUX4;1500.0
ALTITUDE;0.0
DEBUG;DEBUG10.0;DEBUG2;0.0;DEBUG3;0.0;DEBUG4;0.0
ATTITUDE;ANGX;0.0;ANGY;0.0;HEAD;-117.0
STATUS;CYCLETIME;2848;I2CERR;0;PRESENT;23;MODE;0
RAW_IMU;AX;1.0;AY;3.0;AZ;258.0;GX;0.0;GY;0.0;GZ;0.0;MAGX;93.0;MAGY;-74.0;MAGZ;1.0
MOT;0;1000.0;1;1000.0;2;1000.0;3;1000.0;4;0.0;5;0.0;6;0.0;7;0.0;
RC;ROLL;1491.0;PITCH;1505.0;YAW;1516.0;THROTTLE;1059.0;AUX1;1681.0;AUX2;1500.0;AUX3;1500.0;AUX4;1500.0
ALTITUDE;0.0
DEBUG;DEBUG10.0;DEBUG2;0.0;DEBUG3;0.0;DEBUG4;0.0
ATTITUDE;ANGX;0.0;ANGY;0.0;HEAD;-117.0
STATUS;CYCLETIME;2908;I2CERR;0;PRESENT;23;MODE;0
RAW_IMU;AX;3.0;AY;2.0;AZ;255.0;GX;0.0;GY;0.0;GZ;0.0;MAGX;93.0;MAGY;-74.0;MAGZ;1.0
MOT;0;1000.0;1;1000.0;2;1000.0;3;1000.0;4;0.0;5;0.0;6;0.0;7;0.0;
RC;ROLL;1495.0;PITCH;1505.0;YAW;1514.0;THROTTLE;1059.0;AUX1;1684.0;AUX2;1500.0;AUX3;1500.0;AUX4;1500.0
ALTITUDE;0.0
DEBUG;DEBUG10.0;DEBUG2;0.0;DEBUG3;0.0;DEBUG4;0.0
ATTITUDE;ANGX;0.0;ANGY;0.0;HEAD;-117.0
STATUS;CYCLETIME;2940;I2CERR;0;PRESENT;23;MODE;0
RAW_IMU;AX;2.0;AY;-1.0;AZ;257.0;GX;0.0;GY;0.0;GZ;0.0;MAGX;92.0;MAGY;-73.0;MAGZ;0.0
MOT;0;1000.0;1;1000.0;2;1000.0;3;1000.0;4;0.0;5;0.0;6;0.0;7;0.0;
RC;ROLL;1495.0;PITCH;1505.0;YAW;1510.0;THROTTLE;1059.0;AUX1;1684.0;AUX2;1500.0;AUX3;1500.0;AUX4;1500.0
ALTITUDE;0.0
DEBUG;DEBUG10.0;DEBUG2;0.0;DEBUG3;0.0;DEBUG4;0.0
ATTITUDE;ANGX;0.0;ANGY;0.0;HEAD;-117.0
STATUS;CYCLETIME;2916;I2CERR;0;PRESENT;23;MODE;0
RAW_IMU;AX;3.0;AY;3.0;AZ;256.0;GX;0.0;GY;0.0;GZ;0.0;MAGX;92.0;MAGY;-73.0;MAGZ;0.0
MOT;0;1000.0;1;1000.0;2;1000.0;3;1000.0;4;0.0;5;0.0;6;0.0;7;0.0;
RC;ROLL;1495.0;PITCH;1505.0;YAW;1508.0;THROTTLE;1059.0;AUX1;1684.0;AUX2;1500.0;AUX3;1500.0;AUX4;1500.0
ALTITUDE;0.0
DEBUG;DEBUG10.0;DEBUG2;0.0;DEBUG3;0.0;DEBUG4;0.0
ATTITUDE;ANGX;0.0;ANGY;0.0;HEAD;-117.0
STATUS;CYCLETIME;2928;I2CERR;0;PRESENT;23;MODE;0
RAW_IMU;AX;3.0;AY;2.0;AZ;255.0;GX;0.0;GY;0.0;GZ;0.0;MAGX;93.0;MAGY;-73.0;MAGZ;1.0
MOT;0;1000.0;1;1000.0;2;1000.0;3;1000.0;4;0.0;5;0.0;6;0.0;7;0.0;
RC;ROLL;1495.0;PITCH;1505.0;YAW;1510.0;THROTTLE;1059.0;AUX1;1680.0;AUX2;1500.0;AUX3;1500.0;AUX4;1500.0
ALTITUDE;0.0
DEBUG;DEBUG10.0;DEBUG2;0.0;DEBUG3;0.0;DEBUG4;0.0
ATTITUDE;ANGX;0.0;ANGY;0.0;HEAD;-117.0
STATUS;CYCLETIME;2860;I2CERR;0;PRESENT;23;MODE;0
RAW_IMU;AX;2.0;AY;2.0;AZ;256.0;GX;0.0;GY;0.0;GZ;0.0;MAGX;93.0;MAGY;-73.0;MAGZ;1.0
MOT;0;1000.0;1;1000.0;2;1000.0;3;1000.0;4;0.0;5;0.0;6;0.0;7;0.0;
RC;ROLL;1495.0;PITCH;1505.0;YAW;1510.0;THROTTLE;1059.0;AUX1;1680.0;AUX2;1500.0;AUX3;1500.0;AUX4;1500.0
ALTITUDE;0.0
DEBUG;DEBUG10.0;DEBUG2;0.0;DEBUG3;0.0;DEBUG4;0.0
ATTITUDE;ANGX;0.0;ANGY;0.0;HEAD;-117.0
STATUS;CYCLETIME;2872;I2CERR;0;PRESENT;23;MODE;0
RAW_IMU;AX;1.0;AY;2.0;AZ;257.0;GX;0.0;GY;0.0;GZ;0.0;MAGX;94.0;MAGY;-73.0;MAGZ;0.0
MOT;0;1000.0;1;1000.0;2;1000.0;3;1000.0;4;0.0;5;0.0;6;0.0;7;0.0;
RC;ROLL;1493.0;PITCH;1503.0;YAW;1510.0;THROTTLE;1064.0;AUX1;1679.0;AUX2;1500.0;AUX3;1500.0;AUX4;1500.0
ALTITUDE;0.0
DEBUG;DEBUG10.0;DEBUG2;0.0;DEBUG3;0.0;DEBUG4;0.0
ATTITUDE;ANGX;0.0;ANGY;0.0;HEAD;-117.0
STATUS;CYCLETIME;2880;I2CERR;0;PRESENT;23;MODE;0
RAW_IMU;AX;1.0;AY;1.0;AZ;257.0;GX;0.0;GY;0.0;GZ;0.0;MAGX;94.0;MAGY;-73.0;MAGZ;0.0
MOT;0;1000.0;1;1000.0;2;1000.0;3;1000.0;4;0.0;5;0.0;6;0.0;7;0.0;
RC;ROLL;1495.0;PITCH;1507.0;YAW;1512.0;THROTTLE;1058.0;AUX1;1681.0;AUX2;1500.0;AUX3;1500.0;AUX4;1500.0
ALTITUDE;0.0
DEBUG;DEBUG10.0;DEBUG2;0.0;DEBUG3;0.0;DEBUG4;0.0
ATTITUDE;ANGX;0.0;ANGY;0.0;HEAD;-117.0
STATUS;CYCLETIME;2992;I2CERR;0;PRESENT;23;MODE;0
RAW_IMU;AX;1.0;AY;1.0;AZ;258.0;GX;0.0;GY;0.0;GZ;0.0;MAGX;93.0;MAGY;-73.0;MAGZ;1.0
MOT;0;1000.0;1;1000.0;2;1000.0;3;1000.0;4;0.0;5;0.0;6;0.0;7;0.0;
RC;ROLL;1495.0;PITCH;1507.0;YAW;1512.0;THROTTLE;1056.0;AUX1;1681.0;AUX2;1500.0;AUX3;1500.0;AUX4;1500.0
ALTITUDE;0.0
DEBUG;DEBUG10.0;DEBUG2;0.0;DEBUG3;0.0;DEBUG4;0.0
ATTITUDE;ANGX;0.0;ANGY;0.0;HEAD;-117.0
STATUS;CYCLETIME;2968;I2CERR;0;PRESENT;23;MODE;0
RAW_IMU;AX;1.0;AY;0.0;AZ;257.0;GX;0.0;GY;0.0;GZ;0.0;MAGX;93.0;MAGY;-73.0;MAGZ;1.0
MOT;0;1000.0;1;1000.0;2;1000.0;3;1000.0;4;0.0;5;0.0;6;0.0;7;0.0;
RC;ROLL;1495.0;PITCH;1507.0;YAW;1512.0;THROTTLE;1059.0;AUX1;1681.0;AUX2;1500.0;AUX3;1500.0;AUX4;1500.0
ALTITUDE;0.0
DEBUG;DEBUG10.0;DEBUG2;0.0;DEBUG3;0.0;DEBUG4;0.0
ATTITUDE;ANGX;0.0;ANGY;0.0;HEAD;-117.0
STATUS;CYCLETIME;2888;I2CERR;0;PRESENT;23;MODE;0
RAW_IMU;AX;3.0;AY;2.0;AZ;258.0;GX;0.0;GY;0.0;GZ;0.0;MAGX;92.0;MAGY;-73.0;MAGZ;0.0
MOT;0;1000.0;1;1000.0;2;1000.0;3;1000.0;4;0.0;5;0.0;6;0.0;7;0.0;
RC;ROLL;1495.0;PITCH;1507.0;YAW;1512.0;THROTTLE;1059.0;AUX1;1681.0;AUX2;1500.0;AUX3;1500.0;AUX4;1500.0
ALTITUDE;0.0
DEBUG;DEBUG10.0;DEBUG2;0.0;DEBUG3;0.0;DEBUG4;0.0
ATTITUDE;ANGX;0.0;ANGY;0.0;HEAD;-117.0
STATUS;CYCLETIME;3000;I2CERR;0;PRESENT;23;MODE;0
RAW_IMU;AX;3.0;AY;0.0;AZ;258.0;GX;0.0;GY;0.0;GZ;0.0;MAGX;92.0;MAGY;-73.0;MAGZ;0.0
MOT;0;1000.0;1;1000.0;2;1000.0;3;1000.0;4;0.0;5;0.0;6;0.0;7;0.0;
RC;ROLL;1495.0;PITCH;1509.0;YAW;1512.0;THROTTLE;1061.0;AUX1;1683.0;AUX2;1500.0;AUX3;1500.0;AUX4;1500.0
ALTITUDE;0.0
DEBUG;DEBUG10.0;DEBUG2;0.0;DEBUG3;0.0;DEBUG4;0.0
ATTITUDE;ANGX;0.0;ANGY;0.0;HEAD;-117.0
STATUS;CYCLETIME;2884;I2CERR;0;PRESENT;23;MODE;0
RAW_IMU;AX;1.0;AY;0.0;AZ;258.0;GX;0.0;GY;0.0;GZ;0.0;MAGX;92.0;MAGY;-73.0;MAGZ;0.0
MOT;0;1000.0;1;1000.0;2;1000.0;3;1000.0;4;0.0;5;0.0;6;0.0;7;0.0;
RC;ROLL;1498.0;PITCH;1505.0;YAW;1512.0;THROTTLE;1061.0;AUX1;1683.0;AUX2;1500.0;AUX3;1500.0;AUX4;1500.0
ALTITUDE;0.0
DEBUG;DEBUG10.0;DEBUG2;0.0;DEBUG3;0.0;DEBUG4;0.0
ATTITUDE;ANGX;0.0;ANGY;0.0;HEAD;-117.0
STATUS;CYCLETIME;2940;I2CERR;0;PRESENT;23;MODE;0
RAW_IMU;AX;2.0;AY;1.0;AZ;256.0;GX;0.0;GY;0.0;GZ;0.0;MAGX;94.0;MAGY;-73.0;MAGZ;0.0
MOT;0;1000.0;1;1000.0;2;1000.0;3;1000.0;4;0.0;5;0.0;6;0.0;7;0.0;
RC;ROLL;1498.0;PITCH;1503.0;YAW;1508.0;THROTTLE;1061.0;AUX1;1688.0;AUX2;1500.0;AUX3;1500.0;AUX4;1500.0
ALTITUDE;0.0
DEBUG;DEBUG10.0;DEBUG2;0.0;DEBUG3;0.0;DEBUG4;0.0
ATTITUDE;ANGX;0.0;ANGY;0.0;HEAD;-117.0
STATUS;CYCLETIME;2908;I2CERR;0;PRESENT;23;MODE;0
RAW_IMU;AX;3.0;AY;0.0;AZ;255.0;GX;0.0;GY;0.0;GZ;0.0;MAGX;94.0;MAGY;-73.0;MAGZ;0.0
MOT;0;1000.0;1;1000.0;2;1000.0;3;1000.0;4;0.0;5;0.0;6;0.0;7;0.0;
RC;ROLL;1498.0;PITCH;1503.0;YAW;1510.0;THROTTLE;1061.0;AUX1;1682.0;AUX2;1500.0;AUX3;1500.0;AUX4;1500.0
ALTITUDE;0.0
DEBUG;DEBUG10.0;DEBUG2;0.0;DEBUG3;0.0;DEBUG4;0.0
ATTITUDE;ANGX;0.0;ANGY;0.0;HEAD;-117.0
STATUS;CYCLETIME;2896;I2CERR;0;PRESENT;23;MODE;0
RAW_IMU;AX;3.0;AY;0.0;AZ;255.0;GX;0.0;GY;0.0;GZ;0.0;MAGX;93.0;MAGY;-72.0;MAGZ;0.0
MOT;0;1000.0;1;1000.0;2;1000.0;3;1000.0;4;0.0;5;0.0;6;0.0;7;0.0;
RC;ROLL;1490.0;PITCH;1503.0;YAW;1513.0;THROTTLE;1063.0;AUX1;1678.0;AUX2;1500.0;AUX3;1500.0;AUX4;1500.0
ALTITUDE;0.0
DEBUG;DEBUG10.0;DEBUG2;0.0;DEBUG3;0.0;DEBUG4;0.0
ATTITUDE;ANGX;0.0;ANGY;0.0;HEAD;-117.0
STATUS;CYCLETIME;2932;I2CERR;0;PRESENT;23;MODE;0
RAW_IMU;AX;2.0;AY;0.0;AZ;256.0;GX;0.0;GY;0.0;GZ;0.0;MAGX;93.0;MAGY;-72.0;MAGZ;0.0
MOT;0;1000.0;1;1000.0;2;1000.0;3;1000.0;4;0.0;5;0.0;6;0.0;7;0.0;
RC;ROLL;1490.0;PITCH;1505.0;YAW;1513.0;THROTTLE;1063.0;AUX1;1680.0;AUX2;1500.0;AUX3;1500.0;AUX4;1500.0
ALTITUDE;0.0
DEBUG;DEBUG10.0;DEBUG2;0.0;DEBUG3;0.0;DEBUG4;0.0
ATTITUDE;ANGX;0.0;ANGY;0.0;HEAD;-117.0
STATUS;CYCLETIME;2892;I2CERR;0;PRESENT;23;MODE;0
RAW_IMU;AX;3.0;AY;-1.0;AZ;255.0;GX;0.0;GY;0.0;GZ;0.0;MAGX;92.0;MAGY;-72.0;MAGZ;1.0
MOT;0;1000.0;1;1000.0;2;1000.0;3;1000.0;4;0.0;5;0.0;6;0.0;7;0.0;
RC;ROLL;1496.0;PITCH;1505.0;YAW;1513.0;THROTTLE;1063.0;AUX1;1684.0;AUX2;1500.0;AUX3;1500.0;AUX4;1500.0
ALTITUDE;0.0
DEBUG;DEBUG10.0;DEBUG2;0.0;DEBUG3;0.0;DEBUG4;0.0
ATTITUDE;ANGX;0.0;ANGY;0.0;HEAD;-117.0
STATUS;CYCLETIME;2856;I2CERR;0;PRESENT;23;MODE;0
RAW_IMU;AX;4.0;AY;1.0;AZ;256.0;GX;0.0;GY;0.0;GZ;0.0;MAGX;92.0;MAGY;-72.0;MAGZ;1.0
MOT;0;1000.0;1;1000.0;2;1000.0;3;1000.0;4;0.0;5;0.0;6;0.0;7;0.0;
RC;ROLL;1498.0;PITCH;1505.0;YAW;1513.0;THROTTLE;1061.0;AUX1;1681.0;AUX2;1500.0;AUX3;1500.0;AUX4;1500.0
ALTITUDE;0.0
DEBUG;DEBUG10.0;DEBUG2;0.0;DEBUG3;0.0;DEBUG4;0.0
ATTITUDE;ANGX;0.0;ANGY;0.0;HEAD;-117.0
STATUS;CYCLETIME;2852;I2CERR;0;PRESENT;23;MODE;0
RAW_IMU;AX;3.0;AY;1.0;AZ;254.0;GX;0.0;GY;0.0;GZ;0.0;MAGX;93.0;MAGY;-73.0;MAGZ;0.0
MOT;0;1000.0;1;1000.0;2;1000.0;3;1000.0;4;0.0;5;0.0;6;0.0;7;0.0;
RC;ROLL;1498.0;PITCH;1505.0;YAW;1513.0;THROTTLE;1061.0;AUX1;1681.0;AUX2;1500.0;AUX3;1500.0;AUX4;1500.0
ALTITUDE;0.0
DEBUG;DEBUG10.0;DEBUG2;0.0;DEBUG3;0.0;DEBUG4;0.0
ATTITUDE;ANGX;0.0;ANGY;0.0;HEAD;-117.0
STATUS;CYCLETIME;3012;I2CERR;0;PRESENT;23;MODE;0
RAW_IMU;AX;3.0;AY;-1.0;AZ;255.0;GX;0.0;GY;0.0;GZ;0.0;MAGX;93.0;MAGY;-73.0;MAGZ;0.0
MOT;0;1000.0;1;1000.0;2;1000.0;3;1000.0;4;0.0;5;0.0;6;0.0;7;0.0;
RC;ROLL;1494.0;PITCH;1505.0;YAW;1508.0;THROTTLE;1061.0;AUX1;1681.0;AUX2;1500.0;AUX3;1500.0;AUX4;1500.0
ALTITUDE;0.0
DEBUG;DEBUG10.0;DEBUG2;0.0;DEBUG3;0.0;DEBUG4;0.0
ATTITUDE;ANGX;0.0;ANGY;0.0;HEAD;-117.0
STATUS;CYCLETIME;2872;I2CERR;0;PRESENT;23;MODE;0
RAW_IMU;AX;3.0;AY;1.0;AZ;258.0;GX;0.0;GY;0.0;GZ;0.0;MAGX;93.0;MAGY;-73.0;MAGZ;0.0
MOT;0;1000.0;1;1000.0;2;1000.0;3;1000.0;4;0.0;5;0.0;6;0.0;7;0.0;
RC;ROLL;1494.0;PITCH;1507.0;YAW;1508.0;THROTTLE;1061.0;AUX1;1681.0;AUX2;1500.0;AUX3;1500.0;AUX4;1500.0
ALTITUDE;0.0
DEBUG;DEBUG10.0;DEBUG2;0.0;DEBUG3;0.0;DEBUG4;0.0
ATTITUDE;ANGX;0.0;ANGY;0.0;HEAD;-117.0
STATUS;CYCLETIME;2872;I2CERR;0;PRESENT;23;MODE;0
RAW_IMU;AX;3.0;AY;0.0;AZ;256.0;GX;0.0;GY;0.0;GZ;0.0;MAGX;93.0;MAGY;-73.0;MAGZ;0.0
MOT;0;1000.0;1;1000.0;2;1000.0;3;1000.0;4;0.0;5;0.0;6;0.0;7;0.0;
RC;ROLL;1496.0;PITCH;1504.0;YAW;1508.0;THROTTLE;1061.0;AUX1;1681.0;AUX2;1500.0;AUX3;1500.0;AUX4;1500.0
ALTITUDE;0.0
DEBUG;DEBUG10.0;DEBUG2;0.0;DEBUG3;0.0;DEBUG4;0.0
ATTITUDE;ANGX;0.0;ANGY;0.0;HEAD;-117.0
STATUS;CYCLETIME;3024;I2CERR;0;PRESENT;23;MODE;0
RAW_IMU;AX;4.0;AY;0.0;AZ;257.0;GX;0.0;GY;0.0;GZ;0.0;MAGX;93.0;MAGY;-73.0;MAGZ;0.0
MOT;0;1000.0;1;1000.0;2;1000.0;3;1000.0;4;0.0;5;0.0;6;0.0;7;0.0;
RC;ROLL;1496.0;PITCH;1504.0;YAW;1508.0;THROTTLE;1061.0;AUX1;1681.0;AUX2;1500.0;AUX3;1500.0;AUX4;1500.0
ALTITUDE;0.0
DEBUG;DEBUG10.0;DEBUG2;0.0;DEBUG3;0.0;DEBUG4;0.0
ATTITUDE;ANGX;0.0;ANGY;0.0;HEAD;-117.0
STATUS;CYCLETIME;2852;I2CERR;0;PRESENT;23;MODE;0
RAW_IMU;AX;2.0;AY;2.0;AZ;256.0;GX;0.0;GY;0.0;GZ;0.0;MAGX;93.0;MAGY;-73.0;MAGZ;1.0
MOT;0;1000.0;1;1000.0;2;1000.0;3;1000.0;4;0.0;5;0.0;6;0.0;7;0.0;
RC;ROLL;1498.0;PITCH;1504.0;YAW;1510.0;THROTTLE;1061.0;AUX1;1681.0;AUX2;1500.0;AUX3;1500.0;AUX4;1500.0
ALTITUDE;0.0
DEBUG;DEBUG10.0;DEBUG2;0.0;DEBUG3;0.0;DEBUG4;0.0
ATTITUDE;ANGX;0.0;ANGY;0.0;HEAD;-117.0
STATUS;CYCLETIME;2936;I2CERR;0;PRESENT;23;MODE;0
RAW_IMU;AX;1.0;AY;0.0;AZ;254.0;GX;0.0;GY;0.0;GZ;0.0;MAGX;93.0;MAGY;-73.0;MAGZ;1.0
MOT;0;1000.0;1;1000.0;2;1000.0;3;1000.0;4;0.0;5;0.0;6;0.0;7;0.0;
RC;ROLL;1498.0;PITCH;1507.0;YAW;1510.0;THROTTLE;1061.0;AUX1;1681.0;AUX2;1500.0;AUX3;1500.0;AUX4;1500.0
ALTITUDE;0.0
DEBUG;DEBUG10.0;DEBUG2;0.0;DEBUG3;0.0;DEBUG4;0.0
ATTITUDE;ANGX;0.0;ANGY;0.0;HEAD;-117.0
STATUS;CYCLETIME;2820;I2CERR;0;PRESENT;23;MODE;0
RAW_IMU;AX;2.0;AY;1.0;AZ;257.0;GX;0.0;GY;0.0;GZ;0.0;MAGX;94.0;MAGY;-72.0;MAGZ;0.0
MOT;0;1000.0;1;1000.0;2;1000.0;3;1000.0;4;0.0;5;0.0;6;0.0;7;0.0;
RC;ROLL;1498.0;PITCH;1505.0;YAW;1510.0;THROTTLE;1063.0;AUX1;1681.0;AUX2;1500.0;AUX3;1500.0;AUX4;1500.0
ALTITUDE;0.0
DEBUG;DEBUG10.0;DEBUG2;0.0;DEBUG3;0.0;DEBUG4;0.0
ATTITUDE;ANGX;0.0;ANGY;0.0;HEAD;-117.0
STATUS;CYCLETIME;2888;I2CERR;0;PRESENT;23;MODE;0
RAW_IMU;AX;2.0;AY;1.0;AZ;259.0;GX;0.0;GY;0.0;GZ;0.0;MAGX;94.0;MAGY;-72.0;MAGZ;0.0
MOT;0;1000.0;1;1000.0;2;1000.0;3;1000.0;4;0.0;5;0.0;6;0.0;7;0.0;
RC;ROLL;1498.0;PITCH;1503.0;YAW;1510.0;THROTTLE;1063.0;AUX1;1679.0;AUX2;1500.0;AUX3;1500.0;AUX4;1500.0
ALTITUDE;0.0
DEBUG;DEBUG10.0;DEBUG2;0.0;DEBUG3;0.0;DEBUG4;0.0
ATTITUDE;ANGX;0.0;ANGY;0.0;HEAD;-117.0
STATUS;CYCLETIME;3036;I2CERR;0;PRESENT;23;MODE;0
RAW_IMU;AX;0.0;AY;1.0;AZ;258.0;GX;0.0;GY;0.0;GZ;0.0;MAGX;93.0;MAGY;-74.0;MAGZ;0.0
MOT;0;1000.0;1;1000.0;2;1000.0;3;1000.0;4;0.0;5;0.0;6;0.0;7;0.0;
RC;ROLL;1492.0;PITCH;1507.0;YAW;1510.0;THROTTLE;1063.0;AUX1;1679.0;AUX2;1500.0;AUX3;1500.0;AUX4;1500.0
ALTITUDE;0.0
DEBUG;DEBUG10.0;DEBUG2;0.0;DEBUG3;0.0;DEBUG4;0.0
ATTITUDE;ANGX;0.0;ANGY;0.0;HEAD;-117.0
STATUS;CYCLETIME;2864;I2CERR;0;PRESENT;23;MODE;0
RAW_IMU;AX;0.0;AY;-1.0;AZ;259.0;GX;0.0;GY;0.0;GZ;0.0;MAGX;93.0;MAGY;-74.0;MAGZ;0.0
MOT;0;1000.0;1;1000.0;2;1000.0;3;1000.0;4;0.0;5;0.0;6;0.0;7;0.0;
RC;ROLL;1492.0;PITCH;1507.0;YAW;1510.0;THROTTLE;1063.0;AUX1;1682.0;AUX2;1500.0;AUX3;1500.0;AUX4;1500.0
ALTITUDE;0.0
DEBUG;DEBUG10.0;DEBUG2;0.0;DEBUG3;0.0;DEBUG4;0.0
ATTITUDE;ANGX;0.0;ANGY;0.0;HEAD;-117.0
STATUS;CYCLETIME;2936;I2CERR;0;PRESENT;23;MODE;0
RAW_IMU;AX;2.0;AY;0.0;AZ;255.0;GX;0.0;GY;0.0;GZ;0.0;MAGX;94.0;MAGY;-73.0;MAGZ;0.0
MOT;0;1000.0;1;1000.0;2;1000.0;3;1000.0;4;0.0;5;0.0;6;0.0;7;0.0;
RC;ROLL;1492.0;PITCH;1507.0;YAW;1510.0;THROTTLE;1063.0;AUX1;1682.0;AUX2;1500.0;AUX3;1500.0;AUX4;1500.0
ALTITUDE;0.0
DEBUG;DEBUG10.0;DEBUG2;0.0;DEBUG3;0.0;DEBUG4;0.0
ATTITUDE;ANGX;0.0;ANGY;0.0;HEAD;-117.0
STATUS;CYCLETIME;2960;I2CERR;0;PRESENT;23;MODE;0
RAW_IMU;AX;3.0;AY;0.0;AZ;256.0;GX;0.0;GY;0.0;GZ;0.0;MAGX;94.0;MAGY;-73.0;MAGZ;0.0
MOT;0;1000.0;1;1000.0;2;1000.0;3;1000.0;4;0.0;5;0.0;6;0.0;7;0.0;
RC;ROLL;1492.0;PITCH;1507.0;YAW;1514.0;THROTTLE;1063.0;AUX1;1674.0;AUX2;1500.0;AUX3;1500.0;AUX4;1500.0
ALTITUDE;0.0
DEBUG;DEBUG10.0;DEBUG2;0.0;DEBUG3;0.0;DEBUG4;0.0
ATTITUDE;ANGX;0.0;ANGY;0.0;HEAD;-117.0
STATUS;CYCLETIME;3204;I2CERR;0;PRESENT;23;MODE;0
RAW_IMU;AX;2.0;AY;2.0;AZ;258.0;GX;0.0;GY;0.0;GZ;0.0;MAGX;93.0;MAGY;-71.0;MAGZ;0.0
MOT;0;1000.0;1;1000.0;2;1000.0;3;1000.0;4;0.0;5;0.0;6;0.0;7;0.0;
RC;ROLL;1495.0;PITCH;1503.0;YAW;1514.0;THROTTLE;1063.0;AUX1;1676.0;AUX2;1500.0;AUX3;1500.0;AUX4;1500.0
ALTITUDE;0.0
DEBUG;DEBUG10.0;DEBUG2;0.0;DEBUG3;0.0;DEBUG4;0.0
ATTITUDE;ANGX;0.0;ANGY;0.0;HEAD;-117.0
STATUS;CYCLETIME;2892;I2CERR;0;PRESENT;23;MODE;0
RAW_IMU;AX;2.0;AY;2.0;AZ;255.0;GX;0.0;GY;0.0;GZ;0.0;MAGX;93.0;MAGY;-71.0;MAGZ;0.0
MOT;0;1000.0;1;1000.0;2;1000.0;3;1000.0;4;0.0;5;0.0;6;0.0;7;0.0;
RC;ROLL;1499.0;PITCH;1503.0;YAW;1506.0;THROTTLE;1063.0;AUX1;1680.0;AUX2;1500.0;AUX3;1500.0;AUX4;1500.0
ALTITUDE;0.0
DEBUG;DEBUG10.0;DEBUG2;0.0;DEBUG3;0.0;DEBUG4;0.0
ATTITUDE;ANGX;0.0;ANGY;0.0;HEAD;-117.0
STATUS;CYCLETIME;2920;I2CERR;0;PRESENT;23;MODE;0
RAW_IMU;AX;0.0;AY;-1.0;AZ;255.0;GX;0.0;GY;0.0;GZ;0.0;MAGX;93.0;MAGY;-71.0;MAGZ;0.0
MOT;0;1000.0;1;1000.0;2;1000.0;3;1000.0;4;0.0;5;0.0;6;0.0;7;0.0;
RC;ROLL;1499.0;PITCH;1507.0;YAW;1506.0;THROTTLE;1063.0;AUX1;1682.0;AUX2;1500.0;AUX3;1500.0;AUX4;1500.0
ALTITUDE;0.0
DEBUG;DEBUG10.0;DEBUG2;0.0;DEBUG3;0.0;DEBUG4;0.0
ATTITUDE;ANGX;0.0;ANGY;0.0;HEAD;-117.0
STATUS;CYCLETIME;2968;I2CERR;0;PRESENT;23;MODE;0
RAW_IMU;AX;3.0;AY;0.0;AZ;257.0;GX;0.0;GY;0.0;GZ;0.0;MAGX;93.0;MAGY;-72.0;MAGZ;0.0
MOT;0;1000.0;1;1000.0;2;1000.0;3;1000.0;4;0.0;5;0.0;6;0.0;7;0.0;
RC;ROLL;1502.0;PITCH;1507.0;YAW;1508.0;THROTTLE;1061.0;AUX1;1682.0;AUX2;1500.0;AUX3;1500.0;AUX4;1500.0
ALTITUDE;0.0
DEBUG;DEBUG10.0;DEBUG2;0.0;DEBUG3;0.0;DEBUG4;0.0
ATTITUDE;ANGX;0.0;ANGY;0.0;HEAD;-117.0
STATUS;CYCLETIME;2888;I2CERR;0;PRESENT;23;MODE;0
RAW_IMU;AX;2.0;AY;0.0;AZ;257.0;GX;0.0;GY;0.0;GZ;0.0;MAGX;93.0;MAGY;-72.0;MAGZ;0.0
MOT;0;1000.0;1;1000.0;2;1000.0;3;1000.0;4;0.0;5;0.0;6;0.0;7;0.0;
RC;ROLL;1502.0;PITCH;1505.0;YAW;1508.0;THROTTLE;1061.0;AUX1;1682.0;AUX2;1500.0;AUX3;1500.0;AUX4;1500.0
ALTITUDE;0.0
DEBUG;DEBUG10.0;DEBUG2;0.0;DEBUG3;0.0;DEBUG4;0.0
ATTITUDE;ANGX;0.0;ANGY;0.0;HEAD;-117.0
STATUS;CYCLETIME;2852;I2CERR;0;PRESENT;23;MODE;0
RAW_IMU;AX;3.0;AY;1.0;AZ;257.0;GX;0.0;GY;0.0;GZ;0.0;MAGX;93.0;MAGY;-73.0;MAGZ;1.0
MOT;0;1000.0;1;1000.0;2;1000.0;3;1000.0;4;0.0;5;0.0;6;0.0;7;0.0;
RC;ROLL;1500.0;PITCH;1505.0;YAW;1508.0;THROTTLE;1065.0;AUX1;1682.0;AUX2;1500.0;AUX3;1500.0;AUX4;1500.0
ALTITUDE;0.0
DEBUG;DEBUG10.0;DEBUG2;0.0;DEBUG3;0.0;DEBUG4;0.0
ATTITUDE;ANGX;0.0;ANGY;0.0;HEAD;-117.0
STATUS;CYCLETIME;2904;I2CERR;0;PRESENT;23;MODE;0
RAW_IMU;AX;3.0;AY;0.0;AZ;255.0;GX;0.0;GY;0.0;GZ;0.0;MAGX;93.0;MAGY;-73.0;MAGZ;1.0
MOT;0;1000.0;1;1000.0;2;1000.0;3;1000.0;4;0.0;5;0.0;6;0.0;7;0.0;
RC;ROLL;1497.0;PITCH;1505.0;YAW;1513.0;THROTTLE;1063.0;AUX1;1670.0;AUX2;1500.0;AUX3;1500.0;AUX4;1500.0
ALTITUDE;0.0
DEBUG;DEBUG10.0;DEBUG2;0.0;DEBUG3;0.0;DEBUG4;0.0
ATTITUDE;ANGX;0.0;ANGY;0.0;HEAD;-117.0
STATUS;CYCLETIME;3016;I2CERR;0;PRESENT;23;MODE;0
RAW_IMU;AX;3.0;AY;1.0;AZ;255.0;GX;0.0;GY;0.0;GZ;0.0;MAGX;92.0;MAGY;-73.0;MAGZ;1.0
MOT;0;1000.0;1;1000.0;2;1000.0;3;1000.0;4;0.0;5;0.0;6;0.0;7;0.0;
RC;ROLL;1497.0;PITCH;1505.0;YAW;1511.0;THROTTLE;1063.0;AUX1;1677.0;AUX2;1500.0;AUX3;1500.0;AUX4;1500.0
ALTITUDE;0.0
DEBUG;DEBUG10.0;DEBUG2;0.0;DEBUG3;0.0;DEBUG4;0.0
ATTITUDE;ANGX;0.0;ANGY;0.0;HEAD;-117.0
STATUS;CYCLETIME;2872;I2CERR;0;PRESENT;23;MODE;0
RAW_IMU;AX;4.0;AY;2.0;AZ;257.0;GX;0.0;GY;0.0;GZ;0.0;MAGX;92.0;MAGY;-73.0;MAGZ;1.0
MOT;0;1000.0;1;1000.0;2;1000.0;3;1000.0;4;0.0;5;0.0;6;0.0;7;0.0;
RC;ROLL;1497.0;PITCH;1505.0;YAW;1506.0;THROTTLE;1063.0;AUX1;1683.0;AUX2;1500.0;AUX3;1500.0;AUX4;1500.0
ALTITUDE;0.0
DEBUG;DEBUG10.0;DEBUG2;0.0;DEBUG3;0.0;DEBUG4;0.0
ATTITUDE;ANGX;0.0;ANGY;0.0;HEAD;-117.0
STATUS;CYCLETIME;2872;I2CERR;0;PRESENT;23;MODE;0
RAW_IMU;AX;3.0;AY;1.0;AZ;257.0;GX;0.0;GY;0.0;GZ;0.0;MAGX;92.0;MAGY;-72.0;MAGZ;0.0
MOT;0;1000.0;1;1000.0;2;1000.0;3;1000.0;4;0.0;5;0.0;6;0.0;7;0.0;
RC;ROLL;1497.0;PITCH;1505.0;YAW;1503.0;THROTTLE;1063.0;AUX1;1683.0;AUX2;1500.0;AUX3;1500.0;AUX4;1500.0
ALTITUDE;0.0
DEBUG;DEBUG10.0;DEBUG2;0.0;DEBUG3;0.0;DEBUG4;0.0
ATTITUDE;ANGX;0.0;ANGY;0.0;HEAD;-117.0
STATUS;CYCLETIME;2916;I2CERR;0;PRESENT;23;MODE;0
RAW_IMU;AX;4.0;AY;0.0;AZ;254.0;GX;0.0;GY;0.0;GZ;0.0;MAGX;92.0;MAGY;-72.0;MAGZ;0.0
MOT;0;1000.0;1;1000.0;2;1000.0;3;1000.0;4;0.0;5;0.0;6;0.0;7;0.0;
RC;ROLL;1494.0;PITCH;1505.0;YAW;1507.0;THROTTLE;1063.0;AUX1;1675.0;AUX2;1500.0;AUX3;1500.0;AUX4;1500.0
ALTITUDE;0.0
DEBUG;DEBUG10.0;DEBUG2;0.0;DEBUG3;0.0;DEBUG4;0.0
ATTITUDE;ANGX;0.0;ANGY;0.0;HEAD;-117.0
STATUS;CYCLETIME;2892;I2CERR;0;PRESENT;23;MODE;0
RAW_IMU;AX;2.0;AY;1.0;AZ;256.0;GX;0.0;GY;0.0;GZ;0.0;MAGX;93.0;MAGY;-73.0;MAGZ;0.0
MOT;0;1000.0;1;1000.0;2;1000.0;3;1000.0;4;0.0;5;0.0;6;0.0;7;0.0;
RC;ROLL;1494.0;PITCH;1508.0;YAW;1507.0;THROTTLE;1060.0;AUX1;1675.0;AUX2;1500.0;AUX3;1500.0;AUX4;1500.0
ALTITUDE;0.0
DEBUG;DEBUG10.0;DEBUG2;0.0;DEBUG3;0.0;DEBUG4;0.0
ATTITUDE;ANGX;0.0;ANGY;0.0;HEAD;-117.0
STATUS;CYCLETIME;3000;I2CERR;0;PRESENT;23;MODE;0
RAW_IMU;AX;2.0;AY;1.0;AZ;254.0;GX;0.0;GY;0.0;GZ;0.0;MAGX;93.0;MAGY;-73.0;MAGZ;0.0
MOT;0;1000.0;1;1000.0;2;1000.0;3;1000.0;4;0.0;5;0.0;6;0.0;7;0.0;
RC;ROLL;1494.0;PITCH;1508.0;YAW;1510.0;THROTTLE;1060.0;AUX1;1678.0;AUX2;1500.0;AUX3;1500.0;AUX4;1500.0
ALTITUDE;0.0
DEBUG;DEBUG10.0;DEBUG2;0.0;DEBUG3;0.0;DEBUG4;0.0
ATTITUDE;ANGX;0.0;ANGY;0.0;HEAD;-117.0
STATUS;CYCLETIME;3212;I2CERR;0;PRESENT;23;MODE;0
RAW_IMU;AX;2.0;AY;0.0;AZ;256.0;GX;0.0;GY;0.0;GZ;0.0;MAGX;94.0;MAGY;-72.0;MAGZ;1.0
MOT;0;1000.0;1;1000.0;2;1000.0;3;1000.0;4;0.0;5;0.0;6;0.0;7;0.0;
RC;ROLL;1494.0;PITCH;1508.0;YAW;1510.0;THROTTLE;1060.0;AUX1;1683.0;AUX2;1500.0;AUX3;1500.0;AUX4;1500.0
ALTITUDE;0.0
DEBUG;DEBUG10.0;DEBUG2;0.0;DEBUG3;0.0;DEBUG4;0.0
ATTITUDE;ANGX;0.0;ANGY;0.0;HEAD;-117.0
STATUS;CYCLETIME;2884;I2CERR;0;PRESENT;23;MODE;0
RAW_IMU;AX;4.0;AY;0.0;AZ;256.0;GX;0.0;GY;0.0;GZ;0.0;MAGX;94.0;MAGY;-72.0;MAGZ;1.0
MOT;0;1000.0;1;1000.0;2;1000.0;3;1000.0;4;0.0;5;0.0;6;0.0;7;0.0;
RC;ROLL;1494.0;PITCH;1508.0;YAW;1507.0;THROTTLE;1060.0;AUX1;1683.0;AUX2;1500.0;AUX3;1500.0;AUX4;1500.0
ALTITUDE;0.0
DEBUG;DEBUG10.0;DEBUG2;0.0;DEBUG3;0.0;DEBUG4;0.0
ATTITUDE;ANGX;0.0;ANGY;0.0;HEAD;-117.0
STATUS;CYCLETIME;2860;I2CERR;0;PRESENT;23;MODE;0
RAW_IMU;AX;3.0;AY;-1.0;AZ;256.0;GX;0.0;GY;0.0;GZ;0.0;MAGX;94.0;MAGY;-72.0;MAGZ;1.0
MOT;0;1000.0;1;1000.0;2;1000.0;3;1000.0;4;0.0;5;0.0;6;0.0;7;0.0;
RC;ROLL;1494.0;PITCH;1508.0;YAW;1507.0;THROTTLE;1060.0;AUX1;1680.0;AUX2;1500.0;AUX3;1500.0;AUX4;1500.0
ALTITUDE;0.0
DEBUG;DEBUG10.0;DEBUG2;0.0;DEBUG3;0.0;DEBUG4;0.0
ATTITUDE;ANGX;0.0;ANGY;0.0;HEAD;-117.0
STATUS;CYCLETIME;2912;I2CERR;0;PRESENT;23;MODE;0
RAW_IMU;AX;0.0;AY;-2.0;AZ;254.0;GX;0.0;GY;0.0;GZ;0.0;MAGX;92.0;MAGY;-73.0;MAGZ;1.0
MOT;0;1000.0;1;1000.0;2;1000.0;3;1000.0;4;0.0;5;0.0;6;0.0;7;0.0;
RC;ROLL;1494.0;PITCH;1508.0;YAW;1510.0;THROTTLE;1060.0;AUX1;1680.0;AUX2;1500.0;AUX3;1500.0;AUX4;1500.0
ALTITUDE;0.0
DEBUG;DEBUG10.0;DEBUG2;0.0;DEBUG3;0.0;DEBUG4;0.0
ATTITUDE;ANGX;0.0;ANGY;0.0;HEAD;-117.0
STATUS;CYCLETIME;2960;I2CERR;0;PRESENT;23;MODE;0
RAW_IMU;AX;3.0;AY;0.0;AZ;256.0;GX;0.0;GY;0.0;GZ;0.0;MAGX;92.0;MAGY;-73.0;MAGZ;1.0
MOT;0;1000.0;1;1000.0;2;1000.0;3;1000.0;4;0.0;5;0.0;6;0.0;7;0.0;
RC;ROLL;1499.0;PITCH;1508.0;YAW;1493.0;THROTTLE;1058.0;AUX1;1680.0;AUX2;1500.0;AUX3;1500.0;AUX4;1500.0
ALTITUDE;0.0
DEBUG;DEBUG10.0;DEBUG2;0.0;DEBUG3;0.0;DEBUG4;0.0
ATTITUDE;ANGX;0.0;ANGY;0.0;HEAD;-117.0
STATUS;CYCLETIME;2908;I2CERR;0;PRESENT;23;MODE;0
RAW_IMU;AX;3.0;AY;1.0;AZ;258.0;GX;0.0;GY;0.0;GZ;0.0;MAGX;94.0;MAGY;-73.0;MAGZ;1.0
MOT;0;1000.0;1;1000.0;2;1000.0;3;1000.0;4;0.0;5;0.0;6;0.0;7;0.0;
RC;ROLL;1501.0;PITCH;1508.0;YAW;1422.0;THROTTLE;1058.0;AUX1;1680.0;AUX2;1500.0;AUX3;1500.0;AUX4;1500.0
ALTITUDE;0.0
DEBUG;DEBUG10.0;DEBUG2;0.0;DEBUG3;0.0;DEBUG4;0.0
ATTITUDE;ANGX;0.0;ANGY;0.0;HEAD;-117.0
STATUS;CYCLETIME;2920;I2CERR;0;PRESENT;23;MODE;0
RAW_IMU;AX;3.0;AY;1.0;AZ;257.0;GX;0.0;GY;0.0;GZ;0.0;MAGX;94.0;MAGY;-73.0;MAGZ;1.0
MOT;0;1000.0;1;1000.0;2;1000.0;3;1000.0;4;0.0;5;0.0;6;0.0;7;0.0;
RC;ROLL;1497.0;PITCH;1506.0;YAW;1337.0;THROTTLE;1058.0;AUX1;1680.0;AUX2;1500.0;AUX3;1500.0;AUX4;1500.0
ALTITUDE;0.0
DEBUG;DEBUG10.0;DEBUG2;0.0;DEBUG3;0.0;DEBUG4;0.0
ATTITUDE;ANGX;0.0;ANGY;0.0;HEAD;-117.0
STATUS;CYCLETIME;2956;I2CERR;0;PRESENT;23;MODE;0
RAW_IMU;AX;3.0;AY;0.0;AZ;256.0;GX;0.0;GY;0.0;GZ;0.0;MAGX;92.0;MAGY;-73.0;MAGZ;0.0
MOT;0;1000.0;1;1000.0;2;1000.0;3;1000.0;4;0.0;5;0.0;6;0.0;7;0.0;
RC;ROLL;1492.0;PITCH;1506.0;YAW;1220.0;THROTTLE;1058.0;AUX1;1680.0;AUX2;1500.0;AUX3;1500.0;AUX4;1500.0
ALTITUDE;0.0
DEBUG;DEBUG10.0;DEBUG2;0.0;DEBUG3;0.0;DEBUG4;0.0
ATTITUDE;ANGX;0.0;ANGY;0.0;HEAD;-117.0
STATUS;CYCLETIME;2928;I2CERR;0;PRESENT;23;MODE;0
RAW_IMU;AX;5.0;AY;1.0;AZ;258.0;GX;0.0;GY;0.0;GZ;0.0;MAGX;92.0;MAGY;-73.0;MAGZ;0.0
MOT;0;1000.0;1;1000.0;2;1000.0;3;1000.0;4;0.0;5;0.0;6;0.0;7;0.0;
RC;ROLL;1492.0;PITCH;1506.0;YAW;1131.0;THROTTLE;1055.0;AUX1;1685.0;AUX2;1500.0;AUX3;1500.0;AUX4;1500.0
ALTITUDE;0.0
DEBUG;DEBUG10.0;DEBUG2;0.0;DEBUG3;0.0;DEBUG4;0.0
ATTITUDE;ANGX;0.0;ANGY;0.0;HEAD;-117.0
STATUS;CYCLETIME;2912;I2CERR;0;PRESENT;23;MODE;0
RAW_IMU;AX;3.0;AY;0.0;AZ;258.0;GX;0.0;GY;0.0;GZ;0.0;MAGX;93.0;MAGY;-73.0;MAGZ;0.0
MOT;0;1000.0;1;1000.0;2;1000.0;3;1000.0;4;0.0;5;0.0;6;0.0;7;0.0;
RC;ROLL;1495.0;PITCH;1506.0;YAW;1074.0;THROTTLE;1052.0;AUX1;1687.0;AUX2;1500.0;AUX3;1500.0;AUX4;1500.0
ALTITUDE;0.0
DEBUG;DEBUG10.0;DEBUG2;0.0;DEBUG3;0.0;DEBUG4;0.0
ATTITUDE;ANGX;0.0;ANGY;0.0;HEAD;-117.0
STATUS;CYCLETIME;2848;I2CERR;0;PRESENT;23;MODE;0
RAW_IMU;AX;3.0;AY;-1.0;AZ;259.0;GX;0.0;GY;0.0;GZ;0.0;MAGX;93.0;MAGY;-73.0;MAGZ;0.0
MOT;0;1000.0;1;1000.0;2;1000.0;3;1000.0;4;0.0;5;0.0;6;0.0;7;0.0;
RC;ROLL;1495.0;PITCH;1506.0;YAW;1038.0;THROTTLE;1052.0;AUX1;1690.0;AUX2;1500.0;AUX3;1500.0;AUX4;1500.0
ALTITUDE;0.0
DEBUG;DEBUG10.0;DEBUG2;0.0;DEBUG3;0.0;DEBUG4;0.0
ATTITUDE;ANGX;0.0;ANGY;0.0;HEAD;-117.0
STATUS;CYCLETIME;2872;I2CERR;0;PRESENT;23;MODE;0
RAW_IMU;AX;1.0;AY;0.0;AZ;258.0;GX;0.0;GY;0.0;GZ;0.0;MAGX;92.0;MAGY;-72.0;MAGZ;0.0
MOT;0;1000.0;1;1000.0;2;1000.0;3;1000.0;4;0.0;5;0.0;6;0.0;7;0.0;
RC;ROLL;1497.0;PITCH;1506.0;YAW;1036.0;THROTTLE;1052.0;AUX1;1690.0;AUX2;1500.0;AUX3;1500.0;AUX4;1500.0
ALTITUDE;0.0
DEBUG;DEBUG10.0;DEBUG2;0.0;DEBUG3;0.0;DEBUG4;0.0
ATTITUDE;ANGX;0.0;ANGY;0.0;HEAD;-117.0
STATUS;CYCLETIME;2932;I2CERR;0;PRESENT;23;MODE;0
RAW_IMU;AX;2.0;AY;-1.0;AZ;258.0;GX;0.0;GY;0.0;GZ;0.0;MAGX;92.0;MAGY;-72.0;MAGZ;0.0
MOT;0;1000.0;1;1000.0;2;1000.0;3;1000.0;4;0.0;5;0.0;6;0.0;7;0.0;
RC;ROLL;1497.0;PITCH;1504.0;YAW;1036.0;THROTTLE;1052.0;AUX1;1690.0;AUX2;1500.0;AUX3;1500.0;AUX4;1500.0
ALTITUDE;0.0
DEBUG;DEBUG10.0;DEBUG2;0.0;DEBUG3;0.0;DEBUG4;0.0
ATTITUDE;ANGX;0.0;ANGY;0.0;HEAD;-117.0
STATUS;CYCLETIME;2908;I2CERR;0;PRESENT;23;MODE;0
RAW_IMU;AX;2.0;AY;1.0;AZ;255.0;GX;0.0;GY;0.0;GZ;0.0;MAGX;93.0;MAGY;-72.0;MAGZ;0.0
MOT;0;1000.0;1;1000.0;2;1000.0;3;1000.0;4;0.0;5;0.0;6;0.0;7;0.0;
RC;ROLL;1497.0;PITCH;1504.0;YAW;1036.0;THROTTLE;1055.0;AUX1;1687.0;AUX2;1500.0;AUX3;1500.0;AUX4;1500.0
ALTITUDE;0.0
DEBUG;DEBUG10.0;DEBUG2;0.0;DEBUG3;0.0;DEBUG4;0.0
ATTITUDE;ANGX;0.0;ANGY;0.0;HEAD;-117.0
STATUS;CYCLETIME;2924;I2CERR;0;PRESENT;23;MODE;0
RAW_IMU;AX;2.0;AY;0.0;AZ;256.0;GX;0.0;GY;0.0;GZ;0.0;MAGX;93.0;MAGY;-72.0;MAGZ;0.0
MOT;0;1000.0;1;1000.0;2;1000.0;3;1000.0;4;0.0;5;0.0;6;0.0;7;0.0;
RC;ROLL;1497.0;PITCH;1501.0;YAW;1036.0;THROTTLE;1057.0;AUX1;1685.0;AUX2;1500.0;AUX3;1500.0;AUX4;1500.0
ALTITUDE;0.0
DEBUG;DEBUG10.0;DEBUG2;0.0;DEBUG3;0.0;DEBUG4;0.0
ATTITUDE;ANGX;0.0;ANGY;0.0;HEAD;-117.0
STATUS;CYCLETIME;2996;I2CERR;0;PRESENT;23;MODE;0
RAW_IMU;AX;3.0;AY;-1.0;AZ;255.0;GX;0.0;GY;0.0;GZ;0.0;MAGX;93.0;MAGY;-72.0;MAGZ;0.0
MOT;0;1000.0;1;1000.0;2;1000.0;3;1000.0;4;0.0;5;0.0;6;0.0;7;0.0;
RC;ROLL;1495.0;PITCH;1505.0;YAW;1070.0;THROTTLE;1055.0;AUX1;1687.0;AUX2;1500.0;AUX3;1500.0;AUX4;1500.0
ALTITUDE;0.0
DEBUG;DEBUG10.0;DEBUG2;0.0;DEBUG3;0.0;DEBUG4;0.0
ATTITUDE;ANGX;0.0;ANGY;0.0;HEAD;-117.0
STATUS;CYCLETIME;2928;I2CERR;0;PRESENT;23;MODE;0
RAW_IMU;AX;1.0;AY;1.0;AZ;256.0;GX;0.0;GY;0.0;GZ;0.0;MAGX;92.0;MAGY;-73.0;MAGZ;0.0
MOT;0;1000.0;1;1000.0;2;1000.0;3;1000.0;4;0.0;5;0.0;6;0.0;7;0.0;
RC;ROLL;1495.0;PITCH;1509.0;YAW;1135.0;THROTTLE;1055.0;AUX1;1687.0;AUX2;1500.0;AUX3;1500.0;AUX4;1500.0
ALTITUDE;0.0
DEBUG;DEBUG10.0;DEBUG2;0.0;DEBUG3;0.0;DEBUG4;0.0
ATTITUDE;ANGX;0.0;ANGY;0.0;HEAD;-117.0
STATUS;CYCLETIME;2924;I2CERR;0;PRESENT;23;MODE;0
RAW_IMU;AX;1.0;AY;2.0;AZ;256.0;GX;0.0;GY;0.0;GZ;0.0;MAGX;92.0;MAGY;-73.0;MAGZ;0.0
MOT;0;1000.0;1;1000.0;2;1000.0;3;1000.0;4;0.0;5;0.0;6;0.0;7;0.0;
RC;ROLL;1495.0;PITCH;1509.0;YAW;1325.0;THROTTLE;1055.0;AUX1;1685.0;AUX2;1500.0;AUX3;1500.0;AUX4;1500.0
ALTITUDE;0.0
DEBUG;DEBUG10.0;DEBUG2;0.0;DEBUG3;0.0;DEBUG4;0.0
ATTITUDE;ANGX;0.0;ANGY;0.0;HEAD;-117.0
STATUS;CYCLETIME;2908;I2CERR;0;PRESENT;23;MODE;0
RAW_IMU;AX;0.0;AY;0.0;AZ;257.0;GX;0.0;GY;0.0;GZ;0.0;MAGX;94.0;MAGY;-73.0;MAGZ;0.0
MOT;0;1000.0;1;1000.0;2;1000.0;3;1000.0;4;0.0;5;0.0;6;0.0;7;0.0;
RC;ROLL;1495.0;PITCH;1511.0;YAW;1459.0;THROTTLE;1055.0;AUX1;1685.0;AUX2;1500.0;AUX3;1500.0;AUX4;1500.0
ALTITUDE;0.0
DEBUG;DEBUG10.0;DEBUG2;0.0;DEBUG3;0.0;DEBUG4;0.0
ATTITUDE;ANGX;0.0;ANGY;0.0;HEAD;-117.0
STATUS;CYCLETIME;2920;I2CERR;0;PRESENT;23;MODE;0
RAW_IMU;AX;1.0;AY;1.0;AZ;258.0;GX;0.0;GY;0.0;GZ;0.0;MAGX;94.0;MAGY;-73.0;MAGZ;0.0
MOT;0;1000.0;1;1000.0;2;1000.0;3;1000.0;4;0.0;5;0.0;6;0.0;7;0.0;
RC;ROLL;1495.0;PITCH;1511.0;YAW;1500.0;THROTTLE;1055.0;AUX1;1682.0;AUX2;1500.0;AUX3;1500.0;AUX4;1500.0
ALTITUDE;0.0
DEBUG;DEBUG10.0;DEBUG2;0.0;DEBUG3;0.0;DEBUG4;0.0
ATTITUDE;ANGX;0.0;ANGY;0.0;HEAD;-117.0
STATUS;CYCLETIME;2844;I2CERR;0;PRESENT;23;MODE;0
RAW_IMU;AX;0.0;AY;-1.0;AZ;256.0;GX;0.0;GY;0.0;GZ;0.0;MAGX;93.0;MAGY;-72.0;MAGZ;0.0
MOT;0;1000.0;1;1000.0;2;1000.0;3;1000.0;4;0.0;5;0.0;6;0.0;7;0.0;
RC;ROLL;1497.0;PITCH;1504.0;YAW;1502.0;THROTTLE;1057.0;AUX1;1682.0;AUX2;1500.0;AUX3;1500.0;AUX4;1500.0
ALTITUDE;0.0
DEBUG;DEBUG10.0;DEBUG2;0.0;DEBUG3;0.0;DEBUG4;0.0
ATTITUDE;ANGX;0.0;ANGY;0.0;HEAD;-117.0
STATUS;CYCLETIME;2900;I2CERR;0;PRESENT;23;MODE;0
RAW_IMU;AX;0.0;AY;0.0;AZ;258.0;GX;0.0;GY;0.0;GZ;0.0;MAGX;93.0;MAGY;-72.0;MAGZ;0.0
MOT;0;1000.0;1;1000.0;2;1000.0;3;1000.0;4;0.0;5;0.0;6;0.0;7;0.0;
RC;ROLL;1499.0;PITCH;1504.0;YAW;1509.0;THROTTLE;1057.0;AUX1;1680.0;AUX2;1500.0;AUX3;1500.0;AUX4;1500.0
ALTITUDE;0.0
DEBUG;DEBUG10.0;DEBUG2;0.0;DEBUG3;0.0;DEBUG4;0.0
ATTITUDE;ANGX;0.0;ANGY;0.0;HEAD;-117.0
STATUS;CYCLETIME;2960;I2CERR;0;PRESENT;23;MODE;0
RAW_IMU;AX;1.0;AY;1.0;AZ;258.0;GX;0.0;GY;0.0;GZ;0.0;MAGX;92.0;MAGY;-72.0;MAGZ;0.0
MOT;0;1000.0;1;1000.0;2;1000.0;3;1000.0;4;0.0;5;0.0;6;0.0;7;0.0;
RC;ROLL;1496.0;PITCH;1504.0;YAW;1509.0;THROTTLE;1061.0;AUX1;1680.0;AUX2;1500.0;AUX3;1500.0;AUX4;1500.0
ALTITUDE;0.0
DEBUG;DEBUG10.0;DEBUG2;0.0;DEBUG3;0.0;DEBUG4;0.0
ATTITUDE;ANGX;0.0;ANGY;0.0;HEAD;-117.0
STATUS;CYCLETIME;2960;I2CERR;0;PRESENT;23;MODE;0
RAW_IMU;AX;2.0;AY;2.0;AZ;258.0;GX;0.0;GY;0.0;GZ;0.0;MAGX;92.0;MAGY;-72.0;MAGZ;0.0
MOT;0;1000.0;1;1000.0;2;1000.0;3;1000.0;4;0.0;5;0.0;6;0.0;7;0.0;
RC;ROLL;1494.0;PITCH;1504.0;YAW;1509.0;THROTTLE;1063.0;AUX1;1680.0;AUX2;1500.0;AUX3;1500.0;AUX4;1500.0
ALTITUDE;0.0
DEBUG;DEBUG10.0;DEBUG2;0.0;DEBUG3;0.0;DEBUG4;0.0
ATTITUDE;ANGX;0.0;ANGY;0.0;HEAD;-117.0
STATUS;CYCLETIME;3168;I2CERR;0;PRESENT;23;MODE;0
RAW_IMU;AX;1.0;AY;0.0;AZ;257.0;GX;0.0;GY;0.0;GZ;0.0;MAGX;93.0;MAGY;-72.0;MAGZ;1.0
MOT;0;1000.0;1;1000.0;2;1000.0;3;1000.0;4;0.0;5;0.0;6;0.0;7;0.0;
RC;ROLL;1494.0;PITCH;1506.0;YAW;1509.0;THROTTLE;1061.0;AUX1;1680.0;AUX2;1500.0;AUX3;1500.0;AUX4;1500.0
ALTITUDE;0.0
DEBUG;DEBUG10.0;DEBUG2;0.0;DEBUG3;0.0;DEBUG4;0.0
ATTITUDE;ANGX;0.0;ANGY;0.0;HEAD;-117.0
STATUS;CYCLETIME;2820;I2CERR;0;PRESENT;23;MODE;0
RAW_IMU;AX;2.0;AY;0.0;AZ;257.0;GX;0.0;GY;0.0;GZ;0.0;MAGX;93.0;MAGY;-72.0;MAGZ;1.0
MOT;0;1000.0;1;1000.0;2;1000.0;3;1000.0;4;0.0;5;0.0;6;0.0;7;0.0;
RC;ROLL;1494.0;PITCH;1507.0;YAW;1511.0;THROTTLE;1058.0;AUX1;1680.0;AUX2;1500.0;AUX3;1500.0;AUX4;1500.0
ALTITUDE;0.0
DEBUG;DEBUG10.0;DEBUG2;0.0;DEBUG3;0.0;DEBUG4;0.0
ATTITUDE;ANGX;0.0;ANGY;0.0;HEAD;-117.0
STATUS;CYCLETIME;2880;I2CERR;0;PRESENT;23;MODE;0
RAW_IMU;AX;2.0;AY;1.0;AZ;257.0;GX;0.0;GY;0.0;GZ;0.0;MAGX;93.0;MAGY;-72.0;MAGZ;1.0
MOT;0;1000.0;1;1000.0;2;1000.0;3;1000.0;4;0.0;5;0.0;6;0.0;7;0.0;
RC;ROLL;1494.0;PITCH;1507.0;YAW;1511.0;THROTTLE;1058.0;AUX1;1680.0;AUX2;1500.0;AUX3;1500.0;AUX4;1500.0
ALTITUDE;0.0
DEBUG;DEBUG10.0;DEBUG2;0.0;DEBUG3;0.0;DEBUG4;0.0
ATTITUDE;ANGX;0.0;ANGY;0.0;HEAD;-117.0
STATUS;CYCLETIME;2936;I2CERR;0;PRESENT;23;MODE;0
RAW_IMU;AX;1.0;AY;1.0;AZ;256.0;GX;0.0;GY;0.0;GZ;0.0;MAGX;93.0;MAGY;-73.0;MAGZ;0.0
MOT;0;1000.0;1;1000.0;2;1000.0;3;1000.0;4;0.0;5;0.0;6;0.0;7;0.0;
RC;ROLL;1494.0;PITCH;1507.0;YAW;1507.0;THROTTLE;1056.0;AUX1;1682.0;AUX2;1500.0;AUX3;1500.0;AUX4;1500.0
ALTITUDE;0.0
DEBUG;DEBUG10.0;DEBUG2;0.0;DEBUG3;0.0;DEBUG4;0.0
ATTITUDE;ANGX;0.0;ANGY;0.0;HEAD;-117.0
STATUS;CYCLETIME;2896;I2CERR;0;PRESENT;23;MODE;0
RAW_IMU;AX;2.0;AY;2.0;AZ;255.0;GX;0.0;GY;0.0;GZ;0.0;MAGX;93.0;MAGY;-73.0;MAGZ;0.0
MOT;0;1000.0;1;1000.0;2;1000.0;3;1000.0;4;0.0;5;0.0;6;0.0;7;0.0;
RC;ROLL;1494.0;PITCH;1510.0;YAW;1507.0;THROTTLE;1058.0;AUX1;1684.0;AUX2;1500.0;AUX3;1500.0;AUX4;1500.0
ALTITUDE;0.0
DEBUG;DEBUG10.0;DEBUG2;0.0;DEBUG3;0.0;DEBUG4;0.0
ATTITUDE;ANGX;0.0;ANGY;0.0;HEAD;-117.0
STATUS;CYCLETIME;2928;I2CERR;0;PRESENT;23;MODE;0
RAW_IMU;AX;3.0;AY;2.0;AZ;257.0;GX;0.0;GY;0.0;GZ;0.0;MAGX;94.0;MAGY;-73.0;MAGZ;1.0
MOT;0;1000.0;1;1000.0;2;1000.0;3;1000.0;4;0.0;5;0.0;6;0.0;7;0.0;
RC;ROLL;1494.0;PITCH;1510.0;YAW;1509.0;THROTTLE;1058.0;AUX1;1684.0;AUX2;1500.0;AUX3;1500.0;AUX4;1500.0
ALTITUDE;0.0
DEBUG;DEBUG10.0;DEBUG2;0.0;DEBUG3;0.0;DEBUG4;0.0
ATTITUDE;ANGX;0.0;ANGY;0.0;HEAD;-117.0
STATUS;CYCLETIME;2900;I2CERR;0;PRESENT;23;MODE;0
RAW_IMU;AX;2.0;AY;2.0;AZ;256.0;GX;0.0;GY;0.0;GZ;0.0;MAGX;94.0;MAGY;-73.0;MAGZ;1.0
MOT;0;1000.0;1;1000.0;2;1000.0;3;1000.0;4;0.0;5;0.0;6;0.0;7;0.0;
RC;ROLL;1499.0;PITCH;1504.0;YAW;1527.0;THROTTLE;1058.0;AUX1;1684.0;AUX2;1500.0;AUX3;1500.0;AUX4;1500.0
ALTITUDE;0.0
DEBUG;DEBUG10.0;DEBUG2;0.0;DEBUG3;0.0;DEBUG4;0.0
ATTITUDE;ANGX;0.0;ANGY;0.0;HEAD;-117.0
STATUS;CYCLETIME;3016;I2CERR;0;PRESENT;23;MODE;0
RAW_IMU;AX;4.0;AY;0.0;AZ;256.0;GX;0.0;GY;0.0;GZ;0.0;MAGX;94.0;MAGY;-72.0;MAGZ;1.0
MOT;0;1000.0;1;1000.0;2;1000.0;3;1000.0;4;0.0;5;0.0;6;0.0;7;0.0;
RC;ROLL;1499.0;PITCH;1504.0;YAW;1604.0;THROTTLE;1058.0;AUX1;1684.0;AUX2;1500.0;AUX3;1500.0;AUX4;1500.0
ALTITUDE;0.0
DEBUG;DEBUG10.0;DEBUG2;0.0;DEBUG3;0.0;DEBUG4;0.0
ATTITUDE;ANGX;0.0;ANGY;0.0;HEAD;-117.0
STATUS;CYCLETIME;2924;I2CERR;0;PRESENT;23;MODE;0
RAW_IMU;AX;4.0;AY;0.0;AZ;257.0;GX;0.0;GY;0.0;GZ;0.0;MAGX;94.0;MAGY;-72.0;MAGZ;1.0
MOT;0;1000.0;1;1000.0;2;1000.0;3;1000.0;4;0.0;5;0.0;6;0.0;7;0.0;
RC;ROLL;1499.0;PITCH;1504.0;YAW;1680.0;THROTTLE;1058.0;AUX1;1681.0;AUX2;1500.0;AUX3;1500.0;AUX4;1500.0
ALTITUDE;0.0
DEBUG;DEBUG10.0;DEBUG2;0.0;DEBUG3;0.0;DEBUG4;0.0
ATTITUDE;ANGX;0.0;ANGY;0.0;HEAD;-117.0
STATUS;CYCLETIME;2924;I2CERR;0;PRESENT;23;MODE;0
RAW_IMU;AX;3.0;AY;1.0;AZ;256.0;GX;0.0;GY;0.0;GZ;0.0;MAGX;92.0;MAGY;-73.0;MAGZ;1.0
MOT;0;1000.0;1;1000.0;2;1000.0;3;1000.0;4;0.0;5;0.0;6;0.0;7;0.0;
RC;ROLL;1499.0;PITCH;1504.0;YAW;1749.0;THROTTLE;1056.0;AUX1;1681.0;AUX2;1500.0;AUX3;1500.0;AUX4;1500.0
ALTITUDE;0.0
DEBUG;DEBUG10.0;DEBUG2;0.0;DEBUG3;0.0;DEBUG4;0.0
ATTITUDE;ANGX;0.0;ANGY;0.0;HEAD;-117.0
STATUS;CYCLETIME;2904;I2CERR;0;PRESENT;23;MODE;0
RAW_IMU;AX;4.0;AY;2.0;AZ;258.0;GX;0.0;GY;0.0;GZ;0.0;MAGX;92.0;MAGY;-73.0;MAGZ;1.0
MOT;0;1000.0;1;1000.0;2;1000.0;3;1000.0;4;0.0;5;0.0;6;0.0;7;0.0;
RC;ROLL;1499.0;PITCH;1504.0;YAW;1838.0;THROTTLE;1056.0;AUX1;1683.0;AUX2;1500.0;AUX3;1500.0;AUX4;1500.0
ALTITUDE;0.0
DEBUG;DEBUG10.0;DEBUG2;0.0;DEBUG3;0.0;DEBUG4;0.0
ATTITUDE;ANGX;0.0;ANGY;0.0;HEAD;-117.0
STATUS;CYCLETIME;2856;I2CERR;0;PRESENT;23;MODE;0
RAW_IMU;AX;3.0;AY;1.0;AZ;257.0;GX;0.0;GY;0.0;GZ;0.0;MAGX;93.0;MAGY;-73.0;MAGZ;0.0
MOT;0;1000.0;1;1000.0;2;1000.0;3;1000.0;4;0.0;5;0.0;6;0.0;7;0.0;
RC;ROLL;1499.0;PITCH;1504.0;YAW;1886.0;THROTTLE;1056.0;AUX1;1679.0;AUX2;1500.0;AUX3;1500.0;AUX4;1500.0
ALTITUDE;0.0
DEBUG;DEBUG10.0;DEBUG2;0.0;DEBUG3;0.0;DEBUG4;0.0
ATTITUDE;ANGX;0.0;ANGY;0.0;HEAD;-117.0
STATUS;CYCLETIME;2880;I2CERR;0;PRESENT;23;MODE;0
RAW_IMU;AX;0.0;AY;0.0;AZ;256.0;GX;0.0;GY;0.0;GZ;0.0;MAGX;93.0;MAGY;-73.0;MAGZ;0.0
MOT;0;1000.0;1;1000.0;2;1000.0;3;1000.0;4;0.0;5;0.0;6;0.0;7;0.0;
RC;ROLL;1493.0;PITCH;1508.0;YAW;1902.0;THROTTLE;1052.0;AUX1;1677.0;AUX2;1500.0;AUX3;1500.0;AUX4;1500.0
ALTITUDE;0.0
DEBUG;DEBUG10.0;DEBUG2;0.0;DEBUG3;0.0;DEBUG4;0.0
ATTITUDE;ANGX;0.0;ANGY;0.0;HEAD;-117.0
STATUS;CYCLETIME;2864;I2CERR;0;PRESENT;23;MODE;0
RAW_IMU;AX;-1.0;AY;0.0;AZ;256.0;GX;0.0;GY;0.0;GZ;0.0;MAGX;93.0;MAGY;-72.0;MAGZ;0.0
MOT;0;1000.0;1;1000.0;2;1000.0;3;1000.0;4;0.0;5;0.0;6;0.0;7;0.0;
RC;ROLL;1493.0;PITCH;1508.0;YAW;1905.0;THROTTLE;1052.0;AUX1;1682.0;AUX2;1500.0;AUX3;1500.0;AUX4;1500.0
ALTITUDE;0.0
DEBUG;DEBUG10.0;DEBUG2;0.0;DEBUG3;0.0;DEBUG4;0.0
ATTITUDE;ANGX;0.0;ANGY;0.0;HEAD;-117.0
STATUS;CYCLETIME;2904;I2CERR;0;PRESENT;23;MODE;0
RAW_IMU;AX;2.0;AY;0.0;AZ;257.0;GX;0.0;GY;0.0;GZ;0.0;MAGX;93.0;MAGY;-72.0;MAGZ;0.0
MOT;0;1000.0;1;1000.0;2;1000.0;3;1000.0;4;0.0;5;0.0;6;0.0;7;0.0;
RC;ROLL;1493.0;PITCH;1508.0;YAW;1905.0;THROTTLE;1052.0;AUX1;1685.0;AUX2;1500.0;AUX3;1500.0;AUX4;1500.0
ALTITUDE;0.0
DEBUG;DEBUG10.0;DEBUG2;0.0;DEBUG3;0.0;DEBUG4;0.0
ATTITUDE;ANGX;0.0;ANGY;0.0;HEAD;-117.0
STATUS;CYCLETIME;2956;I2CERR;0;PRESENT;23;MODE;0
RAW_IMU;AX;2.0;AY;-1.0;AZ;258.0;GX;0.0;GY;0.0;GZ;0.0;MAGX;94.0;MAGY;-72.0;MAGZ;0.0
MOT;0;1000.0;1;1000.0;2;1000.0;3;1000.0;4;0.0;5;0.0;6;0.0;7;0.0;
RC;ROLL;1493.0;PITCH;1508.0;YAW;1902.0;THROTTLE;1052.0;AUX1;1685.0;AUX2;1500.0;AUX3;1500.0;AUX4;1500.0
ALTITUDE;0.0
DEBUG;DEBUG10.0;DEBUG2;0.0;DEBUG3;0.0;DEBUG4;0.0
ATTITUDE;ANGX;0.0;ANGY;0.0;HEAD;-117.0
STATUS;CYCLETIME;2888;I2CERR;0;PRESENT;23;MODE;0
RAW_IMU;AX;3.0;AY;0.0;AZ;259.0;GX;0.0;GY;0.0;GZ;0.0;MAGX;94.0;MAGY;-72.0;MAGZ;0.0
MOT;0;1000.0;1;1000.0;2;1000.0;3;1000.0;4;0.0;5;0.0;6;0.0;7;0.0;
RC;ROLL;1493.0;PITCH;1508.0;YAW;1890.0;THROTTLE;1052.0;AUX1;1685.0;AUX2;1500.0;AUX3;1500.0;AUX4;1500.0
ALTITUDE;0.0
DEBUG;DEBUG10.0;DEBUG2;0.0;DEBUG3;0.0;DEBUG4;0.0
ATTITUDE;ANGX;0.0;ANGY;0.0;HEAD;-117.0
STATUS;CYCLETIME;2896;I2CERR;0;PRESENT;23;MODE;0
RAW_IMU;AX;2.0;AY;1.0;AZ;257.0;GX;0.0;GY;0.0;GZ;0.0;MAGX;94.0;MAGY;-72.0;MAGZ;0.0
MOT;0;1000.0;1;1000.0;2;1000.0;3;1000.0;4;0.0;5;0.0;6;0.0;7;0.0;
RC;ROLL;1493.0;PITCH;1506.0;YAW;1855.0;THROTTLE;1054.0;AUX1;1685.0;AUX2;1500.0;AUX3;1500.0;AUX4;1500.0
ALTITUDE;0.0
DEBUG;DEBUG10.0;DEBUG2;0.0;DEBUG3;0.0;DEBUG4;0.0
ATTITUDE;ANGX;0.0;ANGY;0.0;HEAD;-117.0
STATUS;CYCLETIME;2924;I2CERR;0;PRESENT;23;MODE;0
RAW_IMU;AX;2.0;AY;2.0;AZ;257.0;GX;0.0;GY;0.0;GZ;0.0;MAGX;93.0;MAGY;-72.0;MAGZ;0.0
MOT;0;1000.0;1;1000.0;2;1000.0;3;1000.0;4;0.0;5;0.0;6;0.0;7;0.0;
RC;ROLL;1495.0;PITCH;1504.0;YAW;1671.0;THROTTLE;1056.0;AUX1;1681.0;AUX2;1500.0;AUX3;1500.0;AUX4;1500.0
ALTITUDE;0.0
DEBUG;DEBUG10.0;DEBUG2;0.0;DEBUG3;0.0;DEBUG4;0.0
ATTITUDE;ANGX;0.0;ANGY;0.0;HEAD;-117.0
STATUS;CYCLETIME;2844;I2CERR;0;PRESENT;23;MODE;0
RAW_IMU;AX;3.0;AY;0.0;AZ;256.0;GX;0.0;GY;0.0;GZ;0.0;MAGX;93.0;MAGY;-72.0;MAGZ;0.0
MOT;0;1000.0;1;1000.0;2;1000.0;3;1000.0;4;0.0;5;0.0;6;0.0;7;0.0;
RC;ROLL;1493.0;PITCH;1504.0;YAW;1548.0;THROTTLE;1056.0;AUX1;1681.0;AUX2;1500.0;AUX3;1500.0;AUX4;1500.0
ALTITUDE;0.0
DEBUG;DEBUG10.0;DEBUG2;0.0;DEBUG3;0.0;DEBUG4;0.0
ATTITUDE;ANGX;0.0;ANGY;0.0;HEAD;-117.0
STATUS;CYCLETIME;2876;I2CERR;0;PRESENT;23;MODE;0
RAW_IMU;AX;2.0;AY;0.0;AZ;256.0;GX;0.0;GY;0.0;GZ;0.0;MAGX;93.0;MAGY;-72.0;MAGZ;1.0
MOT;0;1000.0;1;1000.0;2;1000.0;3;1000.0;4;0.0;5;0.0;6;0.0;7;0.0;
RC;ROLL;1496.0;PITCH;1504.0;YAW;1502.0;THROTTLE;1056.0;AUX1;1678.0;AUX2;1500.0;AUX3;1500.0;AUX4;1500.0
ALTITUDE;0.0
DEBUG;DEBUG10.0;DEBUG2;0.0;DEBUG3;0.0;DEBUG4;0.0
ATTITUDE;ANGX;0.0;ANGY;0.0;HEAD;-117.0
STATUS;CYCLETIME;2920;I2CERR;0;PRESENT;23;MODE;0
RAW_IMU;AX;5.0;AY;-2.0;AZ;258.0;GX;0.0;GY;0.0;GZ;0.0;MAGX;93.0;MAGY;-72.0;MAGZ;1.0
MOT;0;1000.0;1;1000.0;2;1000.0;3;1000.0;4;0.0;5;0.0;6;0.0;7;0.0;
RC;ROLL;1498.0;PITCH;1504.0;YAW;1502.0;THROTTLE;1056.0;AUX1;1676.0;AUX2;1500.0;AUX3;1500.0;AUX4;1500.0
ALTITUDE;0.0
DEBUG;DEBUG10.0;DEBUG2;0.0;DEBUG3;0.0;DEBUG4;0.0
ATTITUDE;ANGX;0.0;ANGY;0.0;HEAD;-117.0
STATUS;CYCLETIME;2968;I2CERR;0;PRESENT;23;MODE;0
RAW_IMU;AX;2.0;AY;1.0;AZ;257.0;GX;0.0;GY;0.0;GZ;0.0;MAGX;93.0;MAGY;-73.0;MAGZ;1.0
MOT;0;1000.0;1;1000.0;2;1000.0;3;1000.0;4;0.0;5;0.0;6;0.0;7;0.0;
RC;ROLL;1498.0;PITCH;1504.0;YAW;1502.0;THROTTLE;1056.0;AUX1;1676.0;AUX2;1500.0;AUX3;1500.0;AUX4;1500.0
ALTITUDE;0.0
DEBUG;DEBUG10.0;DEBUG2;0.0;DEBUG3;0.0;DEBUG4;0.0
ATTITUDE;ANGX;0.0;ANGY;0.0;HEAD;-117.0
STATUS;CYCLETIME;2852;I2CERR;0;PRESENT;23;MODE;0
RAW_IMU;AX;1.0;AY;1.0;AZ;256.0;GX;0.0;GY;0.0;GZ;0.0;MAGX;93.0;MAGY;-73.0;MAGZ;1.0
MOT;0;1000.0;1;1000.0;2;1000.0;3;1000.0;4;0.0;5;0.0;6;0.0;7;0.0;
RC;ROLL;1494.0;PITCH;1508.0;YAW;1502.0;THROTTLE;1056.0;AUX1;1678.0;AUX2;1500.0;AUX3;1500.0;AUX4;1500.0
ALTITUDE;0.0
DEBUG;DEBUG10.0;DEBUG2;0.0;DEBUG3;0.0;DEBUG4;0.0
ATTITUDE;ANGX;0.0;ANGY;0.0;HEAD;-117.0
STATUS;CYCLETIME;2888;I2CERR;0;PRESENT;23;MODE;0
RAW_IMU;AX;2.0;AY;-1.0;AZ;257.0;GX;0.0;GY;0.0;GZ;0.0;MAGX;93.0;MAGY;-72.0;MAGZ;0.0
MOT;0;1000.0;1;1000.0;2;1000.0;3;1000.0;4;0.0;5;0.0;6;0.0;7;0.0;
RC;ROLL;1494.0;PITCH;1508.0;YAW;1500.0;THROTTLE;1060.0;AUX1;1678.0;AUX2;1500.0;AUX3;1500.0;AUX4;1500.0
ALTITUDE;0.0
DEBUG;DEBUG10.0;DEBUG2;0.0;DEBUG3;0.0;DEBUG4;0.0
ATTITUDE;ANGX;0.0;ANGY;0.0;HEAD;-117.0
STATUS;CYCLETIME;2876;I2CERR;0;PRESENT;23;MODE;0
RAW_IMU;AX;2.0;AY;1.0;AZ;256.0;GX;0.0;GY;0.0;GZ;0.0;MAGX;93.0;MAGY;-72.0;MAGZ;0.0
MOT;0;1000.0;1;1000.0;2;1000.0;3;1000.0;4;0.0;5;0.0;6;0.0;7;0.0;
RC;ROLL;1496.0;PITCH;1505.0;YAW;1500.0;THROTTLE;1062.0;AUX1;1678.0;AUX2;1500.0;AUX3;1500.0;AUX4;1500.0
ALTITUDE;0.0
DEBUG;DEBUG10.0;DEBUG2;0.0;DEBUG3;0.0;DEBUG4;0.0
ATTITUDE;ANGX;0.0;ANGY;0.0;HEAD;-117.0
STATUS;CYCLETIME;3052;I2CERR;0;PRESENT;23;MODE;0
RAW_IMU;AX;2.0;AY;2.0;AZ;257.0;GX;0.0;GY;0.0;GZ;0.0;MAGX;92.0;MAGY;-73.0;MAGZ;0.0
MOT;0;1000.0;1;1000.0;2;1000.0;3;1000.0;4;0.0;5;0.0;6;0.0;7;0.0;
RC;ROLL;1498.0;PITCH;1503.0;YAW;1504.0;THROTTLE;1062.0;AUX1;1678.0;AUX2;1500.0;AUX3;1500.0;AUX4;1500.0
ALTITUDE;0.0
DEBUG;DEBUG10.0;DEBUG2;0.0;DEBUG3;0.0;DEBUG4;0.0
ATTITUDE;ANGX;0.0;ANGY;0.0;HEAD;-117.0
STATUS;CYCLETIME;2852;I2CERR;0;PRESENT;23;MODE;0
RAW_IMU;AX;2.0;AY;2.0;AZ;258.0;GX;0.0;GY;0.0;GZ;0.0;MAGX;92.0;MAGY;-73.0;MAGZ;0.0
MOT;0;1000.0;1;1000.0;2;1000.0;3;1000.0;4;0.0;5;0.0;6;0.0;7;0.0;
RC;ROLL;1498.0;PITCH;1503.0;YAW;1504.0;THROTTLE;1062.0;AUX1;1674.0;AUX2;1500.0;AUX3;1500.0;AUX4;1500.0
ALTITUDE;0.0
DEBUG;DEBUG10.0;DEBUG2;0.0;DEBUG3;0.0;DEBUG4;0.0
ATTITUDE;ANGX;0.0;ANGY;0.0;HEAD;-117.0
STATUS;CYCLETIME;2892;I2CERR;0;PRESENT;23;MODE;0
RAW_IMU;AX;2.0;AY;1.0;AZ;256.0;GX;0.0;GY;0.0;GZ;0.0;MAGX;93.0;MAGY;-72.0;MAGZ;0.0
MOT;0;1000.0;1;1000.0;2;1000.0;3;1000.0;4;0.0;5;0.0;6;0.0;7;0.0;
RC;ROLL;1498.0;PITCH;1505.0;YAW;1504.0;THROTTLE;1062.0;AUX1;1674.0;AUX2;1500.0;AUX3;1500.0;AUX4;1500.0
ALTITUDE;0.0
DEBUG;DEBUG10.0;DEBUG2;0.0;DEBUG3;0.0;DEBUG4;0.0
ATTITUDE;ANGX;0.0;ANGY;0.0;HEAD;-117.0
STATUS;CYCLETIME;2916;I2CERR;0;PRESENT;23;MODE;0
RAW_IMU;AX;3.0;AY;0.0;AZ;257.0;GX;0.0;GY;0.0;GZ;0.0;MAGX;93.0;MAGY;-72.0;MAGZ;0.0
MOT;0;1000.0;1;1000.0;2;1000.0;3;1000.0;4;0.0;5;0.0;6;0.0;7;0.0;
RC;ROLL;1496.0;PITCH;1505.0;YAW;1504.0;THROTTLE;1057.0;AUX1;1676.0;AUX2;1500.0;AUX3;1500.0;AUX4;1500.0
ALTITUDE;0.0
DEBUG;DEBUG10.0;DEBUG2;0.0;DEBUG3;0.0;DEBUG4;0.0
ATTITUDE;ANGX;0.0;ANGY;0.0;HEAD;-117.0
STATUS;CYCLETIME;2916;I2CERR;0;PRESENT;23;MODE;0
RAW_IMU;AX;3.0;AY;-1.0;AZ;257.0;GX;0.0;GY;0.0;GZ;0.0;MAGX;93.0;MAGY;-72.0;MAGZ;0.0
MOT;0;1000.0;1;1000.0;2;1000.0;3;1000.0;4;0.0;5;0.0;6;0.0;7;0.0;
RC;ROLL;1496.0;PITCH;1505.0;YAW;1500.0;THROTTLE;1059.0;AUX1;1680.0;AUX2;1500.0;AUX3;1500.0;AUX4;1500.0
ALTITUDE;0.0
DEBUG;DEBUG10.0;DEBUG2;0.0;DEBUG3;0.0;DEBUG4;0.0
ATTITUDE;ANGX;0.0;ANGY;0.0;HEAD;-117.0
STATUS;CYCLETIME;2916;I2CERR;0;PRESENT;23;MODE;0
RAW_IMU;AX;3.0;AY;1.0;AZ;256.0;GX;0.0;GY;0.0;GZ;0.0;MAGX;93.0;MAGY;-74.0;MAGZ;1.0
MOT;0;1000.0;1;1000.0;2;1000.0;3;1000.0;4;0.0;5;0.0;6;0.0;7;0.0;
RC;ROLL;1496.0;PITCH;1505.0;YAW;1500.0;THROTTLE;1062.0;AUX1;1683.0;AUX2;1500.0;AUX3;1500.0;AUX4;1500.0
ALTITUDE;0.0
DEBUG;DEBUG10.0;DEBUG2;0.0;DEBUG3;0.0;DEBUG4;0.0
ATTITUDE;ANGX;0.0;ANGY;0.0;HEAD;-117.0
STATUS;CYCLETIME;2928;I2CERR;0;PRESENT;23;MODE;0
RAW_IMU;AX;2.0;AY;1.0;AZ;258.0;GX;0.0;GY;0.0;GZ;0.0;MAGX;93.0;MAGY;-74.0;MAGZ;1.0
MOT;0;1000.0;1;1000.0;2;1000.0;3;1000.0;4;0.0;5;0.0;6;0.0;7;0.0;
RC;ROLL;1496.0;PITCH;1505.0;YAW;1500.0;THROTTLE;1062.0;AUX1;1683.0;AUX2;1500.0;AUX3;1500.0;AUX4;1500.0
ALTITUDE;0.0
DEBUG;DEBUG10.0;DEBUG2;0.0;DEBUG3;0.0;DEBUG4;0.0
ATTITUDE;ANGX;0.0;ANGY;0.0;HEAD;-117.0
STATUS;CYCLETIME;2916;I2CERR;0;PRESENT;23;MODE;0
RAW_IMU;AX;3.0;AY;-2.0;AZ;256.0;GX;0.0;GY;0.0;GZ;0.0;MAGX;94.0;MAGY;-72.0;MAGZ;0.0
MOT;0;1000.0;1;1000.0;2;1000.0;3;1000.0;4;0.0;5;0.0;6;0.0;7;0.0;
RC;ROLL;1500.0;PITCH;1505.0;YAW;1500.0;THROTTLE;1062.0;AUX1;1683.0;AUX2;1500.0;AUX3;1500.0;AUX4;1500.0
ALTITUDE;0.0
DEBUG;DEBUG10.0;DEBUG2;0.0;DEBUG3;0.0;DEBUG4;0.0
ATTITUDE;ANGX;0.0;ANGY;0.0;HEAD;-117.0
STATUS;CYCLETIME;3028;I2CERR;0;PRESENT;23;MODE;0
RAW_IMU;AX;0.0;AY;1.0;AZ;257.0;GX;0.0;GY;0.0;GZ;0.0;MAGX;94.0;MAGY;-72.0;MAGZ;0.0
MOT;0;1000.0;1;1000.0;2;1000.0;3;1000.0;4;0.0;5;0.0;6;0.0;7;0.0;
RC;ROLL;1497.0;PITCH;1512.0;YAW;1500.0;THROTTLE;1058.0;AUX1;1681.0;AUX2;1500.0;AUX3;1500.0;AUX4;1500.0
ALTITUDE;0.0
DEBUG;DEBUG10.0;DEBUG2;0.0;DEBUG3;0.0;DEBUG4;0.0
ATTITUDE;ANGX;0.0;ANGY;0.0;HEAD;-117.0
STATUS;CYCLETIME;2928;I2CERR;0;PRESENT;23;MODE;0
RAW_IMU;AX;1.0;AY;2.0;AZ;256.0;GX;0.0;GY;0.0;GZ;0.0;MAGX;93.0;MAGY;-73.0;MAGZ;1.0
MOT;0;1000.0;1;1000.0;2;1000.0;3;1000.0;4;0.0;5;0.0;6;0.0;7;0.0;
RC;ROLL;1497.0;PITCH;1512.0;YAW;1502.0;THROTTLE;1058.0;AUX1;1681.0;AUX2;1500.0;AUX3;1500.0;AUX4;1500.0
ALTITUDE;0.0
DEBUG;DEBUG10.0;DEBUG2;0.0;DEBUG3;0.0;DEBUG4;0.0
ATTITUDE;ANGX;0.0;ANGY;0.0;HEAD;-117.0
STATUS;CYCLETIME;2908;I2CERR;0;PRESENT;23;MODE;0
RAW_IMU;AX;1.0;AY;0.0;AZ;254.0;GX;0.0;GY;0.0;GZ;0.0;MAGX;93.0;MAGY;-73.0;MAGZ;1.0
MOT;0;1000.0;1;1000.0;2;1000.0;3;1000.0;4;0.0;5;0.0;6;0.0;7;0.0;
RC;ROLL;1497.0;PITCH;1508.0;YAW;1504.0;THROTTLE;1058.0;AUX1;1678.0;AUX2;1500.0;AUX3;1500.0;AUX4;1500.0
ALTITUDE;0.0
DEBUG;DEBUG10.0;DEBUG2;0.0;DEBUG3;0.0;DEBUG4;0.0
ATTITUDE;ANGX;0.0;ANGY;0.0;HEAD;-117.0
STATUS;CYCLETIME;2924;I2CERR;0;PRESENT;23;MODE;0
RAW_IMU;AX;3.0;AY;2.0;AZ;256.0;GX;0.0;GY;0.0;GZ;0.0;MAGX;93.0;MAGY;-72.0;MAGZ;1.0
MOT;0;1000.0;1;1000.0;2;1000.0;3;1000.0;4;0.0;5;0.0;6;0.0;7;0.0;
RC;ROLL;1495.0;PITCH;1508.0;YAW;1477.0;THROTTLE;1060.0;AUX1;1683.0;AUX2;1500.0;AUX3;1500.0;AUX4;1500.0
ALTITUDE;0.0
DEBUG;DEBUG10.0;DEBUG2;0.0;DEBUG3;0.0;DEBUG4;0.0
ATTITUDE;ANGX;0.0;ANGY;0.0;HEAD;-117.0
STATUS;CYCLETIME;2900;I2CERR;0;PRESENT;23;MODE;0
RAW_IMU;AX;3.0;AY;1.0;AZ;258.0;GX;0.0;GY;0.0;GZ;0.0;MAGX;93.0;MAGY;-72.0;MAGZ;1.0
MOT;0;1000.0;1;1000.0;2;1000.0;3;1000.0;4;0.0;5;0.0;6;0.0;7;0.0;
RC;ROLL;1495.0;PITCH;1506.0;YAW;1405.0;THROTTLE;1062.0;AUX1;1686.0;AUX2;1500.0;AUX3;1500.0;AUX4;1500.0
ALTITUDE;0.0
DEBUG;DEBUG10.0;DEBUG2;0.0;DEBUG3;0.0;DEBUG4;0.0
ATTITUDE;ANGX;0.0;ANGY;0.0;HEAD;-117.0
STATUS;CYCLETIME;2872;I2CERR;0;PRESENT;23;MODE;0
RAW_IMU;AX;3.0;AY;0.0;AZ;257.0;GX;0.0;GY;0.0;GZ;0.0;MAGX;93.0;MAGY;-73.0;MAGZ;0.0
MOT;0;1000.0;1;1000.0;2;1000.0;3;1000.0;4;0.0;5;0.0;6;0.0;7;0.0;
RC;ROLL;1495.0;PITCH;1506.0;YAW;1203.0;THROTTLE;1059.0;AUX1;1691.0;AUX2;1500.0;AUX3;1500.0;AUX4;1500.0
ALTITUDE;0.0
DEBUG;DEBUG10.0;DEBUG2;0.0;DEBUG3;0.0;DEBUG4;0.0
ATTITUDE;ANGX;0.0;ANGY;0.0;HEAD;-117.0
STATUS;CYCLETIME;2908;I2CERR;0;PRESENT;23;MODE;0
RAW_IMU;AX;3.0;AY;-1.0;AZ;258.0;GX;0.0;GY;0.0;GZ;0.0;MAGX;93.0;MAGY;-73.0;MAGZ;0.0
MOT;0;1000.0;1;1000.0;2;1000.0;3;1000.0;4;0.0;5;0.0;6;0.0;7;0.0;
RC;ROLL;1495.0;PITCH;1510.0;YAW;1067.0;THROTTLE;1053.0;AUX1;1691.0;AUX2;1500.0;AUX3;1500.0;AUX4;1500.0
ALTITUDE;0.0
DEBUG;DEBUG10.0;DEBUG2;0.0;DEBUG3;0.0;DEBUG4;0.0
ATTITUDE;ANGX;0.0;ANGY;0.0;HEAD;-117.0
STATUS;CYCLETIME;2972;I2CERR;0;PRESENT;23;MODE;0
RAW_IMU;AX;2.0;AY;-1.0;AZ;258.0;GX;0.0;GY;0.0;GZ;0.0;MAGX;93.0;MAGY;-72.0;MAGZ;0.0
MOT;0;1000.0;1;1000.0;2;1000.0;3;1000.0;4;0.0;5;0.0;6;0.0;7;0.0;
RC;ROLL;1495.0;PITCH;1512.0;YAW;1036.0;THROTTLE;1056.0;AUX1;1691.0;AUX2;1500.0;AUX3;1500.0;AUX4;1500.0
ALTITUDE;0.0
DEBUG;DEBUG10.0;DEBUG2;0.0;DEBUG3;0.0;DEBUG4;0.0
ATTITUDE;ANGX;0.0;ANGY;0.0;HEAD;-117.0
STATUS;CYCLETIME;2992;I2CERR;0;PRESENT;23;MODE;0
RAW_IMU;AX;3.0;AY;-1.0;AZ;257.0;GX;0.0;GY;0.0;GZ;0.0;MAGX;93.0;MAGY;-72.0;MAGZ;0.0
MOT;0;1000.0;1;1000.0;2;1000.0;3;1000.0;4;0.0;5;0.0;6;0.0;7;0.0;
RC;ROLL;1495.0;PITCH;1509.0;YAW;1034.0;THROTTLE;1056.0;AUX1;1689.0;AUX2;1500.0;AUX3;1500.0;AUX4;1500.0
ALTITUDE;0.0
DEBUG;DEBUG10.0;DEBUG2;0.0;DEBUG3;0.0;DEBUG4;0.0
ATTITUDE;ANGX;0.0;ANGY;0.0;HEAD;-117.0
STATUS;CYCLETIME;2856;I2CERR;0;PRESENT;23;MODE;0
RAW_IMU;AX;3.0;AY;-1.0;AZ;257.0;GX;0.0;GY;0.0;GZ;0.0;MAGX;93.0;MAGY;-72.0;MAGZ;0.0
MOT;0;1000.0;1;1000.0;2;1000.0;3;1000.0;4;0.0;5;0.0;6;0.0;7;0.0;
RC;ROLL;1495.0;PITCH;1509.0;YAW;1034.0;THROTTLE;1056.0;AUX1;1687.0;AUX2;1500.0;AUX3;1500.0;AUX4;1500.0
ALTITUDE;0.0
DEBUG;DEBUG10.0;DEBUG2;0.0;DEBUG3;0.0;DEBUG4;0.0
ATTITUDE;ANGX;0.0;ANGY;0.0;HEAD;-117.0
STATUS;CYCLETIME;2880;I2CERR;0;PRESENT;23;MODE;0
RAW_IMU;AX;4.0;AY;-1.0;AZ;258.0;GX;0.0;GY;0.0;GZ;0.0;MAGX;93.0;MAGY;-73.0;MAGZ;0.0
MOT;0;1000.0;1;1000.0;2;1000.0;3;1000.0;4;0.0;5;0.0;6;0.0;7;0.0;
RC;ROLL;1493.0;PITCH;1511.0;YAW;1034.0;THROTTLE;1054.0;AUX1;1687.0;AUX2;1500.0;AUX3;1500.0;AUX4;1500.0
ALTITUDE;0.0
DEBUG;DEBUG10.0;DEBUG2;0.0;DEBUG3;0.0;DEBUG4;0.0
ATTITUDE;ANGX;0.0;ANGY;0.0;HEAD;-117.0
STATUS;CYCLETIME;2896;I2CERR;0;PRESENT;23;MODE;0
RAW_IMU;AX;3.0;AY;-1.0;AZ;255.0;GX;0.0;GY;0.0;GZ;0.0;MAGX;93.0;MAGY;-73.0;MAGZ;0.0
MOT;0;1000.0;1;1000.0;2;1000.0;3;1000.0;4;0.0;5;0.0;6;0.0;7;0.0;
RC;ROLL;1493.0;PITCH;1511.0;YAW;1036.0;THROTTLE;1051.0;AUX1;1684.0;AUX2;1500.0;AUX3;1500.0;AUX4;1500.0
ALTITUDE;0.0
DEBUG;DEBUG10.0;DEBUG2;0.0;DEBUG3;0.0;DEBUG4;0.0
ATTITUDE;ANGX;0.0;ANGY;0.0;HEAD;-117.0
STATUS;CYCLETIME;2916;I2CERR;0;PRESENT;23;MODE;0
RAW_IMU;AX;2.0;AY;1.0;AZ;255.0;GX;0.0;GY;0.0;GZ;0.0;MAGX;93.0;MAGY;-72.0;MAGZ;0.0
MOT;0;1000.0;1;1000.0;2;1000.0;3;1000.0;4;0.0;5;0.0;6;0.0;7;0.0;
RC;ROLL;1493.0;PITCH;1511.0;YAW;1036.0;THROTTLE;1049.0;AUX1;1684.0;AUX2;1500.0;AUX3;1500.0;AUX4;1500.0
ALTITUDE;0.0
DEBUG;DEBUG10.0;DEBUG2;0.0;DEBUG3;0.0;DEBUG4;0.0
ATTITUDE;ANGX;0.0;ANGY;0.0;HEAD;-117.0
STATUS;CYCLETIME;2924;I2CERR;0;PRESENT;23;MODE;0
RAW_IMU;AX;3.0;AY;0.0;AZ;258.0;GX;0.0;GY;0.0;GZ;0.0;MAGX;93.0;MAGY;-72.0;MAGZ;0.0
MOT;0;1000.0;1;1000.0;2;1000.0;3;1000.0;4;0.0;5;0.0;6;0.0;7;0.0;
RC;ROLL;1490.0;PITCH;1511.0;YAW;1036.0;THROTTLE;1053.0;AUX1;1687.0;AUX2;1500.0;AUX3;1500.0;AUX4;1500.0
ALTITUDE;0.0
DEBUG;DEBUG10.0;DEBUG2;0.0;DEBUG3;0.0;DEBUG4;0.0
ATTITUDE;ANGX;0.0;ANGY;0.0;HEAD;-117.0
STATUS;CYCLETIME;2888;I2CERR;0;PRESENT;23;MODE;0
RAW_IMU;AX;1.0;AY;1.0;AZ;259.0;GX;0.0;GY;0.0;GZ;0.0;MAGX;94.0;MAGY;-72.0;MAGZ;0.0
MOT;0;1000.0;1;1000.0;2;1000.0;3;1000.0;4;0.0;5;0.0;6;0.0;7;0.0;
RC;ROLL;1492.0;PITCH;1511.0;YAW;1036.0;THROTTLE;1053.0;AUX1;1687.0;AUX2;1500.0;AUX3;1500.0;AUX4;1500.0
ALTITUDE;0.0
DEBUG;DEBUG10.0;DEBUG2;0.0;DEBUG3;0.0;DEBUG4;0.0
ATTITUDE;ANGX;0.0;ANGY;0.0;HEAD;-117.0
STATUS;CYCLETIME;2848;I2CERR;0;PRESENT;23;MODE;0
RAW_IMU;AX;3.0;AY;-1.0;AZ;257.0;GX;0.0;GY;0.0;GZ;0.0;MAGX;94.0;MAGY;-72.0;MAGZ;0.0
MOT;0;1000.0;1;1000.0;2;1000.0;3;1000.0;4;0.0;5;0.0;6;0.0;7;0.0;
RC;ROLL;1497.0;PITCH;1508.0;YAW;1036.0;THROTTLE;1053.0;AUX1;1687.0;AUX2;1500.0;AUX3;1500.0;AUX4;1500.0
ALTITUDE;0.0
DEBUG;DEBUG10.0;DEBUG2;0.0;DEBUG3;0.0;DEBUG4;0.0
ATTITUDE;ANGX;0.0;ANGY;0.0;HEAD;-117.0
STATUS;CYCLETIME;3064;I2CERR;0;PRESENT;23;MODE;0
RAW_IMU;AX;1.0;AY;0.0;AZ;258.0;GX;0.0;GY;0.0;GZ;0.0;MAGX;93.0;MAGY;-72.0;MAGZ;2.0
MOT;0;1000.0;1;1000.0;2;1000.0;3;1000.0;4;0.0;5;0.0;6;0.0;7;0.0;
RC;ROLL;1500.0;PITCH;1502.0;YAW;1074.0;THROTTLE;1053.0;AUX1;1682.0;AUX2;1500.0;AUX3;1500.0;AUX4;1500.0
ALTITUDE;0.0
DEBUG;DEBUG10.0;DEBUG2;0.0;DEBUG3;0.0;DEBUG4;0.0
ATTITUDE;ANGX;0.0;ANGY;0.0;HEAD;-117.0
STATUS;CYCLETIME;2888;I2CERR;0;PRESENT;23;MODE;0
RAW_IMU;AX;1.0;AY;0.0;AZ;258.0;GX;0.0;GY;0.0;GZ;0.0;MAGX;93.0;MAGY;-72.0;MAGZ;2.0
MOT;0;1000.0;1;1000.0;2;1000.0;3;1000.0;4;0.0;5;0.0;6;0.0;7;0.0;
RC;ROLL;1498.0;PITCH;1502.0;YAW;1200.0;THROTTLE;1057.0;AUX1;1682.0;AUX2;1500.0;AUX3;1500.0;AUX4;1500.0
ALTITUDE;0.0
DEBUG;DEBUG10.0;DEBUG2;0.0;DEBUG3;0.0;DEBUG4;0.0
ATTITUDE;ANGX;0.0;ANGY;0.0;HEAD;-117.0
STATUS;CYCLETIME;2916;I2CERR;0;PRESENT;23;MODE;0
RAW_IMU;AX;1.0;AY;0.0;AZ;257.0;GX;0.0;GY;0.0;GZ;0.0;MAGX;93.0;MAGY;-72.0;MAGZ;0.0
MOT;0;1000.0;1;1000.0;2;1000.0;3;1000.0;4;0.0;5;0.0;6;0.0;7;0.0;
RC;ROLL;1498.0;PITCH;1506.0;YAW;1376.0;THROTTLE;1057.0;AUX1;1679.0;AUX2;1500.0;AUX3;1500.0;AUX4;1500.0
ALTITUDE;0.0
DEBUG;DEBUG10.0;DEBUG2;0.0;DEBUG3;0.0;DEBUG4;0.0
ATTITUDE;ANGX;0.0;ANGY;0.0;HEAD;-117.0
STATUS;CYCLETIME;2852;I2CERR;0;PRESENT;23;MODE;0
RAW_IMU;AX;2.0;AY;-1.0;AZ;257.0;GX;0.0;GY;0.0;GZ;0.0;MAGX;93.0;MAGY;-72.0;MAGZ;0.0
MOT;0;1000.0;1;1000.0;2;1000.0;3;1000.0;4;0.0;5;0.0;6;0.0;7;0.0;
RC;ROLL;1498.0;PITCH;1506.0;YAW;1496.0;THROTTLE;1057.0;AUX1;1679.0;AUX2;1500.0;AUX3;1500.0;AUX4;1500.0
ALTITUDE;0.0
DEBUG;DEBUG10.0;DEBUG2;0.0;DEBUG3;0.0;DEBUG4;0.0
ATTITUDE;ANGX;0.0;ANGY;0.0;HEAD;-117.0
STATUS;CYCLETIME;3180;I2CERR;0;PRESENT;23;MODE;0
RAW_IMU;AX;2.0;AY;1.0;AZ;257.0;GX;0.0;GY;0.0;GZ;0.0;MAGX;92.0;MAGY;-72.0;MAGZ;0.0
MOT;0;1000.0;1;1000.0;2;1000.0;3;1000.0;4;0.0;5;0.0;6;0.0;7;0.0;
RC;ROLL;1498.0;PITCH;1506.0;YAW;1506.0;THROTTLE;1057.0;AUX1;1679.0;AUX2;1500.0;AUX3;1500.0;AUX4;1500.0
ALTITUDE;0.0
DEBUG;DEBUG10.0;DEBUG2;0.0;DEBUG3;0.0;DEBUG4;0.0
ATTITUDE;ANGX;0.0;ANGY;0.0;HEAD;-117.0
STATUS;CYCLETIME;2892;I2CERR;0;PRESENT;23;MODE;0
RAW_IMU;AX;2.0;AY;0.0;AZ;255.0;GX;0.0;GY;0.0;GZ;0.0;MAGX;92.0;MAGY;-72.0;MAGZ;0.0
MOT;0;1000.0;1;1000.0;2;1000.0;3;1000.0;4;0.0;5;0.0;6;0.0;7;0.0;
RC;ROLL;1498.0;PITCH;1504.0;YAW;1509.0;THROTTLE;1057.0;AUX1;1679.0;AUX2;1500.0;AUX3;1500.0;AUX4;1500.0
ALTITUDE;0.0
DEBUG;DEBUG10.0;DEBUG2;0.0;DEBUG3;0.0;DEBUG4;0.0
ATTITUDE;ANGX;0.0;ANGY;0.0;HEAD;-117.0
STATUS;CYCLETIME;2852;I2CERR;0;PRESENT;23;MODE;0
RAW_IMU;AX;2.0;AY;0.0;AZ;253.0;GX;0.0;GY;0.0;GZ;0.0;MAGX;92.0;MAGY;-72.0;MAGZ;0.0
MOT;0;1000.0;1;1000.0;2;1000.0;3;1000.0;4;0.0;5;0.0;6;0.0;7;0.0;
RC;ROLL;1495.0;PITCH;1504.0;YAW;1509.0;THROTTLE;1057.0;AUX1;1679.0;AUX2;1500.0;AUX3;1500.0;AUX4;1500.0
ALTITUDE;0.0
DEBUG;DEBUG10.0;DEBUG2;0.0;DEBUG3;0.0;DEBUG4;0.0
ATTITUDE;ANGX;0.0;ANGY;0.0;HEAD;-117.0
STATUS;CYCLETIME;2868;I2CERR;0;PRESENT;23;MODE;0
RAW_IMU;AX;3.0;AY;0.0;AZ;256.0;GX;0.0;GY;0.0;GZ;0.0;MAGX;93.0;MAGY;-72.0;MAGZ;0.0
MOT;0;1000.0;1;1000.0;2;1000.0;3;1000.0;4;0.0;5;0.0;6;0.0;7;0.0;
RC;ROLL;1495.0;PITCH;1508.0;YAW;1509.0;THROTTLE;1057.0;AUX1;1679.0;AUX2;1500.0;AUX3;1500.0;AUX4;1500.0
ALTITUDE;0.0
DEBUG;DEBUG10.0;DEBUG2;0.0;DEBUG3;0.0;DEBUG4;0.0
ATTITUDE;ANGX;0.0;ANGY;0.0;HEAD;-117.0
STATUS;CYCLETIME;3000;I2CERR;0;PRESENT;23;MODE;0
RAW_IMU;AX;2.0;AY;-1.0;AZ;257.0;GX;0.0;GY;0.0;GZ;0.0;MAGX;93.0;MAGY;-72.0;MAGZ;0.0
MOT;0;1000.0;1;1000.0;2;1000.0;3;1000.0;4;0.0;5;0.0;6;0.0;7;0.0;
RC;ROLL;1495.0;PITCH;1508.0;YAW;1509.0;THROTTLE;1057.0;AUX1;1679.0;AUX2;1500.0;AUX3;1500.0;AUX4;1500.0
ALTITUDE;0.0
DEBUG;DEBUG10.0;DEBUG2;0.0;DEBUG3;0.0;DEBUG4;0.0
ATTITUDE;ANGX;0.0;ANGY;0.0;HEAD;-117.0
STATUS;CYCLETIME;2952;I2CERR;0;PRESENT;23;MODE;0
RAW_IMU;AX;4.0;AY;-1.0;AZ;259.0;GX;0.0;GY;0.0;GZ;0.0;MAGX;94.0;MAGY;-73.0;MAGZ;0.0
MOT;0;1000.0;1;1000.0;2;1000.0;3;1000.0;4;0.0;5;0.0;6;0.0;7;0.0;
RC;ROLL;1497.0;PITCH;1504.0;YAW;1509.0;THROTTLE;1059.0;AUX1;1679.0;AUX2;1500.0;AUX3;1500.0;AUX4;1500.0
ALTITUDE;0.0
DEBUG;DEBUG10.0;DEBUG2;0.0;DEBUG3;0.0;DEBUG4;0.0
ATTITUDE;ANGX;0.0;ANGY;0.0;HEAD;-117.0
STATUS;CYCLETIME;2912;I2CERR;0;PRESENT;23;MODE;0
RAW_IMU;AX;2.0;AY;0.0;AZ;258.0;GX;0.0;GY;0.0;GZ;0.0;MAGX;94.0;MAGY;-73.0;MAGZ;0.0
MOT;0;1000.0;1;1000.0;2;1000.0;3;1000.0;4;0.0;5;0.0;6;0.0;7;0.0;
RC;ROLL;1499.0;PITCH;1504.0;YAW;1505.0;THROTTLE;1059.0;AUX1;1682.0;AUX2;1500.0;AUX3;1500.0;AUX4;1500.0
ALTITUDE;0.0
DEBUG;DEBUG10.0;DEBUG2;0.0;DEBUG3;0.0;DEBUG4;0.0
ATTITUDE;ANGX;0.0;ANGY;0.0;HEAD;-117.0
STATUS;CYCLETIME;2912;I2CERR;0;PRESENT;23;MODE;0
RAW_IMU;AX;3.0;AY;1.0;AZ;260.0;GX;0.0;GY;0.0;GZ;0.0;MAGX;93.0;MAGY;-73.0;MAGZ;0.0
MOT;0;1000.0;1;1000.0;2;1000.0;3;1000.0;4;0.0;5;0.0;6;0.0;7;0.0;
RC;ROLL;1497.0;PITCH;1508.0;YAW;1505.0;THROTTLE;1059.0;AUX1;1682.0;AUX2;1500.0;AUX3;1500.0;AUX4;1500.0
ALTITUDE;0.0
DEBUG;DEBUG10.0;DEBUG2;0.0;DEBUG3;0.0;DEBUG4;0.0
ATTITUDE;ANGX;0.0;ANGY;0.0;HEAD;-117.0
STATUS;CYCLETIME;2892;I2CERR;0;PRESENT;23;MODE;0
RAW_IMU;AX;2.0;AY;1.0;AZ;257.0;GX;0.0;GY;0.0;GZ;0.0;MAGX;93.0;MAGY;-73.0;MAGZ;0.0
MOT;0;1000.0;1;1000.0;2;1000.0;3;1000.0;4;0.0;5;0.0;6;0.0;7;0.0;
RC;ROLL;1497.0;PITCH;1508.0;YAW;1507.0;THROTTLE;1059.0;AUX1;1682.0;AUX2;1500.0;AUX3;1500.0;AUX4;1500.0
ALTITUDE;0.0
DEBUG;DEBUG10.0;DEBUG2;0.0;DEBUG3;0.0;DEBUG4;0.0
ATTITUDE;ANGX;0.0;ANGY;0.0;HEAD;-117.0
STATUS;CYCLETIME;2888;I2CERR;0;PRESENT;23;MODE;0
RAW_IMU;AX;0.0;AY;1.0;AZ;258.0;GX;0.0;GY;0.0;GZ;0.0;MAGX;93.0;MAGY;-72.0;MAGZ;0.0
MOT;0;1000.0;1;1000.0;2;1000.0;3;1000.0;4;0.0;5;0.0;6;0.0;7;0.0;
RC;ROLL;1499.0;PITCH;1508.0;YAW;1511.0;THROTTLE;1055.0;AUX1;1682.0;AUX2;1500.0;AUX3;1500.0;AUX4;1500.0
ALTITUDE;0.0
DEBUG;DEBUG10.0;DEBUG2;0.0;DEBUG3;0.0;DEBUG4;0.0
ATTITUDE;ANGX;0.0;ANGY;0.0;HEAD;-117.0
STATUS;CYCLETIME;2968;I2CERR;0;PRESENT;23;MODE;0
RAW_IMU;AX;2.0;AY;3.0;AZ;256.0;GX;0.0;GY;0.0;GZ;0.0;MAGX;93.0;MAGY;-72.0;MAGZ;0.0
MOT;0;1000.0;1;1000.0;2;1000.0;3;1000.0;4;0.0;5;0.0;6;0.0;7;0.0;
RC;ROLL;1499.0;PITCH;1508.0;YAW;1511.0;THROTTLE;1055.0;AUX1;1684.0;AUX2;1500.0;AUX3;1500.0;AUX4;1500.0
ALTITUDE;0.0
DEBUG;DEBUG10.0;DEBUG2;0.0;DEBUG3;0.0;DEBUG4;0.0
ATTITUDE;ANGX;0.0;ANGY;0.0;HEAD;-117.0
STATUS;CYCLETIME;2904;I2CERR;0;PRESENT;23;MODE;0
RAW_IMU;AX;3.0;AY;2.0;AZ;258.0;GX;0.0;GY;0.0;GZ;0.0;MAGX;93.0;MAGY;-73.0;MAGZ;1.0
MOT;0;1000.0;1;1000.0;2;1000.0;3;1000.0;4;0.0;5;0.0;6;0.0;7;0.0;
RC;ROLL;1499.0;PITCH;1508.0;YAW;1511.0;THROTTLE;1057.0;AUX1;1681.0;AUX2;1500.0;AUX3;1500.0;AUX4;1500.0
ALTITUDE;0.0
DEBUG;DEBUG10.0;DEBUG2;0.0;DEBUG3;0.0;DEBUG4;0.0
ATTITUDE;ANGX;0.0;ANGY;0.0;HEAD;-117.0
STATUS;CYCLETIME;3000;I2CERR;0;PRESENT;23;MODE;0
RAW_IMU;AX;4.0;AY;1.0;AZ;258.0;GX;0.0;GY;0.0;GZ;0.0;MAGX;93.0;MAGY;-73.0;MAGZ;1.0
MOT;0;1000.0;1;1000.0;2;1000.0;3;1000.0;4;0.0;5;0.0;6;0.0;7;0.0;
RC;ROLL;1497.0;PITCH;1508.0;YAW;1511.0;THROTTLE;1059.0;AUX1;1681.0;AUX2;1500.0;AUX3;1500.0;AUX4;1500.0
ALTITUDE;0.0
DEBUG;DEBUG10.0;DEBUG2;0.0;DEBUG3;0.0;DEBUG4;0.0
ATTITUDE;ANGX;0.0;ANGY;0.0;HEAD;-117.0
STATUS;CYCLETIME;3128;I2CERR;0;PRESENT;23;MODE;0
RAW_IMU;AX;3.0;AY;0.0;AZ;256.0;GX;0.0;GY;0.0;GZ;0.0;MAGX;93.0;MAGY;-72.0;MAGZ;0.0
MOT;0;1000.0;1;1000.0;2;1000.0;3;1000.0;4;0.0;5;0.0;6;0.0;7;0.0;
RC;ROLL;1493.0;PITCH;1510.0;YAW;1511.0;THROTTLE;1057.0;AUX1;1681.0;AUX2;1500.0;AUX3;1500.0;AUX4;1500.0
ALTITUDE;0.0
DEBUG;DEBUG10.0;DEBUG2;0.0;DEBUG3;0.0;DEBUG4;0.0
ATTITUDE;ANGX;0.0;ANGY;0.0;HEAD;-117.0
STATUS;CYCLETIME;2868;I2CERR;0;PRESENT;23;MODE;0
RAW_IMU;AX;3.0;AY;3.0;AZ;257.0;GX;0.0;GY;0.0;GZ;0.0;MAGX;93.0;MAGY;-72.0;MAGZ;0.0
MOT;0;1000.0;1;1000.0;2;1000.0;3;1000.0;4;0.0;5;0.0;6;0.0;7;0.0;
RC;ROLL;1493.0;PITCH;1506.0;YAW;1511.0;THROTTLE;1057.0;AUX1;1681.0;AUX2;1500.0;AUX3;1500.0;AUX4;1500.0
ALTITUDE;0.0
DEBUG;DEBUG10.0;DEBUG2;0.0;DEBUG3;0.0;DEBUG4;0.0
ATTITUDE;ANGX;0.0;ANGY;0.0;HEAD;-117.0
STATUS;CYCLETIME;2904;I2CERR;0;PRESENT;23;MODE;0
RAW_IMU;AX;1.0;AY;1.0;AZ;257.0;GX;0.0;GY;0.0;GZ;0.0;MAGX;93.0;MAGY;-72.0;MAGZ;0.0
MOT;0;1000.0;1;1000.0;2;1000.0;3;1000.0;4;0.0;5;0.0;6;0.0;7;0.0;
RC;ROLL;1495.0;PITCH;1506.0;YAW;1511.0;THROTTLE;1057.0;AUX1;1681.0;AUX2;1500.0;AUX3;1500.0;AUX4;1500.0
ALTITUDE;0.0
DEBUG;DEBUG10.0;DEBUG2;0.0;DEBUG3;0.0;DEBUG4;0.0
ATTITUDE;ANGX;0.0;ANGY;0.0;HEAD;-117.0
STATUS;CYCLETIME;2888;I2CERR;0;PRESENT;23;MODE;0
RAW_IMU;AX;2.0;AY;1.0;AZ;257.0;GX;0.0;GY;0.0;GZ;0.0;MAGX;93.0;MAGY;-73.0;MAGZ;0.0
MOT;0;1000.0;1;1000.0;2;1000.0;3;1000.0;4;0.0;5;0.0;6;0.0;7;0.0;
RC;ROLL;1495.0;PITCH;1506.0;YAW;1513.0;THROTTLE;1057.0;AUX1;1681.0;AUX2;1500.0;AUX3;1500.0;AUX4;1500.0
ALTITUDE;0.0
