IDENT;V;220;TYPE;3
MSP_MOTOR_PINS
STATUS;CYCLETIME;2832;I2CERR;0;PRESENT;23;MODE;0
RAW_IMU;AX;2.0;AY;0.0;AZ;258.0;GX;0.0;GY;0.0;GZ;0.0;MAGX;87.0;MAGY;-70.0;MAGZ;-15.0
MOT;0;1000.0;1;1000.0;2;1000.0;3;1000.0;4;0.0;5;0.0;6;0.0;7;0.0;
RC;ROLL;1495.0;PITCH;1501.0;YAW;1502.0;THROTTLE;1066.0;AUX1;1679.0;AUX2;1500.0;AUX3;1500.0;AUX4;1500.0
ALTITUDE;0.0
DEBUG;DEBUG10.0;DEBUG2;0.0;DEBUG3;0.0;DEBUG4;0.0
ATTITUDE;ANGX;0.0;ANGY;1.0;HEAD;-118.0
STATUS;CYCLETIME;2792;I2CERR;0;PRESENT;23;MODE;0
RAW_IMU;AX;3.0;AY;-1.0;AZ;258.0;GX;0.0;GY;0.0;GZ;0.0;MAGX;88.0;MAGY;-70.0;MAGZ;-16.0
MOT;0;1000.0;1;1000.0;2;1000.0;3;1000.0;4;0.0;5;0.0;6;0.0;7;0.0;
RC;ROLL;1495.0;PITCH;1501.0;YAW;1502.0;THROTTLE;1066.0;AUX1;1679.0;AUX2;1500.0;AUX3;1500.0;AUX4;1500.0
ALTITUDE;0.0
DEBUG;DEBUG10.0;DEBUG2;0.0;DEBUG3;0.0;DEBUG4;0.0
ATTITUDE;ANGX;0.0;ANGY;0.0;HEAD;-118.0
STATUS;CYCLETIME;2800;I2CERR;0;PRESENT;23;MODE;0
RAW_IMU;AX;2.0;AY;-1.0;AZ;256.0;GX;0.0;GY;0.0;GZ;0.0;MAGX;87.0;MAGY;-69.0;MAGZ;-15.0
MOT;0;1000.0;1;1000.0;2;1000.0;3;1000.0;4;0.0;5;0.0;6;0.0;7;0.0;
RC;ROLL;1495.0;PITCH;1501.0;YAW;1502.0;THROTTLE;1066.0;AUX1;1679.0;AUX2;1500.0;AUX3;1500.0;AUX4;1500.0
ALTITUDE;0.0
DEBUG;DEBUG10.0;DEBUG2;0.0;DEBUG3;0.0;DEBUG4;0.0
ATTITUDE;ANGX;0.0;ANGY;0.0;HEAD;-118.0
STATUS;CYCLETIME;2816;I2CERR;0;PRESENT;23;MODE;0
RAW_IMU;AX;2.0;AY;1.0;AZ;255.0;GX;0.0;GY;0.0;GZ;0.0;MAGX;87.0;MAGY;-69.0;MAGZ;-15.0
MOT;0;1000.0;1;1000.0;2;1000.0;3;1000.0;4;0.0;5;0.0;6;0.0;7;0.0;
RC;ROLL;1495.0;PITCH;1501.0;YAW;1502.0;THROTTLE;1066.0;AUX1;1679.0;AUX2;1500.0;AUX3;1500.0;AUX4;1500.0
ALTITUDE;0.0
DEBUG;DEBUG10.0;DEBUG2;0.0;DEBUG3;0.0;DEBUG4;0.0
ATTITUDE;ANGX;0.0;ANGY;0.0;HEAD;-118.0
STATUS;CYCLETIME;2860;I2CERR;0;PRESENT;23;MODE;0
RAW_IMU;AX;2.0;AY;1.0;AZ;255.0;GX;0.0;GY;0.0;GZ;0.0;MAGX;88.0;MAGY;-70.0;MAGZ;-16.0
MOT;0;1000.0;1;1000.0;2;1000.0;3;1000.0;4;0.0;5;0.0;6;0.0;7;0.0;
RC;ROLL;1495.0;PITCH;1501.0;YAW;1502.0;THROTTLE;1066.0;AUX1;1679.0;AUX2;1500.0;AUX3;1500.0;AUX4;1500.0
ALTITUDE;0.0
DEBUG;DEBUG10.0;DEBUG2;0.0;DEBUG3;0.0;DEBUG4;0.0
ATTITUDE;ANGX;0.0;ANGY;0.0;HEAD;-118.0
STATUS;CYCLETIME;2792;I2CERR;0;PRESENT;23;MODE;0
RAW_IMU;AX;0.0;AY;0.0;AZ;258.0;GX;0.0;GY;0.0;GZ;0.0;MAGX;88.0;MAGY;-70.0;MAGZ;-16.0
MOT;0;1000.0;1;1000.0;2;1000.0;3;1000.0;4;0.0;5;0.0;6;0.0;7;0.0;
RC;ROLL;1495.0;PITCH;1501.0;YAW;1502.0;THROTTLE;1066.0;AUX1;1679.0;AUX2;1500.0;AUX3;1500.0;AUX4;1500.0
ALTITUDE;0.0
DEBUG;DEBUG10.0;DEBUG2;0.0;DEBUG3;0.0;DEBUG4;0.0
ATTITUDE;ANGX;0.0;ANGY;0.0;HEAD;-118.0
STATUS;CYCLETIME;2792;I2CERR;0;PRESENT;23;MODE;0
RAW_IMU;AX;0.0;AY;0.0;AZ;258.0;GX;0.0;GY;0.0;GZ;0.0;MAGX;88.0;MAGY;-70.0;MAGZ;-16.0
MOT;0;1000.0;1;1000.0;2;1000.0;3;1000.0;4;0.0;5;0.0;6;0.0;7;0.0;
RC;ROLL;1495.0;PITCH;1503.0;YAW;1502.0;THROTTLE;1066.0;AUX1;1681.0;AUX2;1500.0;AUX3;1500.0;AUX4;1500.0
ALTITUDE;0.0
DEBUG;DEBUG10.0;DEBUG2;0.0;DEBUG3;0.0;DEBUG4;0.0
ATTITUDE;ANGX;0.0;ANGY;1.0;HEAD;-118.0
STATUS;CYCLETIME;2976;I2CERR;0;PRESENT;23;MODE;0
RAW_IMU;AX;1.0;AY;-2.0;AZ;259.0;GX;0.0;GY;0.0;GZ;0.0;MAGX;87.0;MAGY;-70.0;MAGZ;-15.0
MOT;0;1000.0;1;1000.0;2;1000.0;3;1000.0;4;0.0;5;0.0;6;0.0;7;0.0;
RC;ROLL;1495.0;PITCH;1503.0;YAW;1502.0;THROTTLE;1066.0;AUX1;1681.0;AUX2;1500.0;AUX3;1500.0;AUX4;1500.0
ALTITUDE;0.0
DEBUG;DEBUG10.0;DEBUG2;0.0;DEBUG3;0.0;DEBUG4;0.0
ATTITUDE;ANGX;0.0;ANGY;1.0;HEAD;-118.0
STATUS;CYCLETIME;2824;I2CERR;0;PRESENT;23;MODE;0
RAW_IMU;AX;1.0;AY;-1.0;AZ;259.0;GX;0.0;GY;0.0;GZ;0.0;MAGX;87.0;MAGY;-70.0;MAGZ;-15.0
MOT;0;1000.0;1;1000.0;2;1000.0;3;1000.0;4;0.0;5;0.0;6;0.0;7;0.0;
RC;ROLL;1495.0;PITCH;1503.0;YAW;1502.0;THROTTLE;1066.0;AUX1;1681.0;AUX2;1500.0;AUX3;1500.0;AUX4;1500.0
ALTITUDE;0.0
DEBUG;DEBUG10.0;DEBUG2;0.0;DEBUG3;0.0;DEBUG4;0.0
ATTITUDE;ANGX;0.0;ANGY;1.0;HEAD;-118.0
STATUS;CYCLETIME;2792;I2CERR;0;PRESENT;23;MODE;0
RAW_IMU;AX;0.0;AY;0.0;AZ;258.0;GX;0.0;GY;0.0;GZ;0.0;MAGX;88.0;MAGY;-70.0;MAGZ;-16.0
MOT;0;1000.0;1;1000.0;2;1000.0;3;1000.0;4;0.0;5;0.0;6;0.0;7;0.0;
RC;ROLL;1495.0;PITCH;1503.0;YAW;1502.0;THROTTLE;1066.0;AUX1;1681.0;AUX2;1500.0;AUX3;1500.0;AUX4;1500.0
ALTITUDE;0.0
DEBUG;DEBUG10.0;DEBUG2;0.0;DEBUG3;0.0;DEBUG4;0.0
ATTITUDE;ANGX;0.0;ANGY;1.0;HEAD;-118.0
STATUS;CYCLETIME;2924;I2CERR;0;PRESENT;23;MODE;0
RAW_IMU;AX;0.0;AY;-1.0;AZ;256.0;GX;0.0;GY;0.0;GZ;0.0;MAGX;88.0;MAGY;-70.0;MAGZ;-16.0
MOT;0;1000.0;1;1000.0;2;1000.0;3;1000.0;4;0.0;5;0.0;6;0.0;7;0.0;
RC;ROLL;1495.0;PITCH;1503.0;YAW;1502.0;THROTTLE;1066.0;AUX1;1681.0;AUX2;1500.0;AUX3;1500.0;AUX4;1500.0
ALTITUDE;0.0
DEBUG;DEBUG10.0;DEBUG2;0.0;DEBUG3;0.0;DEBUG4;0.0
ATTITUDE;ANGX;0.0;ANGY;1.0;HEAD;-118.0
STATUS;CYCLETIME;2828;I2CERR;0;PRESENT;23;MODE;0
RAW_IMU;AX;3.0;AY;0.0;AZ;258.0;GX;0.0;GY;0.0;GZ;0.0;MAGX;88.0;MAGY;-69.0;MAGZ;-15.0
MOT;0;1000.0;1;1000.0;2;1000.0;3;1000.0;4;0.0;5;0.0;6;0.0;7;0.0;
RC;ROLL;1495.0;PITCH;1503.0;YAW;1502.0;THROTTLE;1066.0;AUX1;1681.0;AUX2;1500.0;AUX3;1500.0;AUX4;1500.0
ALTITUDE;0.0
DEBUG;DEBUG10.0;DEBUG2;0.0;DEBUG3;0.0;DEBUG4;0.0
ATTITUDE;ANGX;0.0;ANGY;1.0;HEAD;-117.0
STATUS;CYCLETIME;2868;I2CERR;0;PRESENT;23;MODE;0
RAW_IMU;AX;4.0;AY;-1.0;AZ;259.0;GX;0.0;GY;0.0;GZ;0.0;MAGX;88.0;MAGY;-69.0;MAGZ;-15.0
MOT;0;1000.0;1;1000.0;2;1000.0;3;1000.0;4;0.0;5;0.0;6;0.0;7;0.0;
RC;ROLL;1495.0;PITCH;1503.0;YAW;1502.0;THROTTLE;1066.0;AUX1;1681.0;AUX2;1500.0;AUX3;1500.0;AUX4;1500.0
ALTITUDE;0.0
DEBUG;DEBUG10.0;DEBUG2;0.0;DEBUG3;0.0;DEBUG4;0.0
ATTITUDE;ANGX;0.0;ANGY;1.0;HEAD;-117.0
STATUS;CYCLETIME;2812;I2CERR;0;PRESENT;23;MODE;0
RAW_IMU;AX;3.0;AY;0.0;AZ;258.0;GX;0.0;GY;0.0;GZ;0.0;MAGX;88.0;MAGY;-70.0;MAGZ;-15.0
MOT;0;1000.0;1;1000.0;2;1000.0;3;1000.0;4;0.0;5;0.0;6;0.0;7;0.0;
RC;ROLL;1495.0;PITCH;1503.0;YAW;1502.0;THROTTLE;1066.0;AUX1;1681.0;AUX2;1500.0;AUX3;1500.0;AUX4;1500.0
ALTITUDE;0.0
DEBUG;DEBUG10.0;DEBUG2;0.0;DEBUG3;0.0;DEBUG4;0.0
ATTITUDE;ANGX;0.0;ANGY;1.0;HEAD;-117.0
STATUS;CYCLETIME;2800;I2CERR;0;PRESENT;23;MODE;0
RAW_IMU;AX;3.0;AY;2.0;AZ;256.0;GX;0.0;GY;0.0;GZ;0.0;MAGX;88.0;MAGY;-70.0;MAGZ;-15.0
MOT;0;1000.0;1;1000.0;2;1000.0;3;1000.0;4;0.0;5;0.0;6;0.0;7;0.0;
RC;ROLL;1495.0;PITCH;1503.0;YAW;1502.0;THROTTLE;1066.0;AUX1;1681.0;AUX2;1500.0;AUX3;1500.0;AUX4;1500.0
ALTITUDE;0.0
DEBUG;DEBUG10.0;DEBUG2;0.0;DEBUG3;0.0;DEBUG4;0.0
ATTITUDE;ANGX;0.0;ANGY;1.0;HEAD;-117.0
STATUS;CYCLETIME;2956;I2CERR;0;PRESENT;23;MODE;0
RAW_IMU;AX;2.0;AY;1.0;AZ;257.0;GX;0.0;GY;0.0;GZ;0.0;MAGX;87.0;MAGY;-70.0;MAGZ;-16.0
MOT;0;1000.0;1;1000.0;2;1000.0;3;1000.0;4;0.0;5;0.0;6;0.0;7;0.0;
RC;ROLL;1495.0;PITCH;1503.0;YAW;1502.0;THROTTLE;1066.0;AUX1;1681.0;AUX2;1500.0;AUX3;1500.0;AUX4;1500.0
ALTITUDE;0.0
DEBUG;DEBUG10.0;DEBUG2;0.0;DEBUG3;0.0;DEBUG4;0.0
ATTITUDE;ANGX;0.0;ANGY;1.0;HEAD;-117.0
STATUS;CYCLETIME;2804;I2CERR;0;PRESENT;23;MODE;0
RAW_IMU;AX;1.0;AY;0.0;AZ;257.0;GX;0.0;GY;0.0;GZ;0.0;MAGX;87.0;MAGY;-70.0;MAGZ;-16.0
MOT;0;1000.0;1;1000.0;2;1000.0;3;1000.0;4;0.0;5;0.0;6;0.0;7;0.0;
RC;ROLL;1495.0;PITCH;1503.0;YAW;1502.0;THROTTLE;1066.0;AUX1;1681.0;AUX2;1500.0;AUX3;1500.0;AUX4;1500.0
ALTITUDE;0.0
DEBUG;DEBUG10.0;DEBUG2;0.0;DEBUG3;0.0;DEBUG4;0.0
ATTITUDE;ANGX;0.0;ANGY;1.0;HEAD;-118.0
STATUS;CYCLETIME;2840;I2CERR;0;PRESENT;23;MODE;0
RAW_IMU;AX;1.0;AY;2.0;AZ;257.0;GX;0.0;GY;0.0;GZ;0.0;MAGX;88.0;MAGY;-70.0;MAGZ;-16.0
MOT;0;1000.0;1;1000.0;2;1000.0;3;1000.0;4;0.0;5;0.0;6;0.0;7;0.0;
RC;ROLL;1495.0;PITCH;1503.0;YAW;1502.0;THROTTLE;1066.0;AUX1;1681.0;AUX2;1500.0;AUX3;1500.0;AUX4;1500.0
ALTITUDE;0.0
DEBUG;DEBUG10.0;DEBUG2;0.0;DEBUG3;0.0;DEBUG4;0.0
ATTITUDE;ANGX;0.0;ANGY;1.0;HEAD;-117.0
STATUS;CYCLETIME;2800;I2CERR;0;PRESENT;23;MODE;0
RAW_IMU;AX;0.0;AY;0.0;AZ;256.0;GX;0.0;GY;0.0;GZ;0.0;MAGX;88.0;MAGY;-70.0;MAGZ;-16.0
MOT;0;1000.0;1;1000.0;2;1000.0;3;1000.0;4;0.0;5;0.0;6;0.0;7;0.0;
RC;ROLL;1495.0;PITCH;1503.0;YAW;1502.0;THROTTLE;1066.0;AUX1;1681.0;AUX2;1500.0;AUX3;1500.0;AUX4;1500.0
ALTITUDE;0.0
DEBUG;DEBUG10.0;DEBUG2;0.0;DEBUG3;0.0;DEBUG4;0.0
ATTITUDE;ANGX;0.0;ANGY;1.0;HEAD;-117.0
STATUS;CYCLETIME;2844;I2CERR;0;PRESENT;23;MODE;0
RAW_IMU;AX;1.0;AY;-1.0;AZ;255.0;GX;0.0;GY;0.0;GZ;0.0;MAGX;88.0;MAGY;-70.0;MAGZ;-15.0
MOT;0;1000.0;1;1000.0;2;1000.0;3;1000.0;4;0.0;5;0.0;6;0.0;7;0.0;
RC;ROLL;1495.0;PITCH;1503.0;YAW;1502.0;THROTTLE;1066.0;AUX1;1681.0;AUX2;1500.0;AUX3;1500.0;AUX4;1500.0
ALTITUDE;0.0
DEBUG;DEBUG10.0;DEBUG2;0.0;DEBUG3;0.0;DEBUG4;0.0
ATTITUDE;ANGX;0.0;ANGY;1.0;HEAD;-117.0
STATUS;CYCLETIME;2804;I2CERR;0;PRESENT;23;MODE;0
RAW_IMU;AX;2.0;AY;0.0;AZ;255.0;GX;0.0;GY;0.0;GZ;0.0;MAGX;88.0;MAGY;-70.0;MAGZ;-15.0
MOT;0;1000.0;1;1000.0;2;1000.0;3;1000.0;4;0.0;5;0.0;6;0.0;7;0.0;
RC;ROLL;1495.0;PITCH;1503.0;YAW;1502.0;THROTTLE;1066.0;AUX1;1681.0;AUX2;1500.0;AUX3;1500.0;AUX4;1500.0
ALTITUDE;0.0
DEBUG;DEBUG10.0;DEBUG2;0.0;DEBUG3;0.0;DEBUG4;0.0
ATTITUDE;ANGX;0.0;ANGY;1.0;HEAD;-117.0
STATUS;CYCLETIME;2944;I2CERR;0;PRESENT;23;MODE;0
RAW_IMU;AX;1.0;AY;1.0;AZ;257.0;GX;0.0;GY;0.0;GZ;0.0;MAGX;87.0;MAGY;-70.0;MAGZ;-16.0
MOT;0;1000.0;1;1000.0;2;1000.0;3;1000.0;4;0.0;5;0.0;6;0.0;7;0.0;
RC;ROLL;1495.0;PITCH;1503.0;YAW;1502.0;THROTTLE;1066.0;AUX1;1681.0;AUX2;1500.0;AUX3;1500.0;AUX4;1500.0
ALTITUDE;0.0
DEBUG;DEBUG10.0;DEBUG2;0.0;DEBUG3;0.0;DEBUG4;0.0
ATTITUDE;ANGX;0.0;ANGY;1.0;HEAD;-117.0
STATUS;CYCLETIME;2800;I2CERR;0;PRESENT;23;MODE;0
RAW_IMU;AX;2.0;AY;3.0;AZ;255.0;GX;0.0;GY;0.0;GZ;0.0;MAGX;87.0;MAGY;-70.0;MAGZ;-16.0
MOT;0;1000.0;1;1000.0;2;1000.0;3;1000.0;4;0.0;5;0.0;6;0.0;7;0.0;
RC;ROLL;1495.0;PITCH;1503.0;YAW;1502.0;THROTTLE;1066.0;AUX1;1681.0;AUX2;1500.0;AUX3;1500.0;AUX4;1500.0
ALTITUDE;0.0
DEBUG;DEBUG10.0;DEBUG2;0.0;DEBUG3;0.0;DEBUG4;0.0
ATTITUDE;ANGX;0.0;ANGY;1.0;HEAD;-118.0
STATUS;CYCLETIME;2764;I2CERR;0;PRESENT;23;MODE;0
RAW_IMU;AX;2.0;AY;2.0;AZ;256.0;GX;0.0;GY;0.0;GZ;0.0;MAGX;88.0;MAGY;-70.0;MAGZ;-15.0
MOT;0;1000.0;1;1000.0;2;1000.0;3;1000.0;4;0.0;5;0.0;6;0.0;7;0.0;
RC;ROLL;1495.0;PITCH;1501.0;YAW;1502.0;THROTTLE;1066.0;AUX1;1681.0;AUX2;1500.0;AUX3;1500.0;AUX4;1500.0
ALTITUDE;0.0
DEBUG;DEBUG10.0;DEBUG2;0.0;DEBUG3;0.0;DEBUG4;0.0
ATTITUDE;ANGX;0.0;ANGY;1.0;HEAD;-118.0
STATUS;CYCLETIME;2936;I2CERR;0;PRESENT;23;MODE;0
RAW_IMU;AX;1.0;AY;2.0;AZ;257.0;GX;0.0;GY;0.0;GZ;0.0;MAGX;88.0;MAGY;-70.0;MAGZ;-15.0
MOT;0;1000.0;1;1000.0;2;1000.0;3;1000.0;4;0.0;5;0.0;6;0.0;7;0.0;
RC;ROLL;1497.0;PITCH;1501.0;YAW;1502.0;THROTTLE;1066.0;AUX1;1681.0;AUX2;1500.0;AUX3;1500.0;AUX4;1500.0
ALTITUDE;0.0
DEBUG;DEBUG10.0;DEBUG2;0.0;DEBUG3;0.0;DEBUG4;0.0
ATTITUDE;ANGX;0.0;ANGY;1.0;HEAD;-117.0
STATUS;CYCLETIME;2808;I2CERR;0;PRESENT;23;MODE;0
RAW_IMU;AX;1.0;AY;0.0;AZ;254.0;GX;0.0;GY;0.0;GZ;0.0;MAGX;88.0;MAGY;-70.0;MAGZ;-15.0
MOT;0;1000.0;1;1000.0;2;1000.0;3;1000.0;4;0.0;5;0.0;6;0.0;7;0.0;
RC;ROLL;1497.0;PITCH;1501.0;YAW;1502.0;THROTTLE;1066.0;AUX1;1681.0;AUX2;1500.0;AUX3;1500.0;AUX4;1500.0
ALTITUDE;0.0
DEBUG;DEBUG10.0;DEBUG2;0.0;DEBUG3;0.0;DEBUG4;0.0
ATTITUDE;ANGX;0.0;ANGY;1.0;HEAD;-117.0
STATUS;CYCLETIME;2840;I2CERR;0;PRESENT;23;MODE;0
RAW_IMU;AX;1.0;AY;-1.0;AZ;258.0;GX;0.0;GY;0.0;GZ;0.0;MAGX;88.0;MAGY;-70.0;MAGZ;-16.0
MOT;0;1000.0;1;1000.0;2;1000.0;3;1000.0;4;0.0;5;0.0;6;0.0;7;0.0;
RC;ROLL;1497.0;PITCH;1501.0;YAW;1502.0;THROTTLE;1066.0;AUX1;1681.0;AUX2;1500.0;AUX3;1500.0;AUX4;1500.0
ALTITUDE;0.0
DEBUG;DEBUG10.0;DEBUG2;0.0;DEBUG3;0.0;DEBUG4;0.0
ATTITUDE;ANGX;0.0;ANGY;1.0;HEAD;-117.0
STATUS;CYCLETIME;2864;I2CERR;0;PRESENT;23;MODE;0
RAW_IMU;AX;3.0;AY;-1.0;AZ;256.0;GX;0.0;GY;0.0;GZ;0.0;MAGX;88.0;MAGY;-70.0;MAGZ;-16.0
MOT;0;1000.0;1;1000.0;2;1000.0;3;1000.0;4;0.0;5;0.0;6;0.0;7;0.0;
RC;ROLL;1495.0;PITCH;1501.0;YAW;1502.0;THROTTLE;1066.0;AUX1;1681.0;AUX2;1500.0;AUX3;1500.0;AUX4;1500.0
ALTITUDE;0.0
DEBUG;DEBUG10.0;DEBUG2;0.0;DEBUG3;0.0;DEBUG4;0.0
ATTITUDE;ANGX;0.0;ANGY;1.0;HEAD;-117.0
STATUS;CYCLETIME;2836;I2CERR;0;PRESENT;23;MODE;0
RAW_IMU;AX;2.0;AY;0.0;AZ;256.0;GX;0.0;GY;0.0;GZ;0.0;MAGX;88.0;MAGY;-69.0;MAGZ;-16.0
MOT;0;1000.0;1;1000.0;2;1000.0;3;1000.0;4;0.0;5;0.0;6;0.0;7;0.0;
RC;ROLL;1495.0;PITCH;1501.0;YAW;1502.0;THROTTLE;1066.0;AUX1;1681.0;AUX2;1500.0;AUX3;1500.0;AUX4;1500.0
ALTITUDE;0.0
DEBUG;DEBUG10.0;DEBUG2;0.0;DEBUG3;0.0;DEBUG4;0.0
ATTITUDE;ANGX;0.0;ANGY;1.0;HEAD;-117.0
STATUS;CYCLETIME;2836;I2CERR;0;PRESENT;23;MODE;0
RAW_IMU;AX;0.0;AY;1.0;AZ;258.0;GX;0.0;GY;0.0;GZ;0.0;MAGX;88.0;MAGY;-69.0;MAGZ;-16.0
MOT;0;1000.0;1;1000.0;2;1000.0;3;1000.0;4;0.0;5;0.0;6;0.0;7;0.0;
RC;ROLL;1495.0;PITCH;1501.0;YAW;1502.0;THROTTLE;1066.0;AUX1;1681.0;AUX2;1500.0;AUX3;1500.0;AUX4;1500.0
ALTITUDE;0.0
DEBUG;DEBUG10.0;DEBUG2;0.0;DEBUG3;0.0;DEBUG4;0.0
ATTITUDE;ANGX;0.0;ANGY;1.0;HEAD;-117.0
STATUS;CYCLETIME;2816;I2CERR;0;PRESENT;23;MODE;0
RAW_IMU;AX;-1.0;AY;-2.0;AZ;257.0;GX;0.0;GY;0.0;GZ;0.0;MAGX;88.0;MAGY;-70.0;MAGZ;-15.0
MOT;0;1000.0;1;1000.0;2;1000.0;3;1000.0;4;0.0;5;0.0;6;0.0;7;0.0;
RC;ROLL;1495.0;PITCH;1501.0;YAW;1502.0;THROTTLE;1066.0;AUX1;1681.0;AUX2;1500.0;AUX3;1500.0;AUX4;1500.0
ALTITUDE;0.0
DEBUG;DEBUG10.0;DEBUG2;0.0;DEBUG3;0.0;DEBUG4;0.0
ATTITUDE;ANGX;0.0;ANGY;1.0;HEAD;-117.0
STATUS;CYCLETIME;2816;I2CERR;0;PRESENT;23;MODE;0
RAW_IMU;AX;2.0;AY;-2.0;AZ;256.0;GX;0.0;GY;0.0;GZ;0.0;MAGX;88.0;MAGY;-70.0;MAGZ;-15.0
MOT;0;1000.0;1;1000.0;2;1000.0;3;1000.0;4;0.0;5;0.0;6;0.0;7;0.0;
RC;ROLL;1495.0;PITCH;1501.0;YAW;1502.0;THROTTLE;1066.0;AUX1;1681.0;AUX2;1500.0;AUX3;1500.0;AUX4;1500.0
ALTITUDE;0.0
DEBUG;DEBUG10.0;DEBUG2;0.0;DEBUG3;0.0;DEBUG4;0.0
ATTITUDE;ANGX;0.0;ANGY;1.0;HEAD;-117.0
STATUS;CYCLETIME;2936;I2CERR;0;PRESENT;23;MODE;0
RAW_IMU;AX;2.0;AY;-1.0;AZ;256.0;GX;0.0;GY;0.0;GZ;0.0;MAGX;88.0;MAGY;-70.0;MAGZ;-15.0
MOT;0;1000.0;1;1000.0;2;1000.0;3;1000.0;4;0.0;5;0.0;6;0.0;7;0.0;
RC;ROLL;1495.0;PITCH;1501.0;YAW;1502.0;THROTTLE;1066.0;AUX1;1681.0;AUX2;1500.0;AUX3;1500.0;AUX4;1500.0
ALTITUDE;0.0
DEBUG;DEBUG10.0;DEBUG2;0.0;DEBUG3;0.0;DEBUG4;0.0
ATTITUDE;ANGX;0.0;ANGY;1.0;HEAD;-117.0
STATUS;CYCLETIME;2844;I2CERR;0;PRESENT;23;MODE;0
RAW_IMU;AX;1.0;AY;2.0;AZ;255.0;GX;0.0;GY;0.0;GZ;0.0;MAGX;88.0;MAGY;-70.0;MAGZ;-15.0
MOT;0;1000.0;1;1000.0;2;1000.0;3;1000.0;4;0.0;5;0.0;6;0.0;7;0.0;
RC;ROLL;1495.0;PITCH;1501.0;YAW;1502.0;THROTTLE;1066.0;AUX1;1681.0;AUX2;1500.0;AUX3;1500.0;AUX4;1500.0
ALTITUDE;0.0
DEBUG;DEBUG10.0;DEBUG2;0.0;DEBUG3;0.0;DEBUG4;0.0
ATTITUDE;ANGX;0.0;ANGY;1.0;HEAD;-117.0
STATUS;CYCLETIME;2824;I2CERR;0;PRESENT;23;MODE;0
RAW_IMU;AX;1.0;AY;1.0;AZ;255.0;GX;0.0;GY;0.0;GZ;0.0;MAGX;89.0;MAGY;-70.0;MAGZ;-14.0
MOT;0;1000.0;1;1000.0;2;1000.0;3;1000.0;4;0.0;5;0.0;6;0.0;7;0.0;
RC;ROLL;1495.0;PITCH;1501.0;YAW;1502.0;THROTTLE;1066.0;AUX1;1681.0;AUX2;1500.0;AUX3;1500.0;AUX4;1500.0
ALTITUDE;0.0
DEBUG;DEBUG10.0;DEBUG2;0.0;DEBUG3;0.0;DEBUG4;0.0
ATTITUDE;ANGX;0.0;ANGY;1.0;HEAD;-117.0
STATUS;CYCLETIME;2964;I2CERR;0;PRESENT;23;MODE;0
RAW_IMU;AX;3.0;AY;0.0;AZ;257.0;GX;0.0;GY;0.0;GZ;0.0;MAGX;89.0;MAGY;-70.0;MAGZ;-14.0
MOT;0;1000.0;1;1000.0;2;1000.0;3;1000.0;4;0.0;5;0.0;6;0.0;7;0.0;
RC;ROLL;1495.0;PITCH;1501.0;YAW;1502.0;THROTTLE;1066.0;AUX1;1681.0;AUX2;1500.0;AUX3;1500.0;AUX4;1500.0
ALTITUDE;0.0
DEBUG;DEBUG10.0;DEBUG2;0.0;DEBUG3;0.0;DEBUG4;0.0
ATTITUDE;ANGX;0.0;ANGY;1.0;HEAD;-117.0
STATUS;CYCLETIME;2868;I2CERR;0;PRESENT;23;MODE;0
RAW_IMU;AX;2.0;AY;1.0;AZ;257.0;GX;0.0;GY;0.0;GZ;0.0;MAGX;87.0;MAGY;-70.0;MAGZ;-17.0
MOT;0;1000.0;1;1000.0;2;1000.0;3;1000.0;4;0.0;5;0.0;6;0.0;7;0.0;
RC;ROLL;1495.0;PITCH;1503.0;YAW;1502.0;THROTTLE;1066.0;AUX1;1681.0;AUX2;1500.0;AUX3;1500.0;AUX4;1500.0
ALTITUDE;0.0
DEBUG;DEBUG10.0;DEBUG2;0.0;DEBUG3;0.0;DEBUG4;0.0
ATTITUDE;ANGX;0.0;ANGY;1.0;HEAD;-117.0
STATUS;CYCLETIME;2808;I2CERR;0;PRESENT;23;MODE;0
RAW_IMU;AX;3.0;AY;0.0;AZ;256.0;GX;0.0;GY;0.0;GZ;0.0;MAGX;87.0;MAGY;-70.0;MAGZ;-17.0
MOT;0;1000.0;1;1000.0;2;1000.0;3;1000.0;4;0.0;5;0.0;6;0.0;7;0.0;
RC;ROLL;1495.0;PITCH;1503.0;YAW;1502.0;THROTTLE;1066.0;AUX1;1681.0;AUX2;1500.0;AUX3;1500.0;AUX4;1500.0
ALTITUDE;0.0
DEBUG;DEBUG10.0;DEBUG2;0.0;DEBUG3;0.0;DEBUG4;0.0
ATTITUDE;ANGX;0.0;ANGY;1.0;HEAD;-117.0
STATUS;CYCLETIME;2768;I2CERR;0;PRESENT;23;MODE;0
RAW_IMU;AX;3.0;AY;1.0;AZ;257.0;GX;0.0;GY;0.0;GZ;0.0;MAGX;87.0;MAGY;-70.0;MAGZ;-15.0
MOT;0;1000.0;1;1000.0;2;1000.0;3;1000.0;4;0.0;5;0.0;6;0.0;7;0.0;
RC;ROLL;1495.0;PITCH;1503.0;YAW;1502.0;THROTTLE;1066.0;AUX1;1681.0;AUX2;1500.0;AUX3;1500.0;AUX4;1500.0
ALTITUDE;0.0
DEBUG;DEBUG10.0;DEBUG2;0.0;DEBUG3;0.0;DEBUG4;0.0
ATTITUDE;ANGX;0.0;ANGY;1.0;HEAD;-117.0
STATUS;CYCLETIME;2812;I2CERR;0;PRESENT;23;MODE;0
RAW_IMU;AX;-1.0;AY;1.0;AZ;257.0;GX;0.0;GY;0.0;GZ;0.0;MAGX;87.0;MAGY;-70.0;MAGZ;-15.0
MOT;0;1000.0;1;1000.0;2;1000.0;3;1000.0;4;0.0;5;0.0;6;0.0;7;0.0;
RC;ROLL;1495.0;PITCH;1503.0;YAW;1502.0;THROTTLE;1066.0;AUX1;1681.0;AUX2;1500.0;AUX3;1500.0;AUX4;1500.0
ALTITUDE;0.0
DEBUG;DEBUG10.0;DEBUG2;0.0;DEBUG3;0.0;DEBUG4;0.0
ATTITUDE;ANGX;0.0;ANGY;1.0;HEAD;-117.0
STATUS;CYCLETIME;2860;I2CERR;0;PRESENT;23;MODE;0
RAW_IMU;AX;0.0;AY;1.0;AZ;258.0;GX;0.0;GY;0.0;GZ;0.0;MAGX;88.0;MAGY;-70.0;MAGZ;-16.0
MOT;0;1000.0;1;1000.0;2;1000.0;3;1000.0;4;0.0;5;0.0;6;0.0;7;0.0;
RC;ROLL;1495.0;PITCH;1503.0;YAW;1502.0;THROTTLE;1066.0;AUX1;1681.0;AUX2;1500.0;AUX3;1500.0;AUX4;1500.0
ALTITUDE;0.0
DEBUG;DEBUG10.0;DEBUG2;0.0;DEBUG3;0.0;DEBUG4;0.0
ATTITUDE;ANGX;0.0;ANGY;1.0;HEAD;-117.0
STATUS;CYCLETIME;2928;I2CERR;0;PRESENT;23;MODE;0
RAW_IMU;AX;5.0;AY;1.0;AZ;257.0;GX;0.0;GY;0.0;GZ;0.0;MAGX;88.0;MAGY;-70.0;MAGZ;-16.0
MOT;0;1000.0;1;1000.0;2;1000.0;3;1000.0;4;0.0;5;0.0;6;0.0;7;0.0;
RC;ROLL;1495.0;PITCH;1503.0;YAW;1502.0;THROTTLE;1066.0;AUX1;1681.0;AUX2;1500.0;AUX3;1500.0;AUX4;1500.0
ALTITUDE;0.0
DEBUG;DEBUG10.0;DEBUG2;0.0;DEBUG3;0.0;DEBUG4;0.0
ATTITUDE;ANGX;0.0;ANGY;1.0;HEAD;-117.0
STATUS;CYCLETIME;3096;I2CERR;0;PRESENT;23;MODE;0
RAW_IMU;AX;4.0;AY;2.0;AZ;257.0;GX;0.0;GY;0.0;GZ;0.0;MAGX;88.0;MAGY;-70.0;MAGZ;-15.0
MOT;0;1000.0;1;1000.0;2;1000.0;3;1000.0;4;0.0;5;0.0;6;0.0;7;0.0;
RC;ROLL;1495.0;PITCH;1503.0;YAW;1502.0;THROTTLE;1066.0;AUX1;1681.0;AUX2;1500.0;AUX3;1500.0;AUX4;1500.0
ALTITUDE;0.0
DEBUG;DEBUG10.0;DEBUG2;0.0;DEBUG3;0.0;DEBUG4;0.0
ATTITUDE;ANGX;0.0;ANGY;1.0;HEAD;-117.0
STATUS;CYCLETIME;2804;I2CERR;0;PRESENT;23;MODE;0
RAW_IMU;AX;2.0;AY;1.0;AZ;256.0;GX;0.0;GY;0.0;GZ;0.0;MAGX;88.0;MAGY;-70.0;MAGZ;-15.0
MOT;0;1000.0;1;1000.0;2;1000.0;3;1000.0;4;0.0;5;0.0;6;0.0;7;0.0;
RC;ROLL;1495.0;PITCH;1503.0;YAW;1502.0;THROTTLE;1066.0;AUX1;1681.0;AUX2;1500.0;AUX3;1500.0;AUX4;1500.0
ALTITUDE;0.0
DEBUG;DEBUG10.0;DEBUG2;0.0;DEBUG3;0.0;DEBUG4;0.0
ATTITUDE;ANGX;0.0;ANGY;1.0;HEAD;-117.0
STATUS;CYCLETIME;2956;I2CERR;0;PRESENT;23;MODE;0
RAW_IMU;AX;3.0;AY;2.0;AZ;257.0;GX;0.0;GY;0.0;GZ;0.0;MAGX;88.0;MAGY;-70.0;MAGZ;-15.0
MOT;0;1000.0;1;1000.0;2;1000.0;3;1000.0;4;0.0;5;0.0;6;0.0;7;0.0;
RC;ROLL;1495.0;PITCH;1503.0;YAW;1502.0;THROTTLE;1066.0;AUX1;1681.0;AUX2;1500.0;AUX3;1500.0;AUX4;1500.0
ALTITUDE;0.0
DEBUG;DEBUG10.0;DEBUG2;0.0;DEBUG3;0.0;DEBUG4;0.0
ATTITUDE;ANGX;0.0;ANGY;1.0;HEAD;-117.0
STATUS;CYCLETIME;2864;I2CERR;0;PRESENT;23;MODE;0
RAW_IMU;AX;3.0;AY;1.0;AZ;258.0;GX;0.0;GY;0.0;GZ;0.0;MAGX;88.0;MAGY;-70.0;MAGZ;-15.0
MOT;0;1000.0;1;1000.0;2;1000.0;3;1000.0;4;0.0;5;0.0;6;0.0;7;0.0;
RC;ROLL;1495.0;PITCH;1503.0;YAW;1502.0;THROTTLE;1066.0;AUX1;1681.0;AUX2;1500.0;AUX3;1500.0;AUX4;1500.0
ALTITUDE;0.0
DEBUG;DEBUG10.0;DEBUG2;0.0;DEBUG3;0.0;DEBUG4;0.0
ATTITUDE;ANGX;0.0;ANGY;1.0;HEAD;-117.0
STATUS;CYCLETIME;2812;I2CERR;0;PRESENT;23;MODE;0
RAW_IMU;AX;3.0;AY;0.0;AZ;257.0;GX;0.0;GY;0.0;GZ;0.0;MAGX;88.0;MAGY;-70.0;MAGZ;-15.0
MOT;0;1000.0;1;1000.0;2;1000.0;3;1000.0;4;0.0;5;0.0;6;0.0;7;0.0;
RC;ROLL;1495.0;PITCH;1503.0;YAW;1502.0;THROTTLE;1066.0;AUX1;1681.0;AUX2;1500.0;AUX3;1500.0;AUX4;1500.0
ALTITUDE;0.0
DEBUG;DEBUG10.0;DEBUG2;0.0;DEBUG3;0.0;DEBUG4;0.0
ATTITUDE;ANGX;0.0;ANGY;1.0;HEAD;-117.0
STATUS;CYCLETIME;2880;I2CERR;0;PRESENT;23;MODE;0
RAW_IMU;AX;1.0;AY;0.0;AZ;257.0;GX;0.0;GY;0.0;GZ;0.0;MAGX;89.0;MAGY;-69.0;MAGZ;-16.0
MOT;0;1000.0;1;1000.0;2;1000.0;3;1000.0;4;0.0;5;0.0;6;0.0;7;0.0;
RC;ROLL;1495.0;PITCH;1503.0;YAW;1502.0;THROTTLE;1066.0;AUX1;1681.0;AUX2;1500.0;AUX3;1500.0;AUX4;1500.0
ALTITUDE;0.0
DEBUG;DEBUG10.0;DEBUG2;0.0;DEBUG3;0.0;DEBUG4;0.0
ATTITUDE;ANGX;0.0;ANGY;1.0;HEAD;-117.0
STATUS;CYCLETIME;2804;I2CERR;0;PRESENT;23;MODE;0
RAW_IMU;AX;2.0;AY;1.0;AZ;258.0;GX;0.0;GY;0.0;GZ;0.0;MAGX;89.0;MAGY;-69.0;MAGZ;-16.0
MOT;0;1000.0;1;1000.0;2;1000.0;3;1000.0;4;0.0;5;0.0;6;0.0;7;0.0;
RC;ROLL;1495.0;PITCH;1503.0;YAW;1502.0;THROTTLE;1066.0;AUX1;1681.0;AUX2;1500.0;AUX3;1500.0;AUX4;1500.0
ALTITUDE;0.0
DEBUG;DEBUG10.0;DEBUG2;0.0;DEBUG3;0.0;DEBUG4;0.0
ATTITUDE;ANGX;0.0;ANGY;1.0;HEAD;-117.0
STATUS;CYCLETIME;2780;I2CERR;0;PRESENT;23;MODE;0
RAW_IMU;AX;3.0;AY;3.0;AZ;256.0;GX;0.0;GY;0.0;GZ;0.0;MAGX;87.0;MAGY;-70.0;MAGZ;-15.0
MOT;0;1000.0;1;1000.0;2;1000.0;3;1000.0;4;0.0;5;0.0;6;0.0;7;0.0;
RC;ROLL;1495.0;PITCH;1503.0;YAW;1502.0;THROTTLE;1066.0;AUX1;1681.0;AUX2;1500.0;AUX3;1500.0;AUX4;1500.0
ALTITUDE;0.0
DEBUG;DEBUG10.0;DEBUG2;0.0;DEBUG3;0.0;DEBUG4;0.0
ATTITUDE;ANGX;0.0;ANGY;1.0;HEAD;-117.0
STATUS;CYCLETIME;2984;I2CERR;0;PRESENT;23;MODE;0
RAW_IMU;AX;1.0;AY;2.0;AZ;255.0;GX;0.0;GY;0.0;GZ;0.0;MAGX;87.0;MAGY;-70.0;MAGZ;-15.0
MOT;0;1000.0;1;1000.0;2;1000.0;3;1000.0;4;0.0;5;0.0;6;0.0;7;0.0;
RC;ROLL;1495.0;PITCH;1503.0;YAW;1502.0;THROTTLE;1066.0;AUX1;1681.0;AUX2;1500.0;AUX3;1500.0;AUX4;1500.0
ALTITUDE;0.0
DEBUG;DEBUG10.0;DEBUG2;0.0;DEBUG3;0.0;DEBUG4;0.0
ATTITUDE;ANGX;0.0;ANGY;1.0;HEAD;-117.0
STATUS;CYCLETIME;2828;I2CERR;0;PRESENT;23;MODE;0
RAW_IMU;AX;2.0;AY;-1.0;AZ;260.0;GX;0.0;GY;0.0;GZ;0.0;MAGX;87.0;MAGY;-70.0;MAGZ;-16.0
MOT;0;1000.0;1;1000.0;2;1000.0;3;1000.0;4;0.0;5;0.0;6;0.0;7;0.0;
RC;ROLL;1495.0;PITCH;1503.0;YAW;1502.0;THROTTLE;1066.0;AUX1;1681.0;AUX2;1500.0;AUX3;1500.0;AUX4;1500.0
ALTITUDE;0.0
DEBUG;DEBUG10.0;DEBUG2;0.0;DEBUG3;0.0;DEBUG4;0.0
ATTITUDE;ANGX;0.0;ANGY;1.0;HEAD;-118.0
STATUS;CYCLETIME;2760;I2CERR;0;PRESENT;23;MODE;0
RAW_IMU;AX;1.0;AY;0.0;AZ;261.0;GX;0.0;GY;0.0;GZ;0.0;MAGX;87.0;MAGY;-70.0;MAGZ;-16.0
MOT;0;1000.0;1;1000.0;2;1000.0;3;1000.0;4;0.0;5;0.0;6;0.0;7;0.0;
RC;ROLL;1495.0;PITCH;1503.0;YAW;1502.0;THROTTLE;1066.0;AUX1;1681.0;AUX2;1500.0;AUX3;1500.0;AUX4;1500.0
ALTITUDE;0.0
DEBUG;DEBUG10.0;DEBUG2;0.0;DEBUG3;0.0;DEBUG4;0.0
ATTITUDE;ANGX;0.0;ANGY;1.0;HEAD;-118.0
STATUS;CYCLETIME;2792;I2CERR;0;PRESENT;23;MODE;0
RAW_IMU;AX;3.0;AY;0.0;AZ;259.0;GX;0.0;GY;0.0;GZ;0.0;MAGX;87.0;MAGY;-70.0;MAGZ;-16.0
MOT;0;1000.0;1;1000.0;2;1000.0;3;1000.0;4;0.0;5;0.0;6;0.0;7;0.0;
RC;ROLL;1495.0;PITCH;1503.0;YAW;1502.0;THROTTLE;1066.0;AUX1;1681.0;AUX2;1500.0;AUX3;1500.0;AUX4;1500.0
ALTITUDE;0.0
DEBUG;DEBUG10.0;DEBUG2;0.0;DEBUG3;0.0;DEBUG4;0.0
ATTITUDE;ANGX;0.0;ANGY;1.0;HEAD;-118.0
STATUS;CYCLETIME;2844;I2CERR;0;PRESENT;23;MODE;0
RAW_IMU;AX;3.0;AY;1.0;AZ;256.0;GX;0.0;GY;0.0;GZ;0.0;MAGX;87.0;MAGY;-70.0;MAGZ;-16.0
MOT;0;1000.0;1;1000.0;2;1000.0;3;1000.0;4;0.0;5;0.0;6;0.0;7;0.0;
RC;ROLL;1495.0;PITCH;1503.0;YAW;1502.0;THROTTLE;1066.0;AUX1;1681.0;AUX2;1500.0;AUX3;1500.0;AUX4;1500.0
ALTITUDE;0.0
DEBUG;DEBUG10.0;DEBUG2;0.0;DEBUG3;0.0;DEBUG4;0.0
ATTITUDE;ANGX;0.0;ANGY;1.0;HEAD;-118.0
STATUS;CYCLETIME;2908;I2CERR;0;PRESENT;23;MODE;0
RAW_IMU;AX;2.0;AY;1.0;AZ;257.0;GX;0.0;GY;0.0;GZ;0.0;MAGX;87.0;MAGY;-69.0;MAGZ;-15.0
MOT;0;1000.0;1;1000.0;2;1000.0;3;1000.0;4;0.0;5;0.0;6;0.0;7;0.0;
RC;ROLL;1495.0;PITCH;1503.0;YAW;1502.0;THROTTLE;1066.0;AUX1;1681.0;AUX2;1500.0;AUX3;1500.0;AUX4;1500.0
ALTITUDE;0.0
DEBUG;DEBUG10.0;DEBUG2;0.0;DEBUG3;0.0;DEBUG4;0.0
ATTITUDE;ANGX;0.0;ANGY;1.0;HEAD;-118.0
STATUS;CYCLETIME;2832;I2CERR;0;PRESENT;23;MODE;0
RAW_IMU;AX;1.0;AY;2.0;AZ;256.0;GX;0.0;GY;0.0;GZ;0.0;MAGX;87.0;MAGY;-69.0;MAGZ;-15.0
MOT;0;1000.0;1;1000.0;2;1000.0;3;1000.0;4;0.0;5;0.0;6;0.0;7;0.0;
RC;ROLL;1495.0;PITCH;1503.0;YAW;1502.0;THROTTLE;1066.0;AUX1;1681.0;AUX2;1500.0;AUX3;1500.0;AUX4;1500.0
ALTITUDE;0.0
DEBUG;DEBUG10.0;DEBUG2;0.0;DEBUG3;0.0;DEBUG4;0.0
ATTITUDE;ANGX;0.0;ANGY;1.0;HEAD;-118.0
STATUS;CYCLETIME;2804;I2CERR;0;PRESENT;23;MODE;0
RAW_IMU;AX;-1.0;AY;0.0;AZ;256.0;GX;0.0;GY;0.0;GZ;0.0;MAGX;87.0;MAGY;-69.0;MAGZ;-15.0
MOT;0;1000.0;1;1000.0;2;1000.0;3;1000.0;4;0.0;5;0.0;6;0.0;7;0.0;
RC;ROLL;1495.0;PITCH;1503.0;YAW;1502.0;THROTTLE;1066.0;AUX1;1681.0;AUX2;1500.0;AUX3;1500.0;AUX4;1500.0
ALTITUDE;0.0
DEBUG;DEBUG10.0;DEBUG2;0.0;DEBUG3;0.0;DEBUG4;0.0
ATTITUDE;ANGX;0.0;ANGY;1.0;HEAD;-118.0
STATUS;CYCLETIME;2788;I2CERR;0;PRESENT;23;MODE;0
RAW_IMU;AX;0.0;AY;1.0;AZ;255.0;GX;0.0;GY;0.0;GZ;0.0;MAGX;87.0;MAGY;-69.0;MAGZ;-15.0
MOT;0;1000.0;1;1000.0;2;1000.0;3;1000.0;4;0.0;5;0.0;6;0.0;7;0.0;
RC;ROLL;1495.0;PITCH;1503.0;YAW;1502.0;THROTTLE;1066.0;AUX1;1681.0;AUX2;1500.0;AUX3;1500.0;AUX4;1500.0
ALTITUDE;0.0
DEBUG;DEBUG10.0;DEBUG2;0.0;DEBUG3;0.0;DEBUG4;0.0
ATTITUDE;ANGX;0.0;ANGY;1.0;HEAD;-118.0
STATUS;CYCLETIME;2900;I2CERR;0;PRESENT;23;MODE;0
RAW_IMU;AX;1.0;AY;0.0;AZ;256.0;GX;0.0;GY;0.0;GZ;0.0;MAGX;88.0;MAGY;-69.0;MAGZ;-16.0
MOT;0;1000.0;1;1000.0;2;1000.0;3;1000.0;4;0.0;5;0.0;6;0.0;7;0.0;
RC;ROLL;1495.0;PITCH;1503.0;YAW;1502.0;THROTTLE;1066.0;AUX1;1681.0;AUX2;1500.0;AUX3;1500.0;AUX4;1500.0
ALTITUDE;0.0
DEBUG;DEBUG10.0;DEBUG2;0.0;DEBUG3;0.0;DEBUG4;0.0
ATTITUDE;ANGX;0.0;ANGY;1.0;HEAD;-118.0
STATUS;CYCLETIME;2824;I2CERR;0;PRESENT;23;MODE;0
RAW_IMU;AX;4.0;AY;0.0;AZ;255.0;GX;0.0;GY;0.0;GZ;0.0;MAGX;88.0;MAGY;-69.0;MAGZ;-16.0
MOT;0;1000.0;1;1000.0;2;1000.0;3;1000.0;4;0.0;5;0.0;6;0.0;7;0.0;
RC;ROLL;1495.0;PITCH;1503.0;YAW;1502.0;THROTTLE;1066.0;AUX1;1681.0;AUX2;1500.0;AUX3;1500.0;AUX4;1500.0
ALTITUDE;0.0
DEBUG;DEBUG10.0;DEBUG2;0.0;DEBUG3;0.0;DEBUG4;0.0
ATTITUDE;ANGX;0.0;ANGY;1.0;HEAD;-118.0
STATUS;CYCLETIME;2828;I2CERR;0;PRESENT;23;MODE;0
RAW_IMU;AX;1.0;AY;1.0;AZ;260.0;GX;0.0;GY;0.0;GZ;0.0;MAGX;87.0;MAGY;-69.0;MAGZ;-16.0
MOT;0;1000.0;1;1000.0;2;1000.0;3;1000.0;4;0.0;5;0.0;6;0.0;7;0.0;
RC;ROLL;1495.0;PITCH;1503.0;YAW;1502.0;THROTTLE;1066.0;AUX1;1681.0;AUX2;1500.0;AUX3;1500.0;AUX4;1500.0
ALTITUDE;0.0
DEBUG;DEBUG10.0;DEBUG2;0.0;DEBUG3;0.0;DEBUG4;0.0
ATTITUDE;ANGX;0.0;ANGY;1.0;HEAD;-118.0
STATUS;CYCLETIME;2828;I2CERR;0;PRESENT;23;MODE;0
RAW_IMU;AX;0.0;AY;1.0;AZ;258.0;GX;0.0;GY;0.0;GZ;0.0;MAGX;87.0;MAGY;-69.0;MAGZ;-16.0
MOT;0;1000.0;1;1000.0;2;1000.0;3;1000.0;4;0.0;5;0.0;6;0.0;7;0.0;
RC;ROLL;1495.0;PITCH;1503.0;YAW;1502.0;THROTTLE;1066.0;AUX1;1681.0;AUX2;1500.0;AUX3;1500.0;AUX4;1500.0
ALTITUDE;0.0
DEBUG;DEBUG10.0;DEBUG2;0.0;DEBUG3;0.0;DEBUG4;0.0
ATTITUDE;ANGX;0.0;ANGY;1.0;HEAD;-118.0
STATUS;CYCLETIME;3148;I2CERR;0;PRESENT;23;MODE;0
RAW_IMU;AX;1.0;AY;2.0;AZ;256.0;GX;0.0;GY;0.0;GZ;0.0;MAGX;87.0;MAGY;-70.0;MAGZ;-17.0
MOT;0;1000.0;1;1000.0;2;1000.0;3;1000.0;4;0.0;5;0.0;6;0.0;7;0.0;
RC;ROLL;1495.0;PITCH;1503.0;YAW;1502.0;THROTTLE;1066.0;AUX1;1681.0;AUX2;1500.0;AUX3;1500.0;AUX4;1500.0
ALTITUDE;0.0
DEBUG;DEBUG10.0;DEBUG2;0.0;DEBUG3;0.0;DEBUG4;0.0
ATTITUDE;ANGX;0.0;ANGY;1.0;HEAD;-118.0
STATUS;CYCLETIME;2848;I2CERR;0;PRESENT;23;MODE;0
RAW_IMU;AX;2.0;AY;2.0;AZ;257.0;GX;0.0;GY;0.0;GZ;0.0;MAGX;87.0;MAGY;-70.0;MAGZ;-17.0
MOT;0;1000.0;1;1000.0;2;1000.0;3;1000.0;4;0.0;5;0.0;6;0.0;7;0.0;
RC;ROLL;1495.0;PITCH;1503.0;YAW;1502.0;THROTTLE;1066.0;AUX1;1681.0;AUX2;1500.0;AUX3;1500.0;AUX4;1500.0
ALTITUDE;0.0
DEBUG;DEBUG10.0;DEBUG2;0.0;DEBUG3;0.0;DEBUG4;0.0
ATTITUDE;ANGX;0.0;ANGY;1.0;HEAD;-118.0
STATUS;CYCLETIME;2904;I2CERR;0;PRESENT;23;MODE;0
RAW_IMU;AX;0.0;AY;0.0;AZ;258.0;GX;0.0;GY;0.0;GZ;0.0;MAGX;89.0;MAGY;-70.0;MAGZ;-16.0
MOT;0;1000.0;1;1000.0;2;1000.0;3;1000.0;4;0.0;5;0.0;6;0.0;7;0.0;
RC;ROLL;1495.0;PITCH;1503.0;YAW;1502.0;THROTTLE;1066.0;AUX1;1681.0;AUX2;1500.0;AUX3;1500.0;AUX4;1500.0
ALTITUDE;0.0
DEBUG;DEBUG10.0;DEBUG2;0.0;DEBUG3;0.0;DEBUG4;0.0
ATTITUDE;ANGX;0.0;ANGY;1.0;HEAD;-118.0
STATUS;CYCLETIME;2804;I2CERR;0;PRESENT;23;MODE;0
RAW_IMU;AX;2.0;AY;0.0;AZ;257.0;GX;0.0;GY;0.0;GZ;0.0;MAGX;89.0;MAGY;-70.0;MAGZ;-16.0
MOT;0;1000.0;1;1000.0;2;1000.0;3;1000.0;4;0.0;5;0.0;6;0.0;7;0.0;
RC;ROLL;1495.0;PITCH;1503.0;YAW;1502.0;THROTTLE;1066.0;AUX1;1681.0;AUX2;1500.0;AUX3;1500.0;AUX4;1500.0
ALTITUDE;0.0
DEBUG;DEBUG10.0;DEBUG2;0.0;DEBUG3;0.0;DEBUG4;0.0
ATTITUDE;ANGX;0.0;ANGY;1.0;HEAD;-118.0
STATUS;CYCLETIME;2824;I2CERR;0;PRESENT;23;MODE;0
RAW_IMU;AX;2.0;AY;-1.0;AZ;256.0;GX;0.0;GY;0.0;GZ;0.0;MAGX;87.0;MAGY;-69.0;MAGZ;-16.0
MOT;0;1000.0;1;1000.0;2;1000.0;3;1000.0;4;0.0;5;0.0;6;0.0;7;0.0;
RC;ROLL;1495.0;PITCH;1503.0;YAW;1502.0;THROTTLE;1066.0;AUX1;1681.0;AUX2;1500.0;AUX3;1500.0;AUX4;1500.0
ALTITUDE;0.0
DEBUG;DEBUG10.0;DEBUG2;0.0;DEBUG3;0.0;DEBUG4;0.0
ATTITUDE;ANGX;0.0;ANGY;1.0;HEAD;-118.0
STATUS;CYCLETIME;2836;I2CERR;0;PRESENT;23;MODE;0
RAW_IMU;AX;2.0;AY;0.0;AZ;256.0;GX;0.0;GY;0.0;GZ;0.0;MAGX;87.0;MAGY;-69.0;MAGZ;-16.0
MOT;0;1000.0;1;1000.0;2;1000.0;3;1000.0;4;0.0;5;0.0;6;0.0;7;0.0;
RC;ROLL;1495.0;PITCH;1503.0;YAW;1502.0;THROTTLE;1066.0;AUX1;1681.0;AUX2;1500.0;AUX3;1500.0;AUX4;1500.0
ALTITUDE;0.0
DEBUG;DEBUG10.0;DEBUG2;0.0;DEBUG3;0.0;DEBUG4;0.0
ATTITUDE;ANGX;0.0;ANGY;1.0;HEAD;-118.0
STATUS;CYCLETIME;2828;I2CERR;0;PRESENT;23;MODE;0
RAW_IMU;AX;3.0;AY;1.0;AZ;256.0;GX;0.0;GY;0.0;GZ;0.0;MAGX;87.0;MAGY;-69.0;MAGZ;-16.0
MOT;0;1000.0;1;1000.0;2;1000.0;3;1000.0;4;0.0;5;0.0;6;0.0;7;0.0;
RC;ROLL;1495.0;PITCH;1503.0;YAW;1502.0;THROTTLE;1066.0;AUX1;1681.0;AUX2;1500.0;AUX3;1500.0;AUX4;1500.0
ALTITUDE;0.0
DEBUG;DEBUG10.0;DEBUG2;0.0;DEBUG3;0.0;DEBUG4;0.0
ATTITUDE;ANGX;0.0;ANGY;1.0;HEAD;-118.0
STATUS;CYCLETIME;2796;I2CERR;0;PRESENT;23;MODE;0
RAW_IMU;AX;2.0;AY;0.0;AZ;256.0;GX;0.0;GY;0.0;GZ;0.0;MAGX;88.0;MAGY;-70.0;MAGZ;-16.0
MOT;0;1000.0;1;1000.0;2;1000.0;3;1000.0;4;0.0;5;0.0;6;0.0;7;0.0;
RC;ROLL;1495.0;PITCH;1501.0;YAW;1502.0;THROTTLE;1066.0;AUX1;1681.0;AUX2;1500.0;AUX3;1500.0;AUX4;1500.0
ALTITUDE;0.0
DEBUG;DEBUG10.0;DEBUG2;0.0;DEBUG3;0.0;DEBUG4;0.0
ATTITUDE;ANGX;0.0;ANGY;1.0;HEAD;-118.0
STATUS;CYCLETIME;2800;I2CERR;0;PRESENT;23;MODE;0
RAW_IMU;AX;-1.0;AY;1.0;AZ;257.0;GX;0.0;GY;0.0;GZ;0.0;MAGX;88.0;MAGY;-70.0;MAGZ;-16.0
MOT;0;1000.0;1;1000.0;2;1000.0;3;1000.0;4;0.0;5;0.0;6;0.0;7;0.0;
RC;ROLL;1495.0;PITCH;1501.0;YAW;1502.0;THROTTLE;1066.0;AUX1;1681.0;AUX2;1500.0;AUX3;1500.0;AUX4;1500.0
ALTITUDE;0.0
DEBUG;DEBUG10.0;DEBUG2;0.0;DEBUG3;0.0;DEBUG4;0.0
ATTITUDE;ANGX;0.0;ANGY;1.0;HEAD;-118.0
STATUS;CYCLETIME;2828;I2CERR;0;PRESENT;23;MODE;0
RAW_IMU;AX;0.0;AY;0.0;AZ;256.0;GX;0.0;GY;0.0;GZ;0.0;MAGX;88.0;MAGY;-70.0;MAGZ;-15.0
MOT;0;1000.0;1;1000.0;2;1000.0;3;1000.0;4;0.0;5;0.0;6;0.0;7;0.0;
RC;ROLL;1495.0;PITCH;1501.0;YAW;1502.0;THROTTLE;1066.0;AUX1;1681.0;AUX2;1500.0;AUX3;1500.0;AUX4;1500.0
ALTITUDE;0.0
DEBUG;DEBUG10.0;DEBUG2;0.0;DEBUG3;0.0;DEBUG4;0.0
ATTITUDE;ANGX;0.0;ANGY;1.0;HEAD;-117.0
STATUS;CYCLETIME;2832;I2CERR;0;PRESENT;23;MODE;0
RAW_IMU;AX;2.0;AY;2.0;AZ;256.0;GX;0.0;GY;0.0;GZ;0.0;MAGX;88.0;MAGY;-70.0;MAGZ;-15.0
MOT;0;1000.0;1;1000.0;2;1000.0;3;1000.0;4;0.0;5;0.0;6;0.0;7;0.0;
RC;ROLL;1495.0;PITCH;1501.0;YAW;1502.0;THROTTLE;1066.0;AUX1;1681.0;AUX2;1500.0;AUX3;1500.0;AUX4;1500.0
ALTITUDE;0.0
DEBUG;DEBUG10.0;DEBUG2;0.0;DEBUG3;0.0;DEBUG4;0.0
ATTITUDE;ANGX;0.0;ANGY;1.0;HEAD;-117.0
STATUS;CYCLETIME;2800;I2CERR;0;PRESENT;23;MODE;0
RAW_IMU;AX;1.0;AY;1.0;AZ;257.0;GX;0.0;GY;0.0;GZ;0.0;MAGX;88.0;MAGY;-70.0;MAGZ;-16.0
MOT;0;1000.0;1;1000.0;2;1000.0;3;1000.0;4;0.0;5;0.0;6;0.0;7;0.0;
RC;ROLL;1495.0;PITCH;1501.0;YAW;1502.0;THROTTLE;1066.0;AUX1;1681.0;AUX2;1500.0;AUX3;1500.0;AUX4;1500.0
ALTITUDE;0.0
DEBUG;DEBUG10.0;DEBUG2;0.0;DEBUG3;0.0;DEBUG4;0.0
ATTITUDE;ANGX;0.0;ANGY;1.0;HEAD;-117.0
STATUS;CYCLETIME;2800;I2CERR;0;PRESENT;23;MODE;0
RAW_IMU;AX;0.0;AY;-1.0;AZ;258.0;GX;0.0;GY;0.0;GZ;0.0;MAGX;88.0;MAGY;-70.0;MAGZ;-16.0
MOT;0;1000.0;1;1000.0;2;1000.0;3;1000.0;4;0.0;5;0.0;6;0.0;7;0.0;
RC;ROLL;1495.0;PITCH;1501.0;YAW;1502.0;THROTTLE;1066.0;AUX1;1681.0;AUX2;1500.0;AUX3;1500.0;AUX4;1500.0
ALTITUDE;0.0
DEBUG;DEBUG10.0;DEBUG2;0.0;DEBUG3;0.0;DEBUG4;0.0
ATTITUDE;ANGX;0.0;ANGY;1.0;HEAD;-118.0
STATUS;CYCLETIME;2808;I2CERR;0;PRESENT;23;MODE;0
RAW_IMU;AX;0.0;AY;1.0;AZ;256.0;GX;0.0;GY;0.0;GZ;0.0;MAGX;88.0;MAGY;-70.0;MAGZ;-16.0
MOT;0;1000.0;1;1000.0;2;1000.0;3;1000.0;4;0.0;5;0.0;6;0.0;7;0.0;
RC;ROLL;1495.0;PITCH;1501.0;YAW;1502.0;THROTTLE;1066.0;AUX1;1681.0;AUX2;1500.0;AUX3;1500.0;AUX4;1500.0
ALTITUDE;0.0
DEBUG;DEBUG10.0;DEBUG2;0.0;DEBUG3;0.0;DEBUG4;0.0
ATTITUDE;ANGX;0.0;ANGY;1.0;HEAD;-118.0
STATUS;CYCLETIME;2844;I2CERR;0;PRESENT;23;MODE;0
RAW_IMU;AX;3.0;AY;1.0;AZ;258.0;GX;0.0;GY;0.0;GZ;0.0;MAGX;88.0;MAGY;-70.0;MAGZ;-16.0
MOT;0;1000.0;1;1000.0;2;1000.0;3;1000.0;4;0.0;5;0.0;6;0.0;7;0.0;
RC;ROLL;1495.0;PITCH;1501.0;YAW;1502.0;THROTTLE;1066.0;AUX1;1681.0;AUX2;1500.0;AUX3;1500.0;AUX4;1500.0
ALTITUDE;0.0
DEBUG;DEBUG10.0;DEBUG2;0.0;DEBUG3;0.0;DEBUG4;0.0
ATTITUDE;ANGX;0.0;ANGY;1.0;HEAD;-118.0
STATUS;CYCLETIME;2816;I2CERR;0;PRESENT;23;MODE;0
RAW_IMU;AX;4.0;AY;1.0;AZ;257.0;GX;0.0;GY;0.0;GZ;0.0;MAGX;88.0;MAGY;-69.0;MAGZ;-15.0
MOT;0;1000.0;1;1000.0;2;1000.0;3;1000.0;4;0.0;5;0.0;6;0.0;7;0.0;
RC;ROLL;1495.0;PITCH;1501.0;YAW;1502.0;THROTTLE;1066.0;AUX1;1681.0;AUX2;1500.0;AUX3;1500.0;AUX4;1500.0
ALTITUDE;0.0
DEBUG;DEBUG10.0;DEBUG2;0.0;DEBUG3;0.0;DEBUG4;0.0
ATTITUDE;ANGX;0.0;ANGY;1.0;HEAD;-118.0
STATUS;CYCLETIME;2824;I2CERR;0;PRESENT;23;MODE;0
RAW_IMU;AX;1.0;AY;1.0;AZ;256.0;GX;0.0;GY;0.0;GZ;0.0;MAGX;88.0;MAGY;-69.0;MAGZ;-15.0
MOT;0;1000.0;1;1000.0;2;1000.0;3;1000.0;4;0.0;5;0.0;6;0.0;7;0.0;
RC;ROLL;1495.0;PITCH;1501.0;YAW;1502.0;THROTTLE;1066.0;AUX1;1681.0;AUX2;1500.0;AUX3;1500.0;AUX4;1500.0
ALTITUDE;0.0
DEBUG;DEBUG10.0;DEBUG2;0.0;DEBUG3;0.0;DEBUG4;0.0
ATTITUDE;ANGX;0.0;ANGY;1.0;HEAD;-117.0
STATUS;CYCLETIME;2912;I2CERR;0;PRESENT;23;MODE;0
RAW_IMU;AX;2.0;AY;2.0;AZ;256.0;GX;0.0;GY;0.0;GZ;0.0;MAGX;88.0;MAGY;-71.0;MAGZ;-16.0
MOT;0;1000.0;1;1000.0;2;1000.0;3;1000.0;4;0.0;5;0.0;6;0.0;7;0.0;
RC;ROLL;1495.0;PITCH;1503.0;YAW;1502.0;THROTTLE;1066.0;AUX1;1681.0;AUX2;1500.0;AUX3;1500.0;AUX4;1500.0
ALTITUDE;0.0
DEBUG;DEBUG10.0;DEBUG2;0.0;DEBUG3;0.0;DEBUG4;0.0
ATTITUDE;ANGX;0.0;ANGY;1.0;HEAD;-117.0
STATUS;CYCLETIME;2816;I2CERR;0;PRESENT;23;MODE;0
RAW_IMU;AX;2.0;AY;-1.0;AZ;258.0;GX;0.0;GY;0.0;GZ;0.0;MAGX;88.0;MAGY;-71.0;MAGZ;-16.0
MOT;0;1000.0;1;1000.0;2;1000.0;3;1000.0;4;0.0;5;0.0;6;0.0;7;0.0;
RC;ROLL;1495.0;PITCH;1503.0;YAW;1502.0;THROTTLE;1066.0;AUX1;1681.0;AUX2;1500.0;AUX3;1500.0;AUX4;1500.0
ALTITUDE;0.0
DEBUG;DEBUG10.0;DEBUG2;0.0;DEBUG3;0.0;DEBUG4;0.0
ATTITUDE;ANGX;0.0;ANGY;1.0;HEAD;-117.0
STATUS;CYCLETIME;2832;I2CERR;0;PRESENT;23;MODE;0
RAW_IMU;AX;2.0;AY;0.0;AZ;257.0;GX;0.0;GY;0.0;GZ;0.0;MAGX;87.0;MAGY;-69.0;MAGZ;-16.0
MOT;0;1000.0;1;1000.0;2;1000.0;3;1000.0;4;0.0;5;0.0;6;0.0;7;0.0;
RC;ROLL;1495.0;PITCH;1503.0;YAW;1502.0;THROTTLE;1066.0;AUX1;1681.0;AUX2;1500.0;AUX3;1500.0;AUX4;1500.0
ALTITUDE;0.0
DEBUG;DEBUG10.0;DEBUG2;0.0;DEBUG3;0.0;DEBUG4;0.0
ATTITUDE;ANGX;0.0;ANGY;1.0;HEAD;-117.0
STATUS;CYCLETIME;2960;I2CERR;0;PRESENT;23;MODE;0
RAW_IMU;AX;1.0;AY;-1.0;AZ;258.0;GX;0.0;GY;0.0;GZ;0.0;MAGX;87.0;MAGY;-69.0;MAGZ;-16.0
MOT;0;1000.0;1;1000.0;2;1000.0;3;1000.0;4;0.0;5;0.0;6;0.0;7;0.0;
RC;ROLL;1495.0;PITCH;1503.0;YAW;1502.0;THROTTLE;1066.0;AUX1;1681.0;AUX2;1500.0;AUX3;1500.0;AUX4;1500.0
ALTITUDE;0.0
DEBUG;DEBUG10.0;DEBUG2;0.0;DEBUG3;0.0;DEBUG4;0.0
ATTITUDE;ANGX;0.0;ANGY;1.0;HEAD;-118.0
STATUS;CYCLETIME;2836;I2CERR;0;PRESENT;23;MODE;0
RAW_IMU;AX;2.0;AY;-1.0;AZ;258.0;GX;0.0;GY;0.0;GZ;0.0;MAGX;87.0;MAGY;-69.0;MAGZ;-16.0
MOT;0;1000.0;1;1000.0;2;1000.0;3;1000.0;4;0.0;5;0.0;6;0.0;7;0.0;
RC;ROLL;1495.0;PITCH;1503.0;YAW;1502.0;THROTTLE;1066.0;AUX1;1681.0;AUX2;1500.0;AUX3;1500.0;AUX4;1500.0
ALTITUDE;0.0
DEBUG;DEBUG10.0;DEBUG2;0.0;DEBUG3;0.0;DEBUG4;0.0
ATTITUDE;ANGX;0.0;ANGY;1.0;HEAD;-118.0
STATUS;CYCLETIME;2804;I2CERR;0;PRESENT;23;MODE;0
RAW_IMU;AX;3.0;AY;1.0;AZ;257.0;GX;0.0;GY;0.0;GZ;0.0;MAGX;87.0;MAGY;-69.0;MAGZ;-16.0
MOT;0;1000.0;1;1000.0;2;1000.0;3;1000.0;4;0.0;5;0.0;6;0.0;7;0.0;
RC;ROLL;1495.0;PITCH;1503.0;YAW;1502.0;THROTTLE;1066.0;AUX1;1681.0;AUX2;1500.0;AUX3;1500.0;AUX4;1500.0
ALTITUDE;0.0
DEBUG;DEBUG10.0;DEBUG2;0.0;DEBUG3;0.0;DEBUG4;0.0
ATTITUDE;ANGX;0.0;ANGY;1.0;HEAD;-118.0
STATUS;CYCLETIME;2948;I2CERR;0;PRESENT;23;MODE;0
RAW_IMU;AX;1.0;AY;1.0;AZ;258.0;GX;0.0;GY;0.0;GZ;0.0;MAGX;88.0;MAGY;-70.0;MAGZ;-16.0
MOT;0;1000.0;1;1000.0;2;1000.0;3;1000.0;4;0.0;5;0.0;6;0.0;7;0.0;
RC;ROLL;1495.0;PITCH;1503.0;YAW;1502.0;THROTTLE;1066.0;AUX1;1681.0;AUX2;1500.0;AUX3;1500.0;AUX4;1500.0
ALTITUDE;0.0
DEBUG;DEBUG10.0;DEBUG2;0.0;DEBUG3;0.0;DEBUG4;0.0
ATTITUDE;ANGX;0.0;ANGY;1.0;HEAD;-118.0
STATUS;CYCLETIME;2836;I2CERR;0;PRESENT;23;MODE;0
RAW_IMU;AX;1.0;AY;0.0;AZ;258.0;GX;0.0;GY;0.0;GZ;0.0;MAGX;88.0;MAGY;-70.0;MAGZ;-16.0
MOT;0;1000.0;1;1000.0;2;1000.0;3;1000.0;4;0.0;5;0.0;6;0.0;7;0.0;
RC;ROLL;1495.0;PITCH;1503.0;YAW;1502.0;THROTTLE;1068.0;AUX1;1681.0;AUX2;1500.0;AUX3;1500.0;AUX4;1500.0
ALTITUDE;0.0
DEBUG;DEBUG10.0;DEBUG2;0.0;DEBUG3;0.0;DEBUG4;0.0
ATTITUDE;ANGX;0.0;ANGY;1.0;HEAD;-118.0
STATUS;CYCLETIME;2816;I2CERR;0;PRESENT;23;MODE;0
RAW_IMU;AX;2.0;AY;1.0;AZ;256.0;GX;0.0;GY;0.0;GZ;0.0;MAGX;88.0;MAGY;-70.0;MAGZ;-15.0
MOT;0;1000.0;1;1000.0;2;1000.0;3;1000.0;4;0.0;5;0.0;6;0.0;7;0.0;
RC;ROLL;1495.0;PITCH;1503.0;YAW;1502.0;THROTTLE;1068.0;AUX1;1681.0;AUX2;1500.0;AUX3;1500.0;AUX4;1500.0
ALTITUDE;0.0
DEBUG;DEBUG10.0;DEBUG2;0.0;DEBUG3;0.0;DEBUG4;0.0
ATTITUDE;ANGX;0.0;ANGY;1.0;HEAD;-118.0
STATUS;CYCLETIME;2804;I2CERR;0;PRESENT;23;MODE;0
RAW_IMU;AX;2.0;AY;1.0;AZ;256.0;GX;0.0;GY;0.0;GZ;0.0;MAGX;88.0;MAGY;-70.0;MAGZ;-15.0
MOT;0;1000.0;1;1000.0;2;1000.0;3;1000.0;4;0.0;5;0.0;6;0.0;7;0.0;
RC;ROLL;1495.0;PITCH;1503.0;YAW;1502.0;THROTTLE;1068.0;AUX1;1681.0;AUX2;1500.0;AUX3;1500.0;AUX4;1500.0
ALTITUDE;0.0
DEBUG;DEBUG10.0;DEBUG2;0.0;DEBUG3;0.0;DEBUG4;0.0
ATTITUDE;ANGX;0.0;ANGY;1.0;HEAD;-118.0
STATUS;CYCLETIME;2808;I2CERR;0;PRESENT;23;MODE;0
RAW_IMU;AX;2.0;AY;2.0;AZ;258.0;GX;0.0;GY;0.0;GZ;0.0;MAGX;88.0;MAGY;-70.0;MAGZ;-15.0
MOT;0;1000.0;1;1000.0;2;1000.0;3;1000.0;4;0.0;5;0.0;6;0.0;7;0.0;
RC;ROLL;1495.0;PITCH;1503.0;YAW;1502.0;THROTTLE;1068.0;AUX1;1681.0;AUX2;1500.0;AUX3;1500.0;AUX4;1500.0
ALTITUDE;0.0
DEBUG;DEBUG10.0;DEBUG2;0.0;DEBUG3;0.0;DEBUG4;0.0
ATTITUDE;ANGX;0.0;ANGY;1.0;HEAD;-118.0
STATUS;CYCLETIME;2844;I2CERR;0;PRESENT;23;MODE;0
RAW_IMU;AX;-1.0;AY;1.0;AZ;257.0;GX;0.0;GY;0.0;GZ;0.0;MAGX;87.0;MAGY;-69.0;MAGZ;-16.0
MOT;0;1000.0;1;1000.0;2;1000.0;3;1000.0;4;0.0;5;0.0;6;0.0;7;0.0;
RC;ROLL;1495.0;PITCH;1503.0;YAW;1502.0;THROTTLE;1068.0;AUX1;1681.0;AUX2;1500.0;AUX3;1500.0;AUX4;1500.0
ALTITUDE;0.0
DEBUG;DEBUG10.0;DEBUG2;0.0;DEBUG3;0.0;DEBUG4;0.0
ATTITUDE;ANGX;0.0;ANGY;1.0;HEAD;-118.0
STATUS;CYCLETIME;2780;I2CERR;0;PRESENT;23;MODE;0
RAW_IMU;AX;1.0;AY;2.0;AZ;257.0;GX;0.0;GY;0.0;GZ;0.0;MAGX;87.0;MAGY;-69.0;MAGZ;-16.0
MOT;0;1000.0;1;1000.0;2;1000.0;3;1000.0;4;0.0;5;0.0;6;0.0;7;0.0;
RC;ROLL;1495.0;PITCH;1503.0;YAW;1502.0;THROTTLE;1068.0;AUX1;1681.0;AUX2;1500.0;AUX3;1500.0;AUX4;1500.0
ALTITUDE;0.0
DEBUG;DEBUG10.0;DEBUG2;0.0;DEBUG3;0.0;DEBUG4;0.0
ATTITUDE;ANGX;0.0;ANGY;1.0;HEAD;-118.0
STATUS;CYCLETIME;2836;I2CERR;0;PRESENT;23;MODE;0
RAW_IMU;AX;2.0;AY;0.0;AZ;256.0;GX;0.0;GY;0.0;GZ;0.0;MAGX;89.0;MAGY;-70.0;MAGZ;-16.0
MOT;0;1000.0;1;1000.0;2;1000.0;3;1000.0;4;0.0;5;0.0;6;0.0;7;0.0;
RC;ROLL;1495.0;PITCH;1503.0;YAW;1502.0;THROTTLE;1068.0;AUX1;1681.0;AUX2;1500.0;AUX3;1500.0;AUX4;1500.0
ALTITUDE;0.0
DEBUG;DEBUG10.0;DEBUG2;0.0;DEBUG3;0.0;DEBUG4;0.0
ATTITUDE;ANGX;0.0;ANGY;1.0;HEAD;-118.0
STATUS;CYCLETIME;2832;I2CERR;0;PRESENT;23;MODE;0
RAW_IMU;AX;3.0;AY;0.0;AZ;256.0;GX;0.0;GY;0.0;GZ;0.0;MAGX;89.0;MAGY;-70.0;MAGZ;-16.0
MOT;0;1000.0;1;1000.0;2;1000.0;3;1000.0;4;0.0;5;0.0;6;0.0;7;0.0;
RC;ROLL;1495.0;PITCH;1503.0;YAW;1502.0;THROTTLE;1068.0;AUX1;1681.0;AUX2;1500.0;AUX3;1500.0;AUX4;1500.0
ALTITUDE;0.0
DEBUG;DEBUG10.0;DEBUG2;0.0;DEBUG3;0.0;DEBUG4;0.0
ATTITUDE;ANGX;0.0;ANGY;1.0;HEAD;-117.0
STATUS;CYCLETIME;2772;I2CERR;0;PRESENT;23;MODE;0
RAW_IMU;AX;2.0;AY;0.0;AZ;257.0;GX;0.0;GY;0.0;GZ;0.0;MAGX;87.0;MAGY;-69.0;MAGZ;-17.0
MOT;0;1000.0;1;1000.0;2;1000.0;3;1000.0;4;0.0;5;0.0;6;0.0;7;0.0;
RC;ROLL;1495.0;PITCH;1503.0;YAW;1502.0;THROTTLE;1068.0;AUX1;1681.0;AUX2;1500.0;AUX3;1500.0;AUX4;1500.0
ALTITUDE;0.0
DEBUG;DEBUG10.0;DEBUG2;0.0;DEBUG3;0.0;DEBUG4;0.0
ATTITUDE;ANGX;0.0;ANGY;1.0;HEAD;-118.0
STATUS;CYCLETIME;2880;I2CERR;0;PRESENT;23;MODE;0
RAW_IMU;AX;3.0;AY;0.0;AZ;257.0;GX;0.0;GY;0.0;GZ;0.0;MAGX;87.0;MAGY;-69.0;MAGZ;-17.0
MOT;0;1000.0;1;1000.0;2;1000.0;3;1000.0;4;0.0;5;0.0;6;0.0;7;0.0;
RC;ROLL;1495.0;PITCH;1503.0;YAW;1502.0;THROTTLE;1068.0;AUX1;1681.0;AUX2;1500.0;AUX3;1500.0;AUX4;1500.0
ALTITUDE;0.0
DEBUG;DEBUG10.0;DEBUG2;0.0;DEBUG3;0.0;DEBUG4;0.0
ATTITUDE;ANGX;0.0;ANGY;1.0;HEAD;-118.0
STATUS;CYCLETIME;2856;I2CERR;0;PRESENT;23;MODE;0
RAW_IMU;AX;0.0;AY;2.0;AZ;258.0;GX;0.0;GY;0.0;GZ;0.0;MAGX;87.0;MAGY;-70.0;MAGZ;-15.0
MOT;0;1000.0;1;1000.0;2;1000.0;3;1000.0;4;0.0;5;0.0;6;0.0;7;0.0;
RC;ROLL;1495.0;PITCH;1503.0;YAW;1502.0;THROTTLE;1068.0;AUX1;1681.0;AUX2;1500.0;AUX3;1500.0;AUX4;1500.0
ALTITUDE;0.0
DEBUG;DEBUG10.0;DEBUG2;0.0;DEBUG3;0.0;DEBUG4;0.0
ATTITUDE;ANGX;0.0;ANGY;1.0;HEAD;-118.0
STATUS;CYCLETIME;2808;I2CERR;0;PRESENT;23;MODE;0
RAW_IMU;AX;0.0;AY;1.0;AZ;256.0;GX;0.0;GY;0.0;GZ;0.0;MAGX;87.0;MAGY;-70.0;MAGZ;-15.0
MOT;0;1000.0;1;1000.0;2;1000.0;3;1000.0;4;0.0;5;0.0;6;0.0;7;0.0;
RC;ROLL;1495.0;PITCH;1501.0;YAW;1502.0;THROTTLE;1068.0;AUX1;1681.0;AUX2;1500.0;AUX3;1500.0;AUX4;1500.0
ALTITUDE;0.0
DEBUG;DEBUG10.0;DEBUG2;0.0;DEBUG3;0.0;DEBUG4;0.0
ATTITUDE;ANGX;0.0;ANGY;1.0;HEAD;-118.0
STATUS;CYCLETIME;2792;I2CERR;0;PRESENT;23;MODE;0
RAW_IMU;AX;1.0;AY;0.0;AZ;256.0;GX;0.0;GY;0.0;GZ;0.0;MAGX;87.0;MAGY;-69.0;MAGZ;-15.0
MOT;0;1000.0;1;1000.0;2;1000.0;3;1000.0;4;0.0;5;0.0;6;0.0;7;0.0;
RC;ROLL;1495.0;PITCH;1501.0;YAW;1502.0;THROTTLE;1068.0;AUX1;1681.0;AUX2;1500.0;AUX3;1500.0;AUX4;1500.0
ALTITUDE;0.0
DEBUG;DEBUG10.0;DEBUG2;0.0;DEBUG3;0.0;DEBUG4;0.0
ATTITUDE;ANGX;0.0;ANGY;1.0;HEAD;-118.0
STATUS;CYCLETIME;2808;I2CERR;0;PRESENT;23;MODE;0
RAW_IMU;AX;1.0;AY;1.0;AZ;256.0;GX;0.0;GY;0.0;GZ;0.0;MAGX;87.0;MAGY;-69.0;MAGZ;-15.0
MOT;0;1000.0;1;1000.0;2;1000.0;3;1000.0;4;0.0;5;0.0;6;0.0;7;0.0;
RC;ROLL;1495.0;PITCH;1501.0;YAW;1502.0;THROTTLE;1068.0;AUX1;1681.0;AUX2;1500.0;AUX3;1500.0;AUX4;1500.0
ALTITUDE;0.0
DEBUG;DEBUG10.0;DEBUG2;0.0;DEBUG3;0.0;DEBUG4;0.0
ATTITUDE;ANGX;0.0;ANGY;1.0;HEAD;-118.0
STATUS;CYCLETIME;2912;I2CERR;0;PRESENT;23;MODE;0
RAW_IMU;AX;1.0;AY;1.0;AZ;257.0;GX;0.0;GY;0.0;GZ;0.0;MAGX;88.0;MAGY;-70.0;MAGZ;-16.0
MOT;0;1000.0;1;1000.0;2;1000.0;3;1000.0;4;0.0;5;0.0;6;0.0;7;0.0;
RC;ROLL;1495.0;PITCH;1501.0;YAW;1502.0;THROTTLE;1068.0;AUX1;1681.0;AUX2;1500.0;AUX3;1500.0;AUX4;1500.0
ALTITUDE;0.0
DEBUG;DEBUG10.0;DEBUG2;0.0;DEBUG3;0.0;DEBUG4;0.0
ATTITUDE;ANGX;0.0;ANGY;1.0;HEAD;-118.0
STATUS;CYCLETIME;2836;I2CERR;0;PRESENT;23;MODE;0
RAW_IMU;AX;2.0;AY;1.0;AZ;258.0;GX;0.0;GY;0.0;GZ;0.0;MAGX;88.0;MAGY;-70.0;MAGZ;-16.0
MOT;0;1000.0;1;1000.0;2;1000.0;3;1000.0;4;0.0;5;0.0;6;0.0;7;0.0;
RC;ROLL;1495.0;PITCH;1501.0;YAW;1502.0;THROTTLE;1068.0;AUX1;1681.0;AUX2;1500.0;AUX3;1500.0;AUX4;1500.0
ALTITUDE;0.0
DEBUG;DEBUG10.0;DEBUG2;0.0;DEBUG3;0.0;DEBUG4;0.0
ATTITUDE;ANGX;0.0;ANGY;1.0;HEAD;-118.0
STATUS;CYCLETIME;2808;I2CERR;0;PRESENT;23;MODE;0
RAW_IMU;AX;2.0;AY;-1.0;AZ;260.0;GX;0.0;GY;0.0;GZ;0.0;MAGX;88.0;MAGY;-69.0;MAGZ;-15.0
MOT;0;1000.0;1;1000.0;2;1000.0;3;1000.0;4;0.0;5;0.0;6;0.0;7;0.0;
RC;ROLL;1495.0;PITCH;1501.0;YAW;1502.0;THROTTLE;1068.0;AUX1;1681.0;AUX2;1500.0;AUX3;1500.0;AUX4;1500.0
ALTITUDE;0.0
DEBUG;DEBUG10.0;DEBUG2;0.0;DEBUG3;0.0;DEBUG4;0.0
ATTITUDE;ANGX;0.0;ANGY;1.0;HEAD;-117.0
STATUS;CYCLETIME;2908;I2CERR;0;PRESENT;23;MODE;0
RAW_IMU;AX;1.0;AY;0.0;AZ;260.0;GX;0.0;GY;0.0;GZ;0.0;MAGX;88.0;MAGY;-69.0;MAGZ;-15.0
MOT;0;1000.0;1;1000.0;2;1000.0;3;1000.0;4;0.0;5;0.0;6;0.0;7;0.0;
RC;ROLL;1495.0;PITCH;1501.0;YAW;1502.0;THROTTLE;1068.0;AUX1;1681.0;AUX2;1500.0;AUX3;1500.0;AUX4;1500.0
ALTITUDE;0.0
DEBUG;DEBUG10.0;DEBUG2;0.0;DEBUG3;0.0;DEBUG4;0.0
ATTITUDE;ANGX;0.0;ANGY;1.0;HEAD;-117.0
STATUS;CYCLETIME;2832;I2CERR;0;PRESENT;23;MODE;0
RAW_IMU;AX;1.0;AY;-2.0;AZ;257.0;GX;0.0;GY;0.0;GZ;0.0;MAGX;87.0;MAGY;-69.0;MAGZ;-16.0
MOT;0;1000.0;1;1000.0;2;1000.0;3;1000.0;4;0.0;5;0.0;6;0.0;7;0.0;
RC;ROLL;1495.0;PITCH;1501.0;YAW;1502.0;THROTTLE;1068.0;AUX1;1681.0;AUX2;1500.0;AUX3;1500.0;AUX4;1500.0
ALTITUDE;0.0
DEBUG;DEBUG10.0;DEBUG2;0.0;DEBUG3;0.0;DEBUG4;0.0
ATTITUDE;ANGX;0.0;ANGY;1.0;HEAD;-117.0
STATUS;CYCLETIME;2836;I2CERR;0;PRESENT;23;MODE;0
RAW_IMU;AX;-1.0;AY;-2.0;AZ;261.0;GX;0.0;GY;0.0;GZ;0.0;MAGX;87.0;MAGY;-69.0;MAGZ;-16.0
MOT;0;1000.0;1;1000.0;2;1000.0;3;1000.0;4;0.0;5;0.0;6;0.0;7;0.0;
RC;ROLL;1495.0;PITCH;1501.0;YAW;1502.0;THROTTLE;1066.0;AUX1;1681.0;AUX2;1500.0;AUX3;1500.0;AUX4;1500.0
ALTITUDE;0.0
DEBUG;DEBUG10.0;DEBUG2;0.0;DEBUG3;0.0;DEBUG4;0.0
ATTITUDE;ANGX;0.0;ANGY;1.0;HEAD;-117.0
STATUS;CYCLETIME;2924;I2CERR;0;PRESENT;23;MODE;0
RAW_IMU;AX;3.0;AY;-1.0;AZ;258.0;GX;0.0;GY;0.0;GZ;0.0;MAGX;87.0;MAGY;-71.0;MAGZ;-16.0
MOT;0;1000.0;1;1000.0;2;1000.0;3;1000.0;4;0.0;5;0.0;6;0.0;7;0.0;
RC;ROLL;1495.0;PITCH;1501.0;YAW;1502.0;THROTTLE;1066.0;AUX1;1681.0;AUX2;1500.0;AUX3;1500.0;AUX4;1500.0
ALTITUDE;0.0
DEBUG;DEBUG10.0;DEBUG2;0.0;DEBUG3;0.0;DEBUG4;0.0
ATTITUDE;ANGX;0.0;ANGY;1.0;HEAD;-117.0
STATUS;CYCLETIME;2796;I2CERR;0;PRESENT;23;MODE;0
RAW_IMU;AX;1.0;AY;0.0;AZ;257.0;GX;0.0;GY;0.0;GZ;0.0;MAGX;87.0;MAGY;-71.0;MAGZ;-16.0
MOT;0;1000.0;1;1000.0;2;1000.0;3;1000.0;4;0.0;5;0.0;6;0.0;7;0.0;
RC;ROLL;1495.0;PITCH;1501.0;YAW;1502.0;THROTTLE;1066.0;AUX1;1681.0;AUX2;1500.0;AUX3;1500.0;AUX4;1500.0
ALTITUDE;0.0
DEBUG;DEBUG10.0;DEBUG2;0.0;DEBUG3;0.0;DEBUG4;0.0
ATTITUDE;ANGX;0.0;ANGY;1.0;HEAD;-118.0
STATUS;CYCLETIME;3120;I2CERR;0;PRESENT;23;MODE;0
RAW_IMU;AX;1.0;AY;1.0;AZ;256.0;GX;0.0;GY;0.0;GZ;0.0;MAGX;88.0;MAGY;-70.0;MAGZ;-15.0
MOT;0;1000.0;1;1000.0;2;1000.0;3;1000.0;4;0.0;5;0.0;6;0.0;7;0.0;
RC;ROLL;1495.0;PITCH;1501.0;YAW;1502.0;THROTTLE;1066.0;AUX1;1681.0;AUX2;1500.0;AUX3;1500.0;AUX4;1500.0
ALTITUDE;0.0
DEBUG;DEBUG10.0;DEBUG2;0.0;DEBUG3;0.0;DEBUG4;0.0
ATTITUDE;ANGX;0.0;ANGY;1.0;HEAD;-118.0
STATUS;CYCLETIME;2912;I2CERR;0;PRESENT;23;MODE;0
RAW_IMU;AX;2.0;AY;0.0;AZ;259.0;GX;0.0;GY;0.0;GZ;0.0;MAGX;88.0;MAGY;-70.0;MAGZ;-15.0
MOT;0;1000.0;1;1000.0;2;1000.0;3;1000.0;4;0.0;5;0.0;6;0.0;7;0.0;
RC;ROLL;1495.0;PITCH;1501.0;YAW;1502.0;THROTTLE;1066.0;AUX1;1681.0;AUX2;1500.0;AUX3;1500.0;AUX4;1500.0
ALTITUDE;0.0
DEBUG;DEBUG10.0;DEBUG2;0.0;DEBUG3;0.0;DEBUG4;0.0
ATTITUDE;ANGX;0.0;ANGY;1.0;HEAD;-118.0
STATUS;CYCLETIME;2848;I2CERR;0;PRESENT;23;MODE;0
RAW_IMU;AX;0.0;AY;1.0;AZ;255.0;GX;0.0;GY;0.0;GZ;0.0;MAGX;88.0;MAGY;-70.0;MAGZ;-15.0
MOT;0;1000.0;1;1000.0;2;1000.0;3;1000.0;4;0.0;5;0.0;6;0.0;7;0.0;
RC;ROLL;1495.0;PITCH;1501.0;YAW;1502.0;THROTTLE;1066.0;AUX1;1681.0;AUX2;1500.0;AUX3;1500.0;AUX4;1500.0
ALTITUDE;0.0
DEBUG;DEBUG10.0;DEBUG2;0.0;DEBUG3;0.0;DEBUG4;0.0
ATTITUDE;ANGX;0.0;ANGY;1.0;HEAD;-118.0
STATUS;CYCLETIME;2808;I2CERR;0;PRESENT;23;MODE;0
RAW_IMU;AX;-1.0;AY;1.0;AZ;256.0;GX;0.0;GY;0.0;GZ;0.0;MAGX;87.0;MAGY;-70.0;MAGZ;-16.0
MOT;0;1000.0;1;1000.0;2;1000.0;3;1000.0;4;0.0;5;0.0;6;0.0;7;0.0;
RC;ROLL;1495.0;PITCH;1501.0;YAW;1502.0;THROTTLE;1066.0;AUX1;1681.0;AUX2;1500.0;AUX3;1500.0;AUX4;1500.0
ALTITUDE;0.0
DEBUG;DEBUG10.0;DEBUG2;0.0;DEBUG3;0.0;DEBUG4;0.0
ATTITUDE;ANGX;0.0;ANGY;1.0;HEAD;-118.0
STATUS;CYCLETIME;2908;I2CERR;0;PRESENT;23;MODE;0
RAW_IMU;AX;0.0;AY;0.0;AZ;258.0;GX;0.0;GY;0.0;GZ;0.0;MAGX;87.0;MAGY;-70.0;MAGZ;-16.0
MOT;0;1000.0;1;1000.0;2;1000.0;3;1000.0;4;0.0;5;0.0;6;0.0;7;0.0;
RC;ROLL;1495.0;PITCH;1501.0;YAW;1502.0;THROTTLE;1066.0;AUX1;1681.0;AUX2;1500.0;AUX3;1500.0;AUX4;1500.0
ALTITUDE;0.0
DEBUG;DEBUG10.0;DEBUG2;0.0;DEBUG3;0.0;DEBUG4;0.0
ATTITUDE;ANGX;0.0;ANGY;1.0;HEAD;-118.0
STATUS;CYCLETIME;2840;I2CERR;0;PRESENT;23;MODE;0
RAW_IMU;AX;1.0;AY;-1.0;AZ;260.0;GX;0.0;GY;0.0;GZ;0.0;MAGX;89.0;MAGY;-70.0;MAGZ;-15.0
MOT;0;1000.0;1;1000.0;2;1000.0;3;1000.0;4;0.0;5;0.0;6;0.0;7;0.0;
RC;ROLL;1495.0;PITCH;1501.0;YAW;1502.0;THROTTLE;1066.0;AUX1;1681.0;AUX2;1500.0;AUX3;1500.0;AUX4;1500.0
ALTITUDE;0.0
DEBUG;DEBUG10.0;DEBUG2;0.0;DEBUG3;0.0;DEBUG4;0.0
ATTITUDE;ANGX;0.0;ANGY;1.0;HEAD;-118.0
STATUS;CYCLETIME;2824;I2CERR;0;PRESENT;23;MODE;0
RAW_IMU;AX;2.0;AY;0.0;AZ;259.0;GX;0.0;GY;0.0;GZ;0.0;MAGX;89.0;MAGY;-70.0;MAGZ;-15.0
MOT;0;1000.0;1;1000.0;2;1000.0;3;1000.0;4;0.0;5;0.0;6;0.0;7;0.0;
RC;ROLL;1495.0;PITCH;1501.0;YAW;1502.0;THROTTLE;1066.0;AUX1;1681.0;AUX2;1500.0;AUX3;1500.0;AUX4;1500.0
ALTITUDE;0.0
DEBUG;DEBUG10.0;DEBUG2;0.0;DEBUG3;0.0;DEBUG4;0.0
ATTITUDE;ANGX;0.0;ANGY;1.0;HEAD;-118.0
STATUS;CYCLETIME;2860;I2CERR;0;PRESENT;23;MODE;0
RAW_IMU;AX;0.0;AY;1.0;AZ;256.0;GX;0.0;GY;0.0;GZ;0.0;MAGX;87.0;MAGY;-71.0;MAGZ;-16.0
MOT;0;1000.0;1;1000.0;2;1000.0;3;1000.0;4;0.0;5;0.0;6;0.0;7;0.0;
RC;ROLL;1495.0;PITCH;1501.0;YAW;1502.0;THROTTLE;1066.0;AUX1;1681.0;AUX2;1500.0;AUX3;1500.0;AUX4;1500.0
ALTITUDE;0.0
DEBUG;DEBUG10.0;DEBUG2;0.0;DEBUG3;0.0;DEBUG4;0.0
ATTITUDE;ANGX;0.0;ANGY;1.0;HEAD;-118.0
STATUS;CYCLETIME;2812;I2CERR;0;PRESENT;23;MODE;0
RAW_IMU;AX;1.0;AY;2.0;AZ;257.0;GX;0.0;GY;0.0;GZ;0.0;MAGX;87.0;MAGY;-71.0;MAGZ;-16.0
MOT;0;1000.0;1;1000.0;2;1000.0;3;1000.0;4;0.0;5;0.0;6;0.0;7;0.0;
RC;ROLL;1495.0;PITCH;1501.0;YAW;1502.0;THROTTLE;1066.0;AUX1;1681.0;AUX2;1500.0;AUX3;1500.0;AUX4;1500.0
ALTITUDE;0.0
DEBUG;DEBUG10.0;DEBUG2;0.0;DEBUG3;0.0;DEBUG4;0.0
ATTITUDE;ANGX;0.0;ANGY;1.0;HEAD;-118.0
STATUS;CYCLETIME;2772;I2CERR;0;PRESENT;23;MODE;0
RAW_IMU;AX;3.0;AY;1.0;AZ;256.0;GX;0.0;GY;0.0;GZ;0.0;MAGX;87.0;MAGY;-69.0;MAGZ;-16.0
MOT;0;1000.0;1;1000.0;2;1000.0;3;1000.0;4;0.0;5;0.0;6;0.0;7;0.0;
RC;ROLL;1495.0;PITCH;1501.0;YAW;1502.0;THROTTLE;1066.0;AUX1;1681.0;AUX2;1500.0;AUX3;1500.0;AUX4;1500.0
ALTITUDE;0.0
DEBUG;DEBUG10.0;DEBUG2;0.0;DEBUG3;0.0;DEBUG4;0.0
ATTITUDE;ANGX;0.0;ANGY;1.0;HEAD;-118.0
STATUS;CYCLETIME;2888;I2CERR;0;PRESENT;23;MODE;0
RAW_IMU;AX;3.0;AY;1.0;AZ;254.0;GX;0.0;GY;0.0;GZ;0.0;MAGX;87.0;MAGY;-69.0;MAGZ;-16.0
MOT;0;1000.0;1;1000.0;2;1000.0;3;1000.0;4;0.0;5;0.0;6;0.0;7;0.0;
RC;ROLL;1495.0;PITCH;1501.0;YAW;1502.0;THROTTLE;1066.0;AUX1;1681.0;AUX2;1500.0;AUX3;1500.0;AUX4;1500.0
ALTITUDE;0.0
DEBUG;DEBUG10.0;DEBUG2;0.0;DEBUG3;0.0;DEBUG4;0.0
ATTITUDE;ANGX;0.0;ANGY;1.0;HEAD;-118.0
STATUS;CYCLETIME;2832;I2CERR;0;PRESENT;23;MODE;0
RAW_IMU;AX;2.0;AY;0.0;AZ;256.0;GX;0.0;GY;0.0;GZ;0.0;MAGX;87.0;MAGY;-70.0;MAGZ;-16.0
MOT;0;1000.0;1;1000.0;2;1000.0;3;1000.0;4;0.0;5;0.0;6;0.0;7;0.0;
RC;ROLL;1495.0;PITCH;1503.0;YAW;1502.0;THROTTLE;1066.0;AUX1;1681.0;AUX2;1500.0;AUX3;1500.0;AUX4;1500.0
ALTITUDE;0.0
DEBUG;DEBUG10.0;DEBUG2;0.0;DEBUG3;0.0;DEBUG4;0.0
ATTITUDE;ANGX;0.0;ANGY;1.0;HEAD;-118.0
STATUS;CYCLETIME;2812;I2CERR;0;PRESENT;23;MODE;0
RAW_IMU;AX;2.0;AY;2.0;AZ;256.0;GX;0.0;GY;0.0;GZ;0.0;MAGX;87.0;MAGY;-70.0;MAGZ;-16.0
MOT;0;1000.0;1;1000.0;2;1000.0;3;1000.0;4;0.0;5;0.0;6;0.0;7;0.0;
RC;ROLL;1495.0;PITCH;1503.0;YAW;1502.0;THROTTLE;1066.0;AUX1;1681.0;AUX2;1500.0;AUX3;1500.0;AUX4;1500.0
ALTITUDE;0.0
DEBUG;DEBUG10.0;DEBUG2;0.0;DEBUG3;0.0;DEBUG4;0.0
ATTITUDE;ANGX;0.0;ANGY;1.0;HEAD;-118.0
STATUS;CYCLETIME;2832;I2CERR;0;PRESENT;23;MODE;0
RAW_IMU;AX;0.0;AY;2.0;AZ;256.0;GX;0.0;GY;0.0;GZ;0.0;MAGX;88.0;MAGY;-70.0;MAGZ;-16.0
MOT;0;1000.0;1;1000.0;2;1000.0;3;1000.0;4;0.0;5;0.0;6;0.0;7;0.0;
RC;ROLL;1495.0;PITCH;1503.0;YAW;1502.0;THROTTLE;1066.0;AUX1;1681.0;AUX2;1500.0;AUX3;1500.0;AUX4;1500.0
ALTITUDE;0.0
DEBUG;DEBUG10.0;DEBUG2;0.0;DEBUG3;0.0;DEBUG4;0.0
ATTITUDE;ANGX;0.0;ANGY;1.0;HEAD;-118.0
STATUS;CYCLETIME;2832;I2CERR;0;PRESENT;23;MODE;0
RAW_IMU;AX;2.0;AY;1.0;AZ;258.0;GX;0.0;GY;0.0;GZ;0.0;MAGX;88.0;MAGY;-70.0;MAGZ;-16.0
MOT;0;1000.0;1;1000.0;2;1000.0;3;1000.0;4;0.0;5;0.0;6;0.0;7;0.0;
RC;ROLL;1495.0;PITCH;1501.0;YAW;1502.0;THROTTLE;1066.0;AUX1;1681.0;AUX2;1500.0;AUX3;1500.0;AUX4;1500.0
ALTITUDE;0.0
DEBUG;DEBUG10.0;DEBUG2;0.0;DEBUG3;0.0;DEBUG4;0.0
ATTITUDE;ANGX;0.0;ANGY;1.0;HEAD;-118.0
STATUS;CYCLETIME;2832;I2CERR;0;PRESENT;23;MODE;0
RAW_IMU;AX;3.0;AY;0.0;AZ;258.0;GX;0.0;GY;0.0;GZ;0.0;MAGX;87.0;MAGY;-69.0;MAGZ;-15.0
MOT;0;1000.0;1;1000.0;2;1000.0;3;1000.0;4;0.0;5;0.0;6;0.0;7;0.0;
RC;ROLL;1495.0;PITCH;1501.0;YAW;1502.0;THROTTLE;1066.0;AUX1;1681.0;AUX2;1500.0;AUX3;1500.0;AUX4;1500.0
ALTITUDE;0.0
DEBUG;DEBUG10.0;DEBUG2;0.0;DEBUG3;0.0;DEBUG4;0.0
ATTITUDE;ANGX;0.0;ANGY;1.0;HEAD;-118.0
STATUS;CYCLETIME;2888;I2CERR;0;PRESENT;23;MODE;0
RAW_IMU;AX;4.0;AY;1.0;AZ;258.0;GX;0.0;GY;0.0;GZ;0.0;MAGX;87.0;MAGY;-69.0;MAGZ;-15.0
MOT;0;1000.0;1;1000.0;2;1000.0;3;1000.0;4;0.0;5;0.0;6;0.0;7;0.0;
RC;ROLL;1495.0;PITCH;1501.0;YAW;1502.0;THROTTLE;1066.0;AUX1;1681.0;AUX2;1500.0;AUX3;1500.0;AUX4;1500.0
ALTITUDE;0.0
DEBUG;DEBUG10.0;DEBUG2;0.0;DEBUG3;0.0;DEBUG4;0.0
ATTITUDE;ANGX;0.0;ANGY;1.0;HEAD;-118.0
STATUS;CYCLETIME;2856;I2CERR;0;PRESENT;23;MODE;0
RAW_IMU;AX;3.0;AY;1.0;AZ;257.0;GX;0.0;GY;0.0;GZ;0.0;MAGX;88.0;MAGY;-70.0;MAGZ;-15.0
MOT;0;1000.0;1;1000.0;2;1000.0;3;1000.0;4;0.0;5;0.0;6;0.0;7;0.0;
RC;ROLL;1495.0;PITCH;1501.0;YAW;1502.0;THROTTLE;1066.0;AUX1;1681.0;AUX2;1500.0;AUX3;1500.0;AUX4;1500.0
ALTITUDE;0.0
DEBUG;DEBUG10.0;DEBUG2;0.0;DEBUG3;0.0;DEBUG4;0.0
ATTITUDE;ANGX;0.0;ANGY;1.0;HEAD;-118.0
STATUS;CYCLETIME;2908;I2CERR;0;PRESENT;23;MODE;0
RAW_IMU;AX;1.0;AY;1.0;AZ;258.0;GX;0.0;GY;0.0;GZ;0.0;MAGX;88.0;MAGY;-70.0;MAGZ;-15.0
MOT;0;1000.0;1;1000.0;2;1000.0;3;1000.0;4;0.0;5;0.0;6;0.0;7;0.0;
RC;ROLL;1495.0;PITCH;1501.0;YAW;1502.0;THROTTLE;1066.0;AUX1;1681.0;AUX2;1500.0;AUX3;1500.0;AUX4;1500.0
ALTITUDE;0.0
DEBUG;DEBUG10.0;DEBUG2;0.0;DEBUG3;0.0;DEBUG4;0.0
ATTITUDE;ANGX;0.0;ANGY;1.0;HEAD;-118.0
STATUS;CYCLETIME;3108;I2CERR;0;PRESENT;23;MODE;0
RAW_IMU;AX;1.0;AY;-2.0;AZ;259.0;GX;0.0;GY;0.0;GZ;0.0;MAGX;87.0;MAGY;-70.0;MAGZ;-15.0
MOT;0;1000.0;1;1000.0;2;1000.0;3;1000.0;4;0.0;5;0.0;6;0.0;7;0.0;
RC;ROLL;1495.0;PITCH;1501.0;YAW;1502.0;THROTTLE;1066.0;AUX1;1681.0;AUX2;1500.0;AUX3;1500.0;AUX4;1500.0
ALTITUDE;0.0
DEBUG;DEBUG10.0;DEBUG2;0.0;DEBUG3;0.0;DEBUG4;0.0
ATTITUDE;ANGX;0.0;ANGY;1.0;HEAD;-118.0
STATUS;CYCLETIME;2828;I2CERR;0;PRESENT;23;MODE;0
RAW_IMU;AX;2.0;AY;-1.0;AZ;255.0;GX;0.0;GY;0.0;GZ;0.0;MAGX;87.0;MAGY;-70.0;MAGZ;-15.0
MOT;0;1000.0;1;1000.0;2;1000.0;3;1000.0;4;0.0;5;0.0;6;0.0;7;0.0;
RC;ROLL;1495.0;PITCH;1501.0;YAW;1502.0;THROTTLE;1066.0;AUX1;1681.0;AUX2;1500.0;AUX3;1500.0;AUX4;1500.0
ALTITUDE;0.0
DEBUG;DEBUG10.0;DEBUG2;0.0;DEBUG3;0.0;DEBUG4;0.0
ATTITUDE;ANGX;0.0;ANGY;1.0;HEAD;-118.0
STATUS;CYCLETIME;3132;I2CERR;0;PRESENT;23;MODE;0
RAW_IMU;AX;2.0;AY;-1.0;AZ;257.0;GX;0.0;GY;0.0;GZ;0.0;MAGX;87.0;MAGY;-69.0;MAGZ;-16.0
MOT;0;1000.0;1;1000.0;2;1000.0;3;1000.0;4;0.0;5;0.0;6;0.0;7;0.0;
RC;ROLL;1495.0;PITCH;1501.0;YAW;1502.0;THROTTLE;1066.0;AUX1;1681.0;AUX2;1500.0;AUX3;1500.0;AUX4;1500.0
ALTITUDE;0.0
DEBUG;DEBUG10.0;DEBUG2;0.0;DEBUG3;0.0;DEBUG4;0.0
ATTITUDE;ANGX;0.0;ANGY;1.0;HEAD;-118.0
STATUS;CYCLETIME;2792;I2CERR;0;PRESENT;23;MODE;0
RAW_IMU;AX;1.0;AY;0.0;AZ;255.0;GX;0.0;GY;0.0;GZ;0.0;MAGX;87.0;MAGY;-69.0;MAGZ;-16.0
MOT;0;1000.0;1;1000.0;2;1000.0;3;1000.0;4;0.0;5;0.0;6;0.0;7;0.0;
RC;ROLL;1495.0;PITCH;1501.0;YAW;1502.0;THROTTLE;1066.0;AUX1;1681.0;AUX2;1500.0;AUX3;1500.0;AUX4;1500.0
ALTITUDE;0.0
DEBUG;DEBUG10.0;DEBUG2;0.0;DEBUG3;0.0;DEBUG4;0.0
ATTITUDE;ANGX;0.0;ANGY;1.0;HEAD;-118.0
STATUS;CYCLETIME;2804;I2CERR;0;PRESENT;23;MODE;0
RAW_IMU;AX;1.0;AY;-1.0;AZ;254.0;GX;0.0;GY;0.0;GZ;0.0;MAGX;87.0;MAGY;-69.0;MAGZ;-16.0
MOT;0;1000.0;1;1000.0;2;1000.0;3;1000.0;4;0.0;5;0.0;6;0.0;7;0.0;
RC;ROLL;1495.0;PITCH;1501.0;YAW;1502.0;THROTTLE;1066.0;AUX1;1681.0;AUX2;1500.0;AUX3;1500.0;AUX4;1500.0
ALTITUDE;0.0
DEBUG;DEBUG10.0;DEBUG2;0.0;DEBUG3;0.0;DEBUG4;0.0
ATTITUDE;ANGX;0.0;ANGY;1.0;HEAD;-118.0
STATUS;CYCLETIME;2820;I2CERR;0;PRESENT;23;MODE;0
RAW_IMU;AX;1.0;AY;-2.0;AZ;255.0;GX;0.0;GY;0.0;GZ;0.0;MAGX;88.0;MAGY;-69.0;MAGZ;-16.0
MOT;0;1000.0;1;1000.0;2;1000.0;3;1000.0;4;0.0;5;0.0;6;0.0;7;0.0;
RC;ROLL;1495.0;PITCH;1501.0;YAW;1500.0;THROTTLE;1066.0;AUX1;1681.0;AUX2;1500.0;AUX3;1500.0;AUX4;1500.0
ALTITUDE;0.0
DEBUG;DEBUG10.0;DEBUG2;0.0;DEBUG3;0.0;DEBUG4;0.0
ATTITUDE;ANGX;0.0;ANGY;1.0;HEAD;-118.0
STATUS;CYCLETIME;2876;I2CERR;0;PRESENT;23;MODE;0
RAW_IMU;AX;1.0;AY;1.0;AZ;257.0;GX;0.0;GY;0.0;GZ;0.0;MAGX;88.0;MAGY;-69.0;MAGZ;-16.0
MOT;0;1000.0;1;1000.0;2;1000.0;3;1000.0;4;0.0;5;0.0;6;0.0;7;0.0;
RC;ROLL;1495.0;PITCH;1501.0;YAW;1500.0;THROTTLE;1066.0;AUX1;1681.0;AUX2;1500.0;AUX3;1500.0;AUX4;1500.0
ALTITUDE;0.0
DEBUG;DEBUG10.0;DEBUG2;0.0;DEBUG3;0.0;DEBUG4;0.0
ATTITUDE;ANGX;0.0;ANGY;1.0;HEAD;-118.0
STATUS;CYCLETIME;2800;I2CERR;0;PRESENT;23;MODE;0
RAW_IMU;AX;1.0;AY;2.0;AZ;258.0;GX;0.0;GY;0.0;GZ;0.0;MAGX;88.0;MAGY;-70.0;MAGZ;-16.0
MOT;0;1000.0;1;1000.0;2;1000.0;3;1000.0;4;0.0;5;0.0;6;0.0;7;0.0;
RC;ROLL;1495.0;PITCH;1501.0;YAW;1500.0;THROTTLE;1066.0;AUX1;1681.0;AUX2;1500.0;AUX3;1500.0;AUX4;1500.0
ALTITUDE;0.0
DEBUG;DEBUG10.0;DEBUG2;0.0;DEBUG3;0.0;DEBUG4;0.0
ATTITUDE;ANGX;0.0;ANGY;1.0;HEAD;-118.0
STATUS;CYCLETIME;2832;I2CERR;0;PRESENT;23;MODE;0
RAW_IMU;AX;1.0;AY;1.0;AZ;256.0;GX;0.0;GY;0.0;GZ;0.0;MAGX;88.0;MAGY;-70.0;MAGZ;-16.0
MOT;0;1000.0;1;1000.0;2;1000.0;3;1000.0;4;0.0;5;0.0;6;0.0;7;0.0;
RC;ROLL;1495.0;PITCH;1501.0;YAW;1502.0;THROTTLE;1066.0;AUX1;1681.0;AUX2;1500.0;AUX3;1500.0;AUX4;1500.0
ALTITUDE;0.0
DEBUG;DEBUG10.0;DEBUG2;0.0;DEBUG3;0.0;DEBUG4;0.0
ATTITUDE;ANGX;0.0;ANGY;1.0;HEAD;-118.0
STATUS;CYCLETIME;2804;I2CERR;0;PRESENT;23;MODE;0
RAW_IMU;AX;2.0;AY;0.0;AZ;257.0;GX;0.0;GY;0.0;GZ;0.0;MAGX;88.0;MAGY;-69.0;MAGZ;-16.0
MOT;0;1000.0;1;1000.0;2;1000.0;3;1000.0;4;0.0;5;0.0;6;0.0;7;0.0;
RC;ROLL;1495.0;PITCH;1503.0;YAW;1502.0;THROTTLE;1066.0;AUX1;1681.0;AUX2;1500.0;AUX3;1500.0;AUX4;1500.0
ALTITUDE;0.0
DEBUG;DEBUG10.0;DEBUG2;0.0;DEBUG3;0.0;DEBUG4;0.0
ATTITUDE;ANGX;0.0;ANGY;1.0;HEAD;-118.0
STATUS;CYCLETIME;2844;I2CERR;0;PRESENT;23;MODE;0
RAW_IMU;AX;1.0;AY;1.0;AZ;258.0;GX;0.0;GY;0.0;GZ;0.0;MAGX;88.0;MAGY;-69.0;MAGZ;-16.0
MOT;0;1000.0;1;1000.0;2;1000.0;3;1000.0;4;0.0;5;0.0;6;0.0;7;0.0;
RC;ROLL;1495.0;PITCH;1503.0;YAW;1502.0;THROTTLE;1066.0;AUX1;1681.0;AUX2;1500.0;AUX3;1500.0;AUX4;1500.0
ALTITUDE;0.0
DEBUG;DEBUG10.0;DEBUG2;0.0;DEBUG3;0.0;DEBUG4;0.0
ATTITUDE;ANGX;0.0;ANGY;1.0;HEAD;-118.0
STATUS;CYCLETIME;2996;I2CERR;0;PRESENT;23;MODE;0
RAW_IMU;AX;0.0;AY;1.0;AZ;258.0;GX;0.0;GY;0.0;GZ;0.0;MAGX;87.0;MAGY;-70.0;MAGZ;-15.0
MOT;0;1000.0;1;1000.0;2;1000.0;3;1000.0;4;0.0;5;0.0;6;0.0;7;0.0;
RC;ROLL;1495.0;PITCH;1503.0;YAW;1502.0;THROTTLE;1066.0;AUX1;1681.0;AUX2;1500.0;AUX3;1500.0;AUX4;1500.0
ALTITUDE;0.0
DEBUG;DEBUG10.0;DEBUG2;0.0;DEBUG3;0.0;DEBUG4;0.0
ATTITUDE;ANGX;0.0;ANGY;1.0;HEAD;-118.0
STATUS;CYCLETIME;2808;I2CERR;0;PRESENT;23;MODE;0
RAW_IMU;AX;2.0;AY;0.0;AZ;257.0;GX;0.0;GY;0.0;GZ;0.0;MAGX;87.0;MAGY;-70.0;MAGZ;-15.0
MOT;0;1000.0;1;1000.0;2;1000.0;3;1000.0;4;0.0;5;0.0;6;0.0;7;0.0;
RC;ROLL;1495.0;PITCH;1503.0;YAW;1502.0;THROTTLE;1066.0;AUX1;1681.0;AUX2;1500.0;AUX3;1500.0;AUX4;1500.0
ALTITUDE;0.0
DEBUG;DEBUG10.0;DEBUG2;0.0;DEBUG3;0.0;DEBUG4;0.0
ATTITUDE;ANGX;0.0;ANGY;1.0;HEAD;-118.0
STATUS;CYCLETIME;2808;I2CERR;0;PRESENT;23;MODE;0
RAW_IMU;AX;4.0;AY;0.0;AZ;258.0;GX;0.0;GY;0.0;GZ;0.0;MAGX;87.0;MAGY;-70.0;MAGZ;-16.0
MOT;0;1000.0;1;1000.0;2;1000.0;3;1000.0;4;0.0;5;0.0;6;0.0;7;0.0;
RC;ROLL;1495.0;PITCH;1503.0;YAW;1502.0;THROTTLE;1066.0;AUX1;1681.0;AUX2;1500.0;AUX3;1500.0;AUX4;1500.0
ALTITUDE;0.0
DEBUG;DEBUG10.0;DEBUG2;0.0;DEBUG3;0.0;DEBUG4;0.0
ATTITUDE;ANGX;0.0;ANGY;1.0;HEAD;-118.0
STATUS;CYCLETIME;2908;I2CERR;0;PRESENT;23;MODE;0
RAW_IMU;AX;3.0;AY;2.0;AZ;257.0;GX;0.0;GY;0.0;GZ;0.0;MAGX;87.0;MAGY;-70.0;MAGZ;-16.0
MOT;0;1000.0;1;1000.0;2;1000.0;3;1000.0;4;0.0;5;0.0;6;0.0;7;0.0;
RC;ROLL;1495.0;PITCH;1503.0;YAW;1502.0;THROTTLE;1066.0;AUX1;1681.0;AUX2;1500.0;AUX3;1500.0;AUX4;1500.0
ALTITUDE;0.0
DEBUG;DEBUG10.0;DEBUG2;0.0;DEBUG3;0.0;DEBUG4;0.0
ATTITUDE;ANGX;0.0;ANGY;1.0;HEAD;-118.0
STATUS;CYCLETIME;2840;I2CERR;0;PRESENT;23;MODE;0
RAW_IMU;AX;2.0;AY;1.0;AZ;258.0;GX;0.0;GY;0.0;GZ;0.0;MAGX;88.0;MAGY;-70.0;MAGZ;-16.0
MOT;0;1000.0;1;1000.0;2;1000.0;3;1000.0;4;0.0;5;0.0;6;0.0;7;0.0;
RC;ROLL;1495.0;PITCH;1503.0;YAW;1502.0;THROTTLE;1066.0;AUX1;1681.0;AUX2;1500.0;AUX3;1500.0;AUX4;1500.0
ALTITUDE;0.0
DEBUG;DEBUG10.0;DEBUG2;0.0;DEBUG3;0.0;DEBUG4;0.0
ATTITUDE;ANGX;0.0;ANGY;1.0;HEAD;-118.0
STATUS;CYCLETIME;2800;I2CERR;0;PRESENT;23;MODE;0
RAW_IMU;AX;1.0;AY;1.0;AZ;259.0;GX;0.0;GY;0.0;GZ;0.0;MAGX;88.0;MAGY;-70.0;MAGZ;-16.0
MOT;0;1000.0;1;1000.0;2;1000.0;3;1000.0;4;0.0;5;0.0;6;0.0;7;0.0;
RC;ROLL;1495.0;PITCH;1503.0;YAW;1502.0;THROTTLE;1066.0;AUX1;1681.0;AUX2;1500.0;AUX3;1500.0;AUX4;1500.0
ALTITUDE;0.0
DEBUG;DEBUG10.0;DEBUG2;0.0;DEBUG3;0.0;DEBUG4;0.0
ATTITUDE;ANGX;0.0;ANGY;1.0;HEAD;-118.0
STATUS;CYCLETIME;2844;I2CERR;0;PRESENT;23;MODE;0
RAW_IMU;AX;3.0;AY;1.0;AZ;256.0;GX;0.0;GY;0.0;GZ;0.0;MAGX;87.0;MAGY;-70.0;MAGZ;-16.0
MOT;0;1000.0;1;1000.0;2;1000.0;3;1000.0;4;0.0;5;0.0;6;0.0;7;0.0;
RC;ROLL;1495.0;PITCH;1503.0;YAW;1502.0;THROTTLE;1066.0;AUX1;1681.0;AUX2;1500.0;AUX3;1500.0;AUX4;1500.0
ALTITUDE;0.0
DEBUG;DEBUG10.0;DEBUG2;0.0;DEBUG3;0.0;DEBUG4;0.0
ATTITUDE;ANGX;0.0;ANGY;1.0;HEAD;-118.0
STATUS;CYCLETIME;2776;I2CERR;0;PRESENT;23;MODE;0
RAW_IMU;AX;3.0;AY;0.0;AZ;257.0;GX;0.0;GY;0.0;GZ;0.0;MAGX;87.0;MAGY;-70.0;MAGZ;-16.0
MOT;0;1000.0;1;1000.0;2;1000.0;3;1000.0;4;0.0;5;0.0;6;0.0;7;0.0;
RC;ROLL;1495.0;PITCH;1501.0;YAW;1502.0;THROTTLE;1066.0;AUX1;1681.0;AUX2;1500.0;AUX3;1500.0;AUX4;1500.0
ALTITUDE;0.0
DEBUG;DEBUG10.0;DEBUG2;0.0;DEBUG3;0.0;DEBUG4;0.0
ATTITUDE;ANGX;0.0;ANGY;1.0;HEAD;-118.0
STATUS;CYCLETIME;2940;I2CERR;0;PRESENT;23;MODE;0
RAW_IMU;AX;2.0;AY;0.0;AZ;257.0;GX;0.0;GY;0.0;GZ;0.0;MAGX;87.0;MAGY;-71.0;MAGZ;-16.0
MOT;0;1000.0;1;1000.0;2;1000.0;3;1000.0;4;0.0;5;0.0;6;0.0;7;0.0;
RC;ROLL;1495.0;PITCH;1501.0;YAW;1502.0;THROTTLE;1066.0;AUX1;1681.0;AUX2;1500.0;AUX3;1500.0;AUX4;1500.0
ALTITUDE;0.0
DEBUG;DEBUG10.0;DEBUG2;0.0;DEBUG3;0.0;DEBUG4;0.0
ATTITUDE;ANGX;0.0;ANGY;1.0;HEAD;-118.0
STATUS;CYCLETIME;2804;I2CERR;0;PRESENT;23;MODE;0
RAW_IMU;AX;2.0;AY;-1.0;AZ;258.0;GX;0.0;GY;0.0;GZ;0.0;MAGX;87.0;MAGY;-71.0;MAGZ;-16.0
MOT;0;1000.0;1;1000.0;2;1000.0;3;1000.0;4;0.0;5;0.0;6;0.0;7;0.0;
RC;ROLL;1495.0;PITCH;1505.0;YAW;1502.0;THROTTLE;1066.0;AUX1;1681.0;AUX2;1500.0;AUX3;1500.0;AUX4;1500.0
ALTITUDE;0.0
DEBUG;DEBUG10.0;DEBUG2;0.0;DEBUG3;0.0;DEBUG4;0.0
ATTITUDE;ANGX;0.0;ANGY;1.0;HEAD;-118.0
