IDENT;V;220;TYPE;3
MSP_MOTOR_PINS
STATUS;CYCLETIME;2752;I2CERR;0;PRESENT;31;MODE;2
RAW_IMU;AX;0.0;AY;0.0;AZ;24.0;GX;0.0;GY;0.0;GZ;0.0;MAGX;2.0;MAGY;46.0;MAGZ;6.0
ALTITUDE;0.0
DEBUG;DEBUG10.0;DEBUG2;0.0;DEBUG3;0.0;DEBUG4;0.0
ATTITUDE;ANGX;0.0;ANGY;0.0;HEAD;8.0
STATUS;CYCLETIME;2644;I2CERR;0;PRESENT;31;MODE;2
RAW_IMU;AX;-1.0;AY;0.0;AZ;110.0;GX;0.0;GY;0.0;GZ;0.0;MAGX;2.0;MAGY;46.0;MAGZ;6.0
MOT;0;1000.0;1;1000.0;2;1000.0;3;1000.0;4;0.0;5;0.0;6;0.0;7;0.0;
RC;ROLL;1500.0;PITCH;1500.0;YAW;1500.0;THROTTLE;1500.0;AUX1;1500.0;AUX2;1500.0;AUX3;1500.0;AUX4;1500.0
GPS;ALT;0;LAT;0;LON;0;SPD;0
ALTITUDE;0.0
DEBUG;DEBUG10.0;DEBUG2;0.0;DEBUG3;0.0;DEBUG4;0.0
ATTITUDE;ANGX;0.0;ANGY;0.0;HEAD;8.0
STATUS;CYCLETIME;2692;I2CERR;0;PRESENT;31;MODE;2
RAW_IMU;AX;-2.0;AY;1.0;AZ;194.0;GX;0.0;GY;0.0;GZ;0.0;MAGX;1.0;MAGY;46.0;MAGZ;5.0
MOT;0;1000.0;1;1000.0;2;1000.0;3;1000.0;4;0.0;5;0.0;6;0.0;7;0.0;
RC;ROLL;1500.0;PITCH;1500.0;YAW;1500.0;THROTTLE;1500.0;AUX1;1500.0;AUX2;1500.0;AUX3;1500.0;AUX4;1500.0
GPS;ALT;0;LAT;0;LON;0;SPD;0
ALTITUDE;0.0
DEBUG;DEBUG10.0;DEBUG2;0.0;DEBUG3;0.0;DEBUG4;0.0
ATTITUDE;ANGX;0.0;ANGY;0.0;HEAD;8.0
STATUS;CYCLETIME;2704;I2CERR;0;PRESENT;31;MODE;2
RAW_IMU;AX;-2.0;AY;1.0;AZ;213.0;GX;0.0;GY;0.0;GZ;0.0;MAGX;2.0;MAGY;46.0;MAGZ;7.0
MOT;0;1000.0;1;1000.0;2;1000.0;3;1000.0;4;0.0;5;0.0;6;0.0;7;0.0;
RC;ROLL;1500.0;PITCH;1500.0;YAW;1500.0;THROTTLE;1500.0;AUX1;1500.0;AUX2;1500.0;AUX3;1500.0;AUX4;1500.0
GPS;ALT;0;LAT;0;LON;0;SPD;0
ALTITUDE;0.0
DEBUG;DEBUG10.0;DEBUG2;0.0;DEBUG3;0.0;DEBUG4;0.0
ATTITUDE;ANGX;0.0;ANGY;0.0;HEAD;8.0
STATUS;CYCLETIME;2712;I2CERR;0;PRESENT;31;MODE;2
RAW_IMU;AX;-2.0;AY;1.0;AZ;226.0;GX;0.0;GY;0.0;GZ;0.0;MAGX;2.0;MAGY;46.0;MAGZ;7.0
MOT;0;1000.0;1;1000.0;2;1000.0;3;1000.0;4;0.0;5;0.0;6;0.0;7;0.0;
RC;ROLL;1500.0;PITCH;1500.0;YAW;1500.0;THROTTLE;1500.0;AUX1;1500.0;AUX2;1500.0;AUX3;1500.0;AUX4;1500.0
GPS;ALT;0;LAT;0;LON;0;SPD;0
ALTITUDE;0.0
DEBUG;DEBUG10.0;DEBUG2;0.0;DEBUG3;0.0;DEBUG4;0.0
ATTITUDE;ANGX;0.0;ANGY;0.0;HEAD;8.0
STATUS;CYCLETIME;2940;I2CERR;0;PRESENT;31;MODE;2
RAW_IMU;AX;-3.0;AY;1.0;AZ;238.0;GX;0.0;GY;0.0;GZ;0.0;MAGX;1.0;MAGY;46.0;MAGZ;6.0
MOT;0;1000.0;1;1000.0;2;1000.0;3;1000.0;4;0.0;5;0.0;6;0.0;7;0.0;
RC;ROLL;1500.0;PITCH;1500.0;YAW;1500.0;THROTTLE;1500.0;AUX1;1500.0;AUX2;1500.0;AUX3;1500.0;AUX4;1500.0
GPS;ALT;0;LAT;0;LON;0;SPD;0
ALTITUDE;0.0
DEBUG;DEBUG10.0;DEBUG2;0.0;DEBUG3;0.0;DEBUG4;0.0
ATTITUDE;ANGX;0.0;ANGY;0.0;HEAD;8.0
STATUS;CYCLETIME;2800;I2CERR;0;PRESENT;31;MODE;2
RAW_IMU;AX;-3.0;AY;1.0;AZ;243.0;GX;0.0;GY;0.0;GZ;0.0;MAGX;1.0;MAGY;46.0;MAGZ;6.0
MOT;0;1000.0;1;1000.0;2;1000.0;3;1000.0;4;0.0;5;0.0;6;0.0;7;0.0;
RC;ROLL;1500.0;PITCH;1500.0;YAW;1500.0;THROTTLE;1500.0;AUX1;1500.0;AUX2;1500.0;AUX3;1500.0;AUX4;1500.0
GPS;ALT;0;LAT;0;LON;0;SPD;0
ALTITUDE;0.0
DEBUG;DEBUG10.0;DEBUG2;0.0;DEBUG3;0.0;DEBUG4;0.0
ATTITUDE;ANGX;0.0;ANGY;0.0;HEAD;8.0
STATUS;CYCLETIME;2688;I2CERR;0;PRESENT;31;MODE;2
RAW_IMU;AX;-2.0;AY;1.0;AZ;247.0;GX;0.0;GY;0.0;GZ;0.0;MAGX;1.0;MAGY;46.0;MAGZ;6.0
MOT;0;1000.0;1;1000.0;2;1000.0;3;1000.0;4;0.0;5;0.0;6;0.0;7;0.0;
RC;ROLL;1500.0;PITCH;1500.0;YAW;1500.0;THROTTLE;1500.0;AUX1;1500.0;AUX2;1500.0;AUX3;1500.0;AUX4;1500.0
GPS;ALT;0;LAT;0;LON;0;SPD;0
ALTITUDE;0.0
DEBUG;DEBUG10.0;DEBUG2;0.0;DEBUG3;0.0;DEBUG4;0.0
ATTITUDE;ANGX;0.0;ANGY;0.0;HEAD;8.0
STATUS;CYCLETIME;2688;I2CERR;0;PRESENT;31;MODE;2
RAW_IMU;AX;-2.0;AY;1.0;AZ;249.0;GX;0.0;GY;0.0;GZ;0.0;MAGX;1.0;MAGY;46.0;MAGZ;6.0
MOT;0;1000.0;1;1000.0;2;1000.0;3;1000.0;4;0.0;5;0.0;6;0.0;7;0.0;
RC;ROLL;1500.0;PITCH;1500.0;YAW;1500.0;THROTTLE;1500.0;AUX1;1500.0;AUX2;1500.0;AUX3;1500.0;AUX4;1500.0
GPS;ALT;0;LAT;0;LON;0;SPD;0
ALTITUDE;0.0
DEBUG;DEBUG10.0;DEBUG2;0.0;DEBUG3;0.0;DEBUG4;0.0
ATTITUDE;ANGX;0.0;ANGY;0.0;HEAD;8.0
STATUS;CYCLETIME;2944;I2CERR;0;PRESENT;31;MODE;2
RAW_IMU;AX;-2.0;AY;1.0;AZ;251.0;GX;0.0;GY;0.0;GZ;0.0;MAGX;1.0;MAGY;45.0;MAGZ;7.0
MOT;0;1000.0;1;1000.0;2;1000.0;3;1000.0;4;0.0;5;0.0;6;0.0;7;0.0;
RC;ROLL;1500.0;PITCH;1500.0;YAW;1500.0;THROTTLE;1500.0;AUX1;1500.0;AUX2;1500.0;AUX3;1500.0;AUX4;1500.0
GPS;ALT;0;LAT;0;LON;0;SPD;0
ALTITUDE;0.0
DEBUG;DEBUG10.0;DEBUG2;0.0;DEBUG3;0.0;DEBUG4;0.0
ATTITUDE;ANGX;0.0;ANGY;0.0;HEAD;8.0
STATUS;CYCLETIME;2708;I2CERR;0;PRESENT;31;MODE;2
RAW_IMU;AX;-2.0;AY;1.0;AZ;252.0;GX;0.0;GY;0.0;GZ;0.0;MAGX;1.0;MAGY;45.0;MAGZ;7.0
MOT;0;1000.0;1;1000.0;2;1000.0;3;1000.0;4;0.0;5;0.0;6;0.0;7;0.0;
RC;ROLL;1500.0;PITCH;1500.0;YAW;1500.0;THROTTLE;1500.0;AUX1;1500.0;AUX2;1500.0;AUX3;1500.0;AUX4;1500.0
GPS;ALT;0;LAT;0;LON;0;SPD;0
ALTITUDE;0.0
DEBUG;DEBUG10.0;DEBUG2;0.0;DEBUG3;0.0;DEBUG4;0.0
ATTITUDE;ANGX;0.0;ANGY;0.0;HEAD;8.0
STATUS;CYCLETIME;2704;I2CERR;0;PRESENT;31;MODE;2
RAW_IMU;AX;-3.0;AY;1.0;AZ;253.0;GX;0.0;GY;0.0;GZ;0.0;MAGX;1.0;MAGY;46.0;MAGZ;5.0
MOT;0;1000.0;1;1000.0;2;1000.0;3;1000.0;4;0.0;5;0.0;6;0.0;7;0.0;
RC;ROLL;1500.0;PITCH;1500.0;YAW;1500.0;THROTTLE;1500.0;AUX1;1500.0;AUX2;1500.0;AUX3;1500.0;AUX4;1500.0
GPS;ALT;0;LAT;0;LON;0;SPD;0
ALTITUDE;0.0
DEBUG;DEBUG10.0;DEBUG2;0.0;DEBUG3;0.0;DEBUG4;0.0
ATTITUDE;ANGX;0.0;ANGY;0.0;HEAD;8.0
STATUS;CYCLETIME;-22264;I2CERR;0;PRESENT;31;MODE;2
RAW_IMU;AX;-3.0;AY;1.0;AZ;254.0;GX;0.0;GY;0.0;GZ;0.0;MAGX;1.0;MAGY;46.0;MAGZ;5.0
MOT;0;1000.0;1;1000.0;2;1000.0;3;1000.0;4;0.0;5;0.0;6;0.0;7;0.0;
RC;ROLL;1500.0;PITCH;1500.0;YAW;1500.0;THROTTLE;1500.0;AUX1;1500.0;AUX2;1500.0;AUX3;1500.0;AUX4;1500.0
GPS;ALT;0;LAT;0;LON;0;SPD;0
ALTITUDE;0.0
ALTITUDE;0.0
DEBUG;DEBUG10.0;DEBUG2;0.0;DEBUG3;0.0;DEBUG4;0.0
ATTITUDE;ANGX;0.0;ANGY;0.0;HEAD;8.0
STATUS;CYCLETIME;2792;I2CERR;0;PRESENT;31;MODE;2
RAW_IMU;AX;-3.0;AY;1.0;AZ;254.0;GX;0.0;GY;0.0;GZ;0.0;MAGX;1.0;MAGY;47.0;MAGZ;6.0
MOT;0;1000.0;1;1000.0;2;1000.0;3;1000.0;4;0.0;5;0.0;6;0.0;7;0.0;
RC;ROLL;1500.0;PITCH;1500.0;YAW;1500.0;THROTTLE;1500.0;AUX1;1500.0;AUX2;1500.0;AUX3;1500.0;AUX4;1500.0
GPS;ALT;0;LAT;0;LON;0;SPD;0
ALTITUDE;0.0
DEBUG;DEBUG10.0;DEBUG2;0.0;DEBUG3;0.0;DEBUG4;0.0
ATTITUDE;ANGX;0.0;ANGY;0.0;HEAD;8.0
STATUS;CYCLETIME;2812;I2CERR;0;PRESENT;31;MODE;2
RAW_IMU;AX;-3.0;AY;1.0;AZ;254.0;GX;0.0;GY;0.0;GZ;0.0;MAGX;1.0;MAGY;46.0;MAGZ;6.0
MOT;0;1000.0;1;1000.0;2;1000.0;3;1000.0;4;0.0;5;0.0;6;0.0;7;0.0;
RC;ROLL;1500.0;PITCH;1500.0;YAW;1500.0;THROTTLE;1500.0;AUX1;1500.0;AUX2;1500.0;AUX3;1500.0;AUX4;1500.0
GPS;ALT;0;LAT;0;LON;0;SPD;0
ALTITUDE;0.0
DEBUG;DEBUG10.0;DEBUG2;0.0;DEBUG3;0.0;DEBUG4;0.0
ATTITUDE;ANGX;0.0;ANGY;0.0;HEAD;8.0
STATUS;CYCLETIME;3020;I2CERR;0;PRESENT;31;MODE;2
RAW_IMU;AX;-3.0;AY;0.0;AZ;255.0;GX;0.0;GY;0.0;GZ;0.0;MAGX;1.0;MAGY;46.0;MAGZ;6.0
MOT;0;1000.0;1;1000.0;2;1000.0;3;1000.0;4;0.0;5;0.0;6;0.0;7;0.0;
RC;ROLL;1500.0;PITCH;1500.0;YAW;1500.0;THROTTLE;1500.0;AUX1;1500.0;AUX2;1500.0;AUX3;1500.0;AUX4;1500.0
GPS;ALT;0;LAT;0;LON;0;SPD;0
ALTITUDE;0.0
DEBUG;DEBUG10.0;DEBUG2;0.0;DEBUG3;0.0;DEBUG4;0.0
ATTITUDE;ANGX;0.0;ANGY;0.0;HEAD;8.0
STATUS;CYCLETIME;2744;I2CERR;0;PRESENT;31;MODE;2
RAW_IMU;AX;-3.0;AY;0.0;AZ;255.0;GX;0.0;GY;0.0;GZ;0.0;MAGX;2.0;MAGY;46.0;MAGZ;6.0
MOT;0;1000.0;1;1000.0;2;1000.0;3;1000.0;4;0.0;5;0.0;6;0.0;7;0.0;
RC;ROLL;1500.0;PITCH;1500.0;YAW;1500.0;THROTTLE;1500.0;AUX1;1500.0;AUX2;1500.0;AUX3;1500.0;AUX4;1500.0
GPS;ALT;0;LAT;0;LON;0;SPD;0
ALTITUDE;0.0
DEBUG;DEBUG10.0;DEBUG2;0.0;DEBUG3;0.0;DEBUG4;0.0
ATTITUDE;ANGX;0.0;ANGY;0.0;HEAD;8.0
STATUS;CYCLETIME;2784;I2CERR;0;PRESENT;31;MODE;2
RAW_IMU;AX;-3.0;AY;0.0;AZ;255.0;GX;0.0;GY;0.0;GZ;0.0;MAGX;2.0;MAGY;46.0;MAGZ;6.0
MOT;0;1000.0;1;1000.0;2;1000.0;3;1000.0;4;0.0;5;0.0;6;0.0;7;0.0;
RC;ROLL;1500.0;PITCH;1500.0;YAW;1500.0;THROTTLE;1500.0;AUX1;1500.0;AUX2;1500.0;AUX3;1500.0;AUX4;1500.0
GPS;ALT;0;LAT;0;LON;0;SPD;0
ALTITUDE;0.0
DEBUG;DEBUG10.0;DEBUG2;0.0;DEBUG3;0.0;DEBUG4;0.0
ATTITUDE;ANGX;0.0;ANGY;0.0;HEAD;8.0
STATUS;CYCLETIME;2756;I2CERR;0;PRESENT;31;MODE;2
RAW_IMU;AX;-3.0;AY;1.0;AZ;254.0;GX;0.0;GY;0.0;GZ;0.0;MAGX;1.0;MAGY;47.0;MAGZ;6.0
MOT;0;1000.0;1;1000.0;2;1000.0;3;1000.0;4;0.0;5;0.0;6;0.0;7;0.0;
RC;ROLL;1500.0;PITCH;1500.0;YAW;1500.0;THROTTLE;1500.0;AUX1;1500.0;AUX2;1500.0;AUX3;1500.0;AUX4;1500.0
GPS;ALT;0;LAT;0;LON;0;SPD;0
ALTITUDE;0.0
DEBUG;DEBUG10.0;DEBUG2;0.0;DEBUG3;0.0;DEBUG4;0.0
ATTITUDE;ANGX;0.0;ANGY;0.0;HEAD;8.0
STATUS;CYCLETIME;2732;I2CERR;0;PRESENT;31;MODE;2
RAW_IMU;AX;-2.0;AY;1.0;AZ;254.0;GX;0.0;GY;0.0;GZ;0.0;MAGX;1.0;MAGY;47.0;MAGZ;6.0
MOT;0;1000.0;1;1000.0;2;1000.0;3;1000.0;4;0.0;5;0.0;6;0.0;7;0.0;
RC;ROLL;1500.0;PITCH;1500.0;YAW;1500.0;THROTTLE;1500.0;AUX1;1500.0;AUX2;1500.0;AUX3;1500.0;AUX4;1500.0
GPS;ALT;0;LAT;0;LON;0;SPD;0
ALTITUDE;0.0
DEBUG;DEBUG10.0;DEBUG2;0.0;DEBUG3;0.0;DEBUG4;0.0
ATTITUDE;ANGX;0.0;ANGY;0.0;HEAD;8.0
STATUS;CYCLETIME;2780;I2CERR;0;PRESENT;31;MODE;2
RAW_IMU;AX;-2.0;AY;1.0;AZ;254.0;GX;0.0;GY;0.0;GZ;0.0;MAGX;1.0;MAGY;47.0;MAGZ;6.0
MOT;0;1000.0;1;1000.0;2;1000.0;3;1000.0;4;0.0;5;0.0;6;0.0;7;0.0;
RC;ROLL;1500.0;PITCH;1500.0;YAW;1500.0;THROTTLE;1500.0;AUX1;1500.0;AUX2;1500.0;AUX3;1500.0;AUX4;1500.0
GPS;ALT;0;LAT;0;LON;0;SPD;0
ALTITUDE;0.0
DEBUG;DEBUG10.0;DEBUG2;0.0;DEBUG3;0.0;DEBUG4;0.0
ATTITUDE;ANGX;0.0;ANGY;0.0;HEAD;8.0
STATUS;CYCLETIME;2724;I2CERR;0;PRESENT;31;MODE;2
RAW_IMU;AX;-2.0;AY;1.0;AZ;255.0;GX;0.0;GY;0.0;GZ;0.0;MAGX;1.0;MAGY;47.0;MAGZ;6.0
MOT;0;1000.0;1;1000.0;2;1000.0;3;1000.0;4;0.0;5;0.0;6;0.0;7;0.0;
RC;ROLL;1500.0;PITCH;1500.0;YAW;1500.0;THROTTLE;1500.0;AUX1;1500.0;AUX2;1500.0;AUX3;1500.0;AUX4;1500.0
GPS;ALT;0;LAT;0;LON;0;SPD;0
ALTITUDE;0.0
DEBUG;DEBUG10.0;DEBUG2;0.0;DEBUG3;0.0;DEBUG4;0.0
ATTITUDE;ANGX;0.0;ANGY;0.0;HEAD;8.0
STATUS;CYCLETIME;3004;I2CERR;0;PRESENT;31;MODE;2
RAW_IMU;AX;-2.0;AY;1.0;AZ;255.0;GX;0.0;GY;0.0;GZ;0.0;MAGX;2.0;MAGY;47.0;MAGZ;6.0
MOT;0;1000.0;1;1000.0;2;1000.0;3;1000.0;4;0.0;5;0.0;6;0.0;7;0.0;
RC;ROLL;1500.0;PITCH;1500.0;YAW;1500.0;THROTTLE;1500.0;AUX1;1500.0;AUX2;1500.0;AUX3;1500.0;AUX4;1500.0
GPS;ALT;0;LAT;0;LON;0;SPD;0
ALTITUDE;0.0
DEBUG;DEBUG10.0;DEBUG2;0.0;DEBUG3;0.0;DEBUG4;0.0
ATTITUDE;ANGX;0.0;ANGY;0.0;HEAD;8.0
STATUS;CYCLETIME;2724;I2CERR;0;PRESENT;31;MODE;2
RAW_IMU;AX;-3.0;AY;1.0;AZ;255.0;GX;0.0;GY;0.0;GZ;0.0;MAGX;2.0;MAGY;47.0;MAGZ;6.0
MOT;0;1000.0;1;1000.0;2;1000.0;3;1000.0;4;0.0;5;0.0;6;0.0;7;0.0;
RC;ROLL;1500.0;PITCH;1500.0;YAW;1500.0;THROTTLE;1500.0;AUX1;1500.0;AUX2;1500.0;AUX3;1500.0;AUX4;1500.0
GPS;ALT;0;LAT;0;LON;0;SPD;0
ALTITUDE;0.0
DEBUG;DEBUG10.0;DEBUG2;0.0;DEBUG3;0.0;DEBUG4;0.0
ATTITUDE;ANGX;0.0;ANGY;0.0;HEAD;8.0
STATUS;CYCLETIME;2796;I2CERR;0;PRESENT;31;MODE;2
RAW_IMU;AX;-3.0;AY;1.0;AZ;255.0;GX;0.0;GY;0.0;GZ;0.0;MAGX;1.0;MAGY;46.0;MAGZ;6.0
MOT;0;1000.0;1;1000.0;2;1000.0;3;1000.0;4;0.0;5;0.0;6;0.0;7;0.0;
RC;ROLL;1500.0;PITCH;1500.0;YAW;1500.0;THROTTLE;1500.0;AUX1;1500.0;AUX2;1500.0;AUX3;1500.0;AUX4;1500.0
GPS;ALT;0;LAT;0;LON;0;SPD;0
ALTITUDE;0.0
DEBUG;DEBUG10.0;DEBUG2;0.0;DEBUG3;0.0;DEBUG4;0.0
ATTITUDE;ANGX;0.0;ANGY;0.0;HEAD;8.0
STATUS;CYCLETIME;2720;I2CERR;0;PRESENT;31;MODE;2
RAW_IMU;AX;-3.0;AY;1.0;AZ;255.0;GX;0.0;GY;0.0;GZ;0.0;MAGX;1.0;MAGY;46.0;MAGZ;6.0
MOT;0;1000.0;1;1000.0;2;1000.0;3;1000.0;4;0.0;5;0.0;6;0.0;7;0.0;
RC;ROLL;1500.0;PITCH;1500.0;YAW;1500.0;THROTTLE;1500.0;AUX1;1500.0;AUX2;1500.0;AUX3;1500.0;AUX4;1500.0
GPS;ALT;0;LAT;0;LON;0;SPD;0
ALTITUDE;0.0
DEBUG;DEBUG10.0;DEBUG2;0.0;DEBUG3;0.0;DEBUG4;0.0
ATTITUDE;ANGX;0.0;ANGY;0.0;HEAD;8.0
STATUS;CYCLETIME;2740;I2CERR;0;PRESENT;31;MODE;2
RAW_IMU;AX;-2.0;AY;1.0;AZ;255.0;GX;0.0;GY;0.0;GZ;0.0;MAGX;1.0;MAGY;47.0;MAGZ;7.0
MOT;0;1000.0;1;1000.0;2;1000.0;3;1000.0;4;0.0;5;0.0;6;0.0;7;0.0;
RC;ROLL;1500.0;PITCH;1500.0;YAW;1500.0;THROTTLE;1500.0;AUX1;1500.0;AUX2;1500.0;AUX3;1500.0;AUX4;1500.0
GPS;ALT;0;LAT;0;LON;0;SPD;0
ALTITUDE;0.0
DEBUG;DEBUG10.0;DEBUG2;0.0;DEBUG3;0.0;DEBUG4;0.0
ATTITUDE;ANGX;0.0;ANGY;0.0;HEAD;8.0
STATUS;CYCLETIME;2728;I2CERR;0;PRESENT;31;MODE;2
RAW_IMU;AX;-2.0;AY;0.0;AZ;254.0;GX;0.0;GY;0.0;GZ;0.0;MAGX;1.0;MAGY;47.0;MAGZ;7.0
MOT;0;1000.0;1;1000.0;2;1000.0;3;1000.0;4;0.0;5;0.0;6;0.0;7;0.0;
RC;ROLL;1500.0;PITCH;1500.0;YAW;1500.0;THROTTLE;1500.0;AUX1;1500.0;AUX2;1500.0;AUX3;1500.0;AUX4;1500.0
GPS;ALT;0;LAT;0;LON;0;SPD;0
ALTITUDE;0.0
DEBUG;DEBUG10.0;DEBUG2;0.0;DEBUG3;0.0;DEBUG4;0.0
ATTITUDE;ANGX;0.0;ANGY;0.0;HEAD;8.0
STATUS;CYCLETIME;2740;I2CERR;0;PRESENT;31;MODE;2
RAW_IMU;AX;-2.0;AY;0.0;AZ;255.0;GX;0.0;GY;0.0;GZ;0.0;MAGX;2.0;MAGY;47.0;MAGZ;6.0
MOT;0;1000.0;1;1000.0;2;1000.0;3;1000.0;4;0.0;5;0.0;6;0.0;7;0.0;
RC;ROLL;1500.0;PITCH;1500.0;YAW;1500.0;THROTTLE;1500.0;AUX1;1500.0;AUX2;1500.0;AUX3;1500.0;AUX4;1500.0
GPS;ALT;0;LAT;0;LON;0;SPD;0
ALTITUDE;0.0
DEBUG;DEBUG10.0;DEBUG2;0.0;DEBUG3;0.0;DEBUG4;0.0
ATTITUDE;ANGX;0.0;ANGY;0.0;HEAD;8.0
STATUS;CYCLETIME;2716;I2CERR;0;PRESENT;31;MODE;2
RAW_IMU;AX;-2.0;AY;0.0;AZ;255.0;GX;0.0;GY;0.0;GZ;0.0;MAGX;2.0;MAGY;47.0;MAGZ;6.0
MOT;0;1000.0;1;1000.0;2;1000.0;3;1000.0;4;0.0;5;0.0;6;0.0;7;0.0;
RC;ROLL;1500.0;PITCH;1500.0;YAW;1500.0;THROTTLE;1500.0;AUX1;1500.0;AUX2;1500.0;AUX3;1500.0;AUX4;1500.0
GPS;ALT;0;LAT;0;LON;0;SPD;0
ALTITUDE;0.0
DEBUG;DEBUG10.0;DEBUG2;0.0;DEBUG3;0.0;DEBUG4;0.0
ATTITUDE;ANGX;0.0;ANGY;0.0;HEAD;8.0
STATUS;CYCLETIME;2756;I2CERR;0;PRESENT;31;MODE;2
RAW_IMU;AX;-2.0;AY;0.0;AZ;255.0;GX;0.0;GY;0.0;GZ;0.0;MAGX;1.0;MAGY;46.0;MAGZ;6.0
MOT;0;1000.0;1;1000.0;2;1000.0;3;1000.0;4;0.0;5;0.0;6;0.0;7;0.0;
RC;ROLL;1500.0;PITCH;1500.0;YAW;1500.0;THROTTLE;1500.0;AUX1;1500.0;AUX2;1500.0;AUX3;1500.0;AUX4;1500.0
GPS;ALT;0;LAT;0;LON;0;SPD;0
ALTITUDE;0.0
DEBUG;DEBUG10.0;DEBUG2;0.0;DEBUG3;0.0;DEBUG4;0.0
ATTITUDE;ANGX;0.0;ANGY;0.0;HEAD;8.0
STATUS;CYCLETIME;2760;I2CERR;0;PRESENT;31;MODE;2
RAW_IMU;AX;-3.0;AY;1.0;AZ;255.0;GX;0.0;GY;0.0;GZ;0.0;MAGX;1.0;MAGY;46.0;MAGZ;6.0
MOT;0;1000.0;1;1000.0;2;1000.0;3;1000.0;4;0.0;5;0.0;6;0.0;7;0.0;
RC;ROLL;1500.0;PITCH;1500.0;YAW;1500.0;THROTTLE;1500.0;AUX1;1500.0;AUX2;1500.0;AUX3;1500.0;AUX4;1500.0
GPS;ALT;0;LAT;0;LON;0;SPD;0
ALTITUDE;0.0
DEBUG;DEBUG10.0;DEBUG2;0.0;DEBUG3;0.0;DEBUG4;0.0
ATTITUDE;ANGX;0.0;ANGY;0.0;HEAD;8.0
STATUS;CYCLETIME;2724;I2CERR;0;PRESENT;31;MODE;2
RAW_IMU;AX;-3.0;AY;1.0;AZ;255.0;GX;0.0;GY;0.0;GZ;0.0;MAGX;1.0;MAGY;46.0;MAGZ;6.0
MOT;0;1000.0;1;1000.0;2;1000.0;3;1000.0;4;0.0;5;0.0;6;0.0;7;0.0;
RC;ROLL;1500.0;PITCH;1500.0;YAW;1500.0;THROTTLE;1500.0;AUX1;1500.0;AUX2;1500.0;AUX3;1500.0;AUX4;1500.0
GPS;ALT;0;LAT;0;LON;0;SPD;0
ALTITUDE;0.0
DEBUG;DEBUG10.0;DEBUG2;0.0;DEBUG3;0.0;DEBUG4;0.0
ATTITUDE;ANGX;0.0;ANGY;0.0;HEAD;8.0
STATUS;CYCLETIME;2700;I2CERR;0;PRESENT;31;MODE;2
RAW_IMU;AX;-2.0;AY;0.0;AZ;255.0;GX;0.0;GY;0.0;GZ;0.0;MAGX;1.0;MAGY;46.0;MAGZ;6.0
MOT;0;1000.0;1;1000.0;2;1000.0;3;1000.0;4;0.0;5;0.0;6;0.0;7;0.0;
RC;ROLL;1500.0;PITCH;1500.0;YAW;1500.0;THROTTLE;1500.0;AUX1;1500.0;AUX2;1500.0;AUX3;1500.0;AUX4;1500.0
GPS;ALT;0;LAT;0;LON;0;SPD;0
ALTITUDE;0.0
DEBUG;DEBUG10.0;DEBUG2;0.0;DEBUG3;0.0;DEBUG4;0.0
ATTITUDE;ANGX;0.0;ANGY;0.0;HEAD;8.0
STATUS;CYCLETIME;2724;I2CERR;0;PRESENT;31;MODE;2
RAW_IMU;AX;-3.0;AY;1.0;AZ;255.0;GX;0.0;GY;0.0;GZ;0.0;MAGX;2.0;MAGY;46.0;MAGZ;6.0
MOT;0;1000.0;1;1000.0;2;1000.0;3;1000.0;4;0.0;5;0.0;6;0.0;7;0.0;
RC;ROLL;1500.0;PITCH;1500.0;YAW;1500.0;THROTTLE;1500.0;AUX1;1500.0;AUX2;1500.0;AUX3;1500.0;AUX4;1500.0
GPS;ALT;0;LAT;0;LON;0;SPD;0
ALTITUDE;0.0
DEBUG;DEBUG10.0;DEBUG2;0.0;DEBUG3;0.0;DEBUG4;0.0
ATTITUDE;ANGX;0.0;ANGY;0.0;HEAD;8.0
STATUS;CYCLETIME;2724;I2CERR;0;PRESENT;31;MODE;2
RAW_IMU;AX;-2.0;AY;1.0;AZ;255.0;GX;0.0;GY;0.0;GZ;0.0;MAGX;2.0;MAGY;46.0;MAGZ;6.0
MOT;0;1000.0;1;1000.0;2;1000.0;3;1000.0;4;0.0;5;0.0;6;0.0;7;0.0;
RC;ROLL;1500.0;PITCH;1500.0;YAW;1500.0;THROTTLE;1500.0;AUX1;1500.0;AUX2;1500.0;AUX3;1500.0;AUX4;1500.0
GPS;ALT;0;LAT;0;LON;0;SPD;0
ALTITUDE;0.0
DEBUG;DEBUG10.0;DEBUG2;0.0;DEBUG3;0.0;DEBUG4;0.0
ATTITUDE;ANGX;0.0;ANGY;0.0;HEAD;8.0
STATUS;CYCLETIME;2844;I2CERR;0;PRESENT;31;MODE;2
RAW_IMU;AX;-2.0;AY;0.0;AZ;254.0;GX;0.0;GY;0.0;GZ;0.0;MAGX;2.0;MAGY;46.0;MAGZ;5.0
MOT;0;1000.0;1;1000.0;2;1000.0;3;1000.0;4;0.0;5;0.0;6;0.0;7;0.0;
RC;ROLL;1500.0;PITCH;1500.0;YAW;1500.0;THROTTLE;1500.0;AUX1;1500.0;AUX2;1500.0;AUX3;1500.0;AUX4;1500.0
GPS;ALT;0;LAT;0;LON;0;SPD;0
ALTITUDE;0.0
DEBUG;DEBUG10.0;DEBUG2;0.0;DEBUG3;0.0;DEBUG4;0.0
ATTITUDE;ANGX;0.0;ANGY;0.0;HEAD;8.0
STATUS;CYCLETIME;2760;I2CERR;0;PRESENT;31;MODE;2
RAW_IMU;AX;-2.0;AY;1.0;AZ;254.0;GX;0.0;GY;0.0;GZ;0.0;MAGX;2.0;MAGY;46.0;MAGZ;5.0
MOT;0;1000.0;1;1000.0;2;1000.0;3;1000.0;4;0.0;5;0.0;6;0.0;7;0.0;
RC;ROLL;1500.0;PITCH;1500.0;YAW;1500.0;THROTTLE;1500.0;AUX1;1500.0;AUX2;1500.0;AUX3;1500.0;AUX4;1500.0
GPS;ALT;0;LAT;0;LON;0;SPD;0
ALTITUDE;0.0
DEBUG;DEBUG10.0;DEBUG2;0.0;DEBUG3;0.0;DEBUG4;0.0
ATTITUDE;ANGX;0.0;ANGY;0.0;HEAD;8.0
STATUS;CYCLETIME;2992;I2CERR;0;PRESENT;31;MODE;2
RAW_IMU;AX;-2.0;AY;0.0;AZ;254.0;GX;0.0;GY;0.0;GZ;0.0;MAGX;2.0;MAGY;46.0;MAGZ;6.0
MOT;0;1000.0;1;1000.0;2;1000.0;3;1000.0;4;0.0;5;0.0;6;0.0;7;0.0;
RC;ROLL;1500.0;PITCH;1500.0;YAW;1500.0;THROTTLE;1500.0;AUX1;1500.0;AUX2;1500.0;AUX3;1500.0;AUX4;1500.0
GPS;ALT;0;LAT;0;LON;0;SPD;0
ALTITUDE;0.0
DEBUG;DEBUG10.0;DEBUG2;0.0;DEBUG3;0.0;DEBUG4;0.0
ATTITUDE;ANGX;0.0;ANGY;0.0;HEAD;8.0
STATUS;CYCLETIME;2720;I2CERR;0;PRESENT;31;MODE;2
RAW_IMU;AX;-2.0;AY;0.0;AZ;254.0;GX;0.0;GY;0.0;GZ;0.0;MAGX;2.0;MAGY;46.0;MAGZ;6.0
MOT;0;1000.0;1;1000.0;2;1000.0;3;1000.0;4;0.0;5;0.0;6;0.0;7;0.0;
RC;ROLL;1500.0;PITCH;1500.0;YAW;1500.0;THROTTLE;1500.0;AUX1;1500.0;AUX2;1500.0;AUX3;1500.0;AUX4;1500.0
GPS;ALT;0;LAT;0;LON;0;SPD;0
ALTITUDE;0.0
DEBUG;DEBUG10.0;DEBUG2;0.0;DEBUG3;0.0;DEBUG4;0.0
ATTITUDE;ANGX;0.0;ANGY;0.0;HEAD;8.0
STATUS;CYCLETIME;2712;I2CERR;0;PRESENT;31;MODE;2
RAW_IMU;AX;-3.0;AY;1.0;AZ;254.0;GX;0.0;GY;0.0;GZ;0.0;MAGX;2.0;MAGY;46.0;MAGZ;7.0
MOT;0;1000.0;1;1000.0;2;1000.0;3;1000.0;4;0.0;5;0.0;6;0.0;7;0.0;
RC;ROLL;1500.0;PITCH;1500.0;YAW;1500.0;THROTTLE;1500.0;AUX1;1500.0;AUX2;1500.0;AUX3;1500.0;AUX4;1500.0
GPS;ALT;0;LAT;0;LON;0;SPD;0
ALTITUDE;0.0
DEBUG;DEBUG10.0;DEBUG2;0.0;DEBUG3;0.0;DEBUG4;0.0
ATTITUDE;ANGX;0.0;ANGY;0.0;HEAD;8.0
STATUS;CYCLETIME;2940;I2CERR;0;PRESENT;31;MODE;2
RAW_IMU;AX;-2.0;AY;0.0;AZ;254.0;GX;0.0;GY;0.0;GZ;0.0;MAGX;2.0;MAGY;46.0;MAGZ;7.0
MOT;0;1000.0;1;1000.0;2;1000.0;3;1000.0;4;0.0;5;0.0;6;0.0;7;0.0;
RC;ROLL;1500.0;PITCH;1500.0;YAW;1500.0;THROTTLE;1500.0;AUX1;1500.0;AUX2;1500.0;AUX3;1500.0;AUX4;1500.0
GPS;ALT;0;LAT;0;LON;0;SPD;0
ALTITUDE;0.0
DEBUG;DEBUG10.0;DEBUG2;0.0;DEBUG3;0.0;DEBUG4;0.0
ATTITUDE;ANGX;0.0;ANGY;0.0;HEAD;8.0
STATUS;CYCLETIME;2768;I2CERR;0;PRESENT;31;MODE;2
RAW_IMU;AX;-2.0;AY;0.0;AZ;254.0;GX;0.0;GY;0.0;GZ;0.0;MAGX;1.0;MAGY;46.0;MAGZ;7.0
MOT;0;1000.0;1;1000.0;2;1000.0;3;1000.0;4;0.0;5;0.0;6;0.0;7;0.0;
RC;ROLL;1500.0;PITCH;1500.0;YAW;1500.0;THROTTLE;1500.0;AUX1;1500.0;AUX2;1500.0;AUX3;1500.0;AUX4;1500.0
GPS;ALT;0;LAT;0;LON;0;SPD;0
ALTITUDE;0.0
DEBUG;DEBUG10.0;DEBUG2;0.0;DEBUG3;0.0;DEBUG4;0.0
ATTITUDE;ANGX;0.0;ANGY;0.0;HEAD;8.0
STATUS;CYCLETIME;2736;I2CERR;0;PRESENT;31;MODE;2
RAW_IMU;AX;-3.0;AY;0.0;AZ;255.0;GX;0.0;GY;0.0;GZ;0.0;MAGX;1.0;MAGY;46.0;MAGZ;7.0
MOT;0;1000.0;1;1000.0;2;1000.0;3;1000.0;4;0.0;5;0.0;6;0.0;7;0.0;
RC;ROLL;1500.0;PITCH;1500.0;YAW;1500.0;THROTTLE;1500.0;AUX1;1500.0;AUX2;1500.0;AUX3;1500.0;AUX4;1500.0
GPS;ALT;0;LAT;0;LON;0;SPD;0
ALTITUDE;0.0
DEBUG;DEBUG10.0;DEBUG2;0.0;DEBUG3;0.0;DEBUG4;0.0
ATTITUDE;ANGX;0.0;ANGY;0.0;HEAD;8.0
STATUS;CYCLETIME;2948;I2CERR;0;PRESENT;31;MODE;2
RAW_IMU;AX;-2.0;AY;0.0;AZ;255.0;GX;0.0;GY;0.0;GZ;0.0;MAGX;1.0;MAGY;46.0;MAGZ;6.0
MOT;0;1000.0;1;1000.0;2;1000.0;3;1000.0;4;0.0;5;0.0;6;0.0;7;0.0;
RC;ROLL;1500.0;PITCH;1500.0;YAW;1500.0;THROTTLE;1500.0;AUX1;1500.0;AUX2;1500.0;AUX3;1500.0;AUX4;1500.0
GPS;ALT;0;LAT;0;LON;0;SPD;0
ALTITUDE;0.0
DEBUG;DEBUG10.0;DEBUG2;0.0;DEBUG3;0.0;DEBUG4;0.0
ATTITUDE;ANGX;0.0;ANGY;0.0;HEAD;8.0
STATUS;CYCLETIME;2708;I2CERR;0;PRESENT;31;MODE;2
RAW_IMU;AX;-2.0;AY;0.0;AZ;255.0;GX;0.0;GY;0.0;GZ;0.0;MAGX;1.0;MAGY;46.0;MAGZ;6.0
MOT;0;1000.0;1;1000.0;2;1000.0;3;1000.0;4;0.0;5;0.0;6;0.0;7;0.0;
RC;ROLL;1500.0;PITCH;1500.0;YAW;1500.0;THROTTLE;1500.0;AUX1;1500.0;AUX2;1500.0;AUX3;1500.0;AUX4;1500.0
GPS;ALT;0;LAT;0;LON;0;SPD;0
ALTITUDE;20.0
DEBUG;DEBUG10.0;DEBUG2;0.0;DEBUG3;0.0;DEBUG4;0.0
ATTITUDE;ANGX;0.0;ANGY;0.0;HEAD;8.0
STATUS;CYCLETIME;3012;I2CERR;0;PRESENT;31;MODE;2
RAW_IMU;AX;-2.0;AY;0.0;AZ;255.0;GX;0.0;GY;0.0;GZ;0.0;MAGX;1.0;MAGY;46.0;MAGZ;6.0
MOT;0;1000.0;1;1000.0;2;1000.0;3;1000.0;4;0.0;5;0.0;6;0.0;7;0.0;
RC;ROLL;1500.0;PITCH;1500.0;YAW;1500.0;THROTTLE;1500.0;AUX1;1500.0;AUX2;1500.0;AUX3;1500.0;AUX4;1500.0
GPS;ALT;0;LAT;0;LON;0;SPD;0
ALTITUDE;20.0
DEBUG;DEBUG10.0;DEBUG2;0.0;DEBUG3;0.0;DEBUG4;0.0
ATTITUDE;ANGX;0.0;ANGY;0.0;HEAD;8.0
STATUS;CYCLETIME;2724;I2CERR;0;PRESENT;31;MODE;2
RAW_IMU;AX;-2.0;AY;0.0;AZ;255.0;GX;0.0;GY;0.0;GZ;0.0;MAGX;1.0;MAGY;46.0;MAGZ;6.0
MOT;0;1000.0;1;1000.0;2;1000.0;3;1000.0;4;0.0;5;0.0;6;0.0;7;0.0;
RC;ROLL;1500.0;PITCH;1500.0;YAW;1500.0;THROTTLE;1500.0;AUX1;1500.0;AUX2;1500.0;AUX3;1500.0;AUX4;1500.0
GPS;ALT;0;LAT;0;LON;0;SPD;0
ALTITUDE;20.0
DEBUG;DEBUG10.0;DEBUG2;0.0;DEBUG3;0.0;DEBUG4;0.0
ATTITUDE;ANGX;0.0;ANGY;0.0;HEAD;8.0
STATUS;CYCLETIME;2716;I2CERR;0;PRESENT;31;MODE;2
RAW_IMU;AX;-2.0;AY;0.0;AZ;255.0;GX;0.0;GY;0.0;GZ;0.0;MAGX;1.0;MAGY;46.0;MAGZ;6.0
MOT;0;1000.0;1;1000.0;2;1000.0;3;1000.0;4;0.0;5;0.0;6;0.0;7;0.0;
RC;ROLL;1500.0;PITCH;1500.0;YAW;1500.0;THROTTLE;1500.0;AUX1;1500.0;AUX2;1500.0;AUX3;1500.0;AUX4;1500.0
GPS;ALT;0;LAT;0;LON;0;SPD;0
ALTITUDE;20.0
DEBUG;DEBUG10.0;DEBUG2;0.0;DEBUG3;0.0;DEBUG4;0.0
ATTITUDE;ANGX;0.0;ANGY;0.0;HEAD;8.0
STATUS;CYCLETIME;2720;I2CERR;0;PRESENT;31;MODE;2
RAW_IMU;AX;-2.0;AY;0.0;AZ;255.0;GX;0.0;GY;0.0;GZ;0.0;MAGX;1.0;MAGY;46.0;MAGZ;6.0
MOT;0;1000.0;1;1000.0;2;1000.0;3;1000.0;4;0.0;5;0.0;6;0.0;7;0.0;
RC;ROLL;1500.0;PITCH;1500.0;YAW;1500.0;THROTTLE;1500.0;AUX1;1500.0;AUX2;1500.0;AUX3;1500.0;AUX4;1500.0
GPS;ALT;0;LAT;0;LON;0;SPD;0
ALTITUDE;20.0
DEBUG;DEBUG10.0;DEBUG2;0.0;DEBUG3;0.0;DEBUG4;0.0
ATTITUDE;ANGX;0.0;ANGY;0.0;HEAD;8.0
STATUS;CYCLETIME;2756;I2CERR;0;PRESENT;31;MODE;2
RAW_IMU;AX;-2.0;AY;0.0;AZ;255.0;GX;0.0;GY;0.0;GZ;0.0;MAGX;1.0;MAGY;46.0;MAGZ;6.0
MOT;0;1000.0;1;1000.0;2;1000.0;3;1000.0;4;0.0;5;0.0;6;0.0;7;0.0;
RC;ROLL;1500.0;PITCH;1500.0;YAW;1500.0;THROTTLE;1500.0;AUX1;1500.0;AUX2;1500.0;AUX3;1500.0;AUX4;1500.0
GPS;ALT;0;LAT;0;LON;0;SPD;0
ALTITUDE;20.0
DEBUG;DEBUG10.0;DEBUG2;0.0;DEBUG3;0.0;DEBUG4;0.0
ATTITUDE;ANGX;0.0;ANGY;0.0;HEAD;8.0
STATUS;CYCLETIME;2824;I2CERR;0;PRESENT;31;MODE;2
RAW_IMU;AX;-2.0;AY;0.0;AZ;255.0;GX;0.0;GY;0.0;GZ;0.0;MAGX;2.0;MAGY;46.0;MAGZ;6.0
MOT;0;1000.0;1;1000.0;2;1000.0;3;1000.0;4;0.0;5;0.0;6;0.0;7;0.0;
RC;ROLL;1500.0;PITCH;1500.0;YAW;1500.0;THROTTLE;1500.0;AUX1;1500.0;AUX2;1500.0;AUX3;1500.0;AUX4;1500.0
GPS;ALT;0;LAT;0;LON;0;SPD;0
ALTITUDE;20.0
DEBUG;DEBUG10.0;DEBUG2;0.0;DEBUG3;0.0;DEBUG4;0.0
ATTITUDE;ANGX;0.0;ANGY;0.0;HEAD;8.0
STATUS;CYCLETIME;2740;I2CERR;0;PRESENT;31;MODE;2
RAW_IMU;AX;-2.0;AY;1.0;AZ;255.0;GX;0.0;GY;0.0;GZ;0.0;MAGX;2.0;MAGY;46.0;MAGZ;6.0
MOT;0;1000.0;1;1000.0;2;1000.0;3;1000.0;4;0.0;5;0.0;6;0.0;7;0.0;
RC;ROLL;1500.0;PITCH;1500.0;YAW;1500.0;THROTTLE;1500.0;AUX1;1500.0;AUX2;1500.0;AUX3;1500.0;AUX4;1500.0
GPS;ALT;0;LAT;0;LON;0;SPD;0
ALTITUDE;20.0
DEBUG;DEBUG10.0;DEBUG2;0.0;DEBUG3;0.0;DEBUG4;0.0
ATTITUDE;ANGX;0.0;ANGY;0.0;HEAD;8.0
STATUS;CYCLETIME;2852;I2CERR;0;PRESENT;31;MODE;2
RAW_IMU;AX;-2.0;AY;1.0;AZ;255.0;GX;0.0;GY;0.0;GZ;0.0;MAGX;1.0;MAGY;45.0;MAGZ;5.0
MOT;0;1000.0;1;1000.0;2;1000.0;3;1000.0;4;0.0;5;0.0;6;0.0;7;0.0;
RC;ROLL;1500.0;PITCH;1500.0;YAW;1500.0;THROTTLE;1500.0;AUX1;1500.0;AUX2;1500.0;AUX3;1500.0;AUX4;1500.0
GPS;ALT;0;LAT;0;LON;0;SPD;0
ALTITUDE;20.0
DEBUG;DEBUG10.0;DEBUG2;0.0;DEBUG3;0.0;DEBUG4;0.0
ATTITUDE;ANGX;0.0;ANGY;0.0;HEAD;8.0
STATUS;CYCLETIME;2776;I2CERR;0;PRESENT;31;MODE;2
RAW_IMU;AX;-2.0;AY;0.0;AZ;255.0;GX;0.0;GY;0.0;GZ;0.0;MAGX;1.0;MAGY;45.0;MAGZ;5.0
MOT;0;1000.0;1;1000.0;2;1000.0;3;1000.0;4;0.0;5;0.0;6;0.0;7;0.0;
RC;ROLL;1500.0;PITCH;1500.0;YAW;1500.0;THROTTLE;1500.0;AUX1;1500.0;AUX2;1500.0;AUX3;1500.0;AUX4;1500.0
GPS;ALT;0;LAT;0;LON;0;SPD;0
ALTITUDE;20.0
DEBUG;DEBUG10.0;DEBUG2;0.0;DEBUG3;0.0;DEBUG4;0.0
ATTITUDE;ANGX;0.0;ANGY;0.0;HEAD;8.0
STATUS;CYCLETIME;2752;I2CERR;0;PRESENT;31;MODE;2
RAW_IMU;AX;-2.0;AY;0.0;AZ;255.0;GX;0.0;GY;0.0;GZ;0.0;MAGX;1.0;MAGY;46.0;MAGZ;7.0
MOT;0;1000.0;1;1000.0;2;1000.0;3;1000.0;4;0.0;5;0.0;6;0.0;7;0.0;
RC;ROLL;1500.0;PITCH;1500.0;YAW;1500.0;THROTTLE;1500.0;AUX1;1500.0;AUX2;1500.0;AUX3;1500.0;AUX4;1500.0
GPS;ALT;0;LAT;0;LON;0;SPD;0
ALTITUDE;20.0
DEBUG;DEBUG10.0;DEBUG2;0.0;DEBUG3;0.0;DEBUG4;0.0
ATTITUDE;ANGX;0.0;ANGY;0.0;HEAD;8.0
STATUS;CYCLETIME;2744;I2CERR;0;PRESENT;31;MODE;2
RAW_IMU;AX;-2.0;AY;1.0;AZ;255.0;GX;0.0;GY;0.0;GZ;0.0;MAGX;1.0;MAGY;46.0;MAGZ;7.0
MOT;0;1000.0;1;1000.0;2;1000.0;3;1000.0;4;0.0;5;0.0;6;0.0;7;0.0;
RC;ROLL;1500.0;PITCH;1500.0;YAW;1500.0;THROTTLE;1500.0;AUX1;1500.0;AUX2;1500.0;AUX3;1500.0;AUX4;1500.0
GPS;ALT;0;LAT;0;LON;0;SPD;0
ALTITUDE;20.0
DEBUG;DEBUG10.0;DEBUG2;0.0;DEBUG3;0.0;DEBUG4;0.0
ATTITUDE;ANGX;0.0;ANGY;0.0;HEAD;8.0
STATUS;CYCLETIME;2700;I2CERR;0;PRESENT;31;MODE;2
RAW_IMU;AX;-3.0;AY;1.0;AZ;255.0;GX;0.0;GY;0.0;GZ;0.0;MAGX;1.0;MAGY;46.0;MAGZ;6.0
MOT;0;1000.0;1;1000.0;2;1000.0;3;1000.0;4;0.0;5;0.0;6;0.0;7;0.0;
RC;ROLL;1500.0;PITCH;1500.0;YAW;1500.0;THROTTLE;1500.0;AUX1;1500.0;AUX2;1500.0;AUX3;1500.0;AUX4;1500.0
GPS;ALT;0;LAT;0;LON;0;SPD;0
ALTITUDE;20.0
DEBUG;DEBUG10.0;DEBUG2;0.0;DEBUG3;0.0;DEBUG4;0.0
ATTITUDE;ANGX;0.0;ANGY;0.0;HEAD;8.0
STATUS;CYCLETIME;2792;I2CERR;0;PRESENT;31;MODE;2
RAW_IMU;AX;-3.0;AY;0.0;AZ;255.0;GX;0.0;GY;0.0;GZ;0.0;MAGX;1.0;MAGY;46.0;MAGZ;6.0
MOT;0;1000.0;1;1000.0;2;1000.0;3;1000.0;4;0.0;5;0.0;6;0.0;7;0.0;
RC;ROLL;1500.0;PITCH;1500.0;YAW;1500.0;THROTTLE;1500.0;AUX1;1500.0;AUX2;1500.0;AUX3;1500.0;AUX4;1500.0
GPS;ALT;0;LAT;0;LON;0;SPD;0
ALTITUDE;20.0
DEBUG;DEBUG10.0;DEBUG2;0.0;DEBUG3;0.0;DEBUG4;0.0
ATTITUDE;ANGX;0.0;ANGY;0.0;HEAD;8.0
STATUS;CYCLETIME;2740;I2CERR;0;PRESENT;31;MODE;2
RAW_IMU;AX;-3.0;AY;0.0;AZ;255.0;GX;0.0;GY;0.0;GZ;0.0;MAGX;2.0;MAGY;46.0;MAGZ;6.0
MOT;0;1000.0;1;1000.0;2;1000.0;3;1000.0;4;0.0;5;0.0;6;0.0;7;0.0;
RC;ROLL;1500.0;PITCH;1500.0;YAW;1500.0;THROTTLE;1500.0;AUX1;1500.0;AUX2;1500.0;AUX3;1500.0;AUX4;1500.0
GPS;ALT;0;LAT;0;LON;0;SPD;0
ALTITUDE;20.0
DEBUG;DEBUG10.0;DEBUG2;0.0;DEBUG3;0.0;DEBUG4;0.0
ATTITUDE;ANGX;0.0;ANGY;0.0;HEAD;8.0
STATUS;CYCLETIME;2700;I2CERR;0;PRESENT;31;MODE;2
RAW_IMU;AX;-2.0;AY;0.0;AZ;255.0;GX;0.0;GY;0.0;GZ;0.0;MAGX;2.0;MAGY;46.0;MAGZ;6.0
MOT;0;1000.0;1;1000.0;2;1000.0;3;1000.0;4;0.0;5;0.0;6;0.0;7;0.0;
RC;ROLL;1500.0;PITCH;1500.0;YAW;1500.0;THROTTLE;1500.0;AUX1;1500.0;AUX2;1500.0;AUX3;1500.0;AUX4;1500.0
GPS;ALT;0;LAT;0;LON;0;SPD;0
ALTITUDE;20.0
DEBUG;DEBUG10.0;DEBUG2;0.0;DEBUG3;0.0;DEBUG4;0.0
ATTITUDE;ANGX;0.0;ANGY;0.0;HEAD;8.0
STATUS;CYCLETIME;2948;I2CERR;0;PRESENT;31;MODE;2
RAW_IMU;AX;-3.0;AY;1.0;AZ;255.0;GX;0.0;GY;0.0;GZ;0.0;MAGX;2.0;MAGY;46.0;MAGZ;6.0
MOT;0;1000.0;1;1000.0;2;1000.0;3;1000.0;4;0.0;5;0.0;6;0.0;7;0.0;
RC;ROLL;1500.0;PITCH;1500.0;YAW;1500.0;THROTTLE;1500.0;AUX1;1500.0;AUX2;1500.0;AUX3;1500.0;AUX4;1500.0
GPS;ALT;0;LAT;0;LON;0;SPD;0
ALTITUDE;20.0
DEBUG;DEBUG10.0;DEBUG2;0.0;DEBUG3;0.0;DEBUG4;0.0
ATTITUDE;ANGX;0.0;ANGY;0.0;HEAD;8.0
STATUS;CYCLETIME;2796;I2CERR;0;PRESENT;31;MODE;2
RAW_IMU;AX;-2.0;AY;0.0;AZ;255.0;GX;0.0;GY;0.0;GZ;0.0;MAGX;2.0;MAGY;46.0;MAGZ;6.0
MOT;0;1000.0;1;1000.0;2;1000.0;3;1000.0;4;0.0;5;0.0;6;0.0;7;0.0;
RC;ROLL;1500.0;PITCH;1500.0;YAW;1500.0;THROTTLE;1500.0;AUX1;1500.0;AUX2;1500.0;AUX3;1500.0;AUX4;1500.0
GPS;ALT;0;LAT;0;LON;0;SPD;0
ALTITUDE;20.0
DEBUG;DEBUG10.0;DEBUG2;0.0;DEBUG3;0.0;DEBUG4;0.0
ATTITUDE;ANGX;0.0;ANGY;0.0;HEAD;8.0
STATUS;CYCLETIME;2744;I2CERR;0;PRESENT;31;MODE;2
RAW_IMU;AX;-2.0;AY;1.0;AZ;255.0;GX;0.0;GY;0.0;GZ;0.0;MAGX;2.0;MAGY;46.0;MAGZ;5.0
MOT;0;1000.0;1;1000.0;2;1000.0;3;1000.0;4;0.0;5;0.0;6;0.0;7;0.0;
RC;ROLL;1500.0;PITCH;1500.0;YAW;1500.0;THROTTLE;1500.0;AUX1;1500.0;AUX2;1500.0;AUX3;1500.0;AUX4;1500.0
GPS;ALT;0;LAT;0;LON;0;SPD;0
ALTITUDE;20.0
DEBUG;DEBUG10.0;DEBUG2;0.0;DEBUG3;0.0;DEBUG4;0.0
ATTITUDE;ANGX;0.0;ANGY;0.0;HEAD;8.0
STATUS;CYCLETIME;2996;I2CERR;0;PRESENT;31;MODE;2
RAW_IMU;AX;-2.0;AY;1.0;AZ;255.0;GX;0.0;GY;0.0;GZ;0.0;MAGX;2.0;MAGY;46.0;MAGZ;5.0
MOT;0;1000.0;1;1000.0;2;1000.0;3;1000.0;4;0.0;5;0.0;6;0.0;7;0.0;
RC;ROLL;1500.0;PITCH;1500.0;YAW;1500.0;THROTTLE;1500.0;AUX1;1500.0;AUX2;1500.0;AUX3;1500.0;AUX4;1500.0
GPS;ALT;0;LAT;0;LON;0;SPD;0
ALTITUDE;20.0
DEBUG;DEBUG10.0;DEBUG2;0.0;DEBUG3;0.0;DEBUG4;0.0
ATTITUDE;ANGX;0.0;ANGY;0.0;HEAD;8.0
STATUS;CYCLETIME;2744;I2CERR;0;PRESENT;31;MODE;2
RAW_IMU;AX;-3.0;AY;1.0;AZ;255.0;GX;0.0;GY;0.0;GZ;0.0;MAGX;2.0;MAGY;46.0;MAGZ;6.0
MOT;0;1000.0;1;1000.0;2;1000.0;3;1000.0;4;0.0;5;0.0;6;0.0;7;0.0;
RC;ROLL;1500.0;PITCH;1500.0;YAW;1500.0;THROTTLE;1500.0;AUX1;1500.0;AUX2;1500.0;AUX3;1500.0;AUX4;1500.0
GPS;ALT;0;LAT;0;LON;0;SPD;0
ALTITUDE;20.0
DEBUG;DEBUG10.0;DEBUG2;0.0;DEBUG3;0.0;DEBUG4;0.0
ATTITUDE;ANGX;0.0;ANGY;0.0;HEAD;8.0
STATUS;CYCLETIME;2748;I2CERR;0;PRESENT;31;MODE;2
RAW_IMU;AX;-2.0;AY;1.0;AZ;255.0;GX;0.0;GY;0.0;GZ;0.0;MAGX;2.0;MAGY;46.0;MAGZ;6.0
MOT;0;1000.0;1;1000.0;2;1000.0;3;1000.0;4;0.0;5;0.0;6;0.0;7;0.0;
RC;ROLL;1500.0;PITCH;1500.0;YAW;1500.0;THROTTLE;1500.0;AUX1;1500.0;AUX2;1500.0;AUX3;1500.0;AUX4;1500.0
GPS;ALT;0;LAT;0;LON;0;SPD;0
ALTITUDE;20.0
DEBUG;DEBUG10.0;DEBUG2;0.0;DEBUG3;0.0;DEBUG4;0.0
ATTITUDE;ANGX;0.0;ANGY;0.0;HEAD;8.0
STATUS;CYCLETIME;2840;I2CERR;0;PRESENT;31;MODE;2
RAW_IMU;AX;-2.0;AY;1.0;AZ;255.0;GX;0.0;GY;0.0;GZ;0.0;MAGX;2.0;MAGY;45.0;MAGZ;6.0
MOT;0;1000.0;1;1000.0;2;1000.0;3;1000.0;4;0.0;5;0.0;6;0.0;7;0.0;
RC;ROLL;1500.0;PITCH;1500.0;YAW;1500.0;THROTTLE;1500.0;AUX1;1500.0;AUX2;1500.0;AUX3;1500.0;AUX4;1500.0
GPS;ALT;0;LAT;0;LON;0;SPD;0
ALTITUDE;20.0
DEBUG;DEBUG10.0;DEBUG2;0.0;DEBUG3;0.0;DEBUG4;0.0
ATTITUDE;ANGX;0.0;ANGY;0.0;HEAD;8.0
STATUS;CYCLETIME;2752;I2CERR;0;PRESENT;31;MODE;2
RAW_IMU;AX;-3.0;AY;1.0;AZ;255.0;GX;0.0;GY;0.0;GZ;0.0;MAGX;2.0;MAGY;45.0;MAGZ;6.0
MOT;0;1000.0;1;1000.0;2;1000.0;3;1000.0;4;0.0;5;0.0;6;0.0;7;0.0;
RC;ROLL;1500.0;PITCH;1500.0;YAW;1500.0;THROTTLE;1500.0;AUX1;1500.0;AUX2;1500.0;AUX3;1500.0;AUX4;1500.0
GPS;ALT;0;LAT;0;LON;0;SPD;0
ALTITUDE;20.0
DEBUG;DEBUG10.0;DEBUG2;0.0;DEBUG3;0.0;DEBUG4;0.0
ATTITUDE;ANGX;0.0;ANGY;0.0;HEAD;8.0
STATUS;CYCLETIME;2720;I2CERR;0;PRESENT;31;MODE;2
RAW_IMU;AX;-3.0;AY;0.0;AZ;255.0;GX;0.0;GY;0.0;GZ;0.0;MAGX;2.0;MAGY;47.0;MAGZ;7.0
MOT;0;1000.0;1;1000.0;2;1000.0;3;1000.0;4;0.0;5;0.0;6;0.0;7;0.0;
RC;ROLL;1500.0;PITCH;1500.0;YAW;1500.0;THROTTLE;1500.0;AUX1;1500.0;AUX2;1500.0;AUX3;1500.0;AUX4;1500.0
GPS;ALT;0;LAT;0;LON;0;SPD;0
ALTITUDE;20.0
DEBUG;DEBUG10.0;DEBUG2;0.0;DEBUG3;0.0;DEBUG4;0.0
ATTITUDE;ANGX;0.0;ANGY;0.0;HEAD;8.0
STATUS;CYCLETIME;2720;I2CERR;0;PRESENT;31;MODE;2
RAW_IMU;AX;-3.0;AY;0.0;AZ;255.0;GX;0.0;GY;0.0;GZ;0.0;MAGX;2.0;MAGY;47.0;MAGZ;7.0
MOT;0;1000.0;1;1000.0;2;1000.0;3;1000.0;4;0.0;5;0.0;6;0.0;7;0.0;
RC;ROLL;1500.0;PITCH;1500.0;YAW;1500.0;THROTTLE;1500.0;AUX1;1500.0;AUX2;1500.0;AUX3;1500.0;AUX4;1500.0
GPS;ALT;0;LAT;0;LON;0;SPD;0
ALTITUDE;20.0
DEBUG;DEBUG10.0;DEBUG2;0.0;DEBUG3;0.0;DEBUG4;0.0
ATTITUDE;ANGX;0.0;ANGY;0.0;HEAD;8.0
STATUS;CYCLETIME;3016;I2CERR;0;PRESENT;31;MODE;2
RAW_IMU;AX;-3.0;AY;0.0;AZ;254.0;GX;0.0;GY;0.0;GZ;0.0;MAGX;1.0;MAGY;45.0;MAGZ;6.0
MOT;0;1000.0;1;1000.0;2;1000.0;3;1000.0;4;0.0;5;0.0;6;0.0;7;0.0;
RC;ROLL;1500.0;PITCH;1500.0;YAW;1500.0;THROTTLE;1500.0;AUX1;1500.0;AUX2;1500.0;AUX3;1500.0;AUX4;1500.0
GPS;ALT;0;LAT;0;LON;0;SPD;0
ALTITUDE;20.0
DEBUG;DEBUG10.0;DEBUG2;0.0;DEBUG3;0.0;DEBUG4;0.0
ATTITUDE;ANGX;0.0;ANGY;0.0;HEAD;8.0
STATUS;CYCLETIME;2684;I2CERR;0;PRESENT;31;MODE;2
RAW_IMU;AX;-3.0;AY;1.0;AZ;255.0;GX;0.0;GY;0.0;GZ;0.0;MAGX;1.0;MAGY;45.0;MAGZ;6.0
MOT;0;1000.0;1;1000.0;2;1000.0;3;1000.0;4;0.0;5;0.0;6;0.0;7;0.0;
RC;ROLL;1500.0;PITCH;1500.0;YAW;1500.0;THROTTLE;1500.0;AUX1;1500.0;AUX2;1500.0;AUX3;1500.0;AUX4;1500.0
GPS;ALT;0;LAT;0;LON;0;SPD;0
ALTITUDE;20.0
DEBUG;DEBUG10.0;DEBUG2;0.0;DEBUG3;0.0;DEBUG4;0.0
ATTITUDE;ANGX;0.0;ANGY;0.0;HEAD;8.0
STATUS;CYCLETIME;2772;I2CERR;0;PRESENT;31;MODE;2
RAW_IMU;AX;-3.0;AY;0.0;AZ;255.0;GX;0.0;GY;0.0;GZ;0.0;MAGX;2.0;MAGY;46.0;MAGZ;6.0
MOT;0;1000.0;1;1000.0;2;1000.0;3;1000.0;4;0.0;5;0.0;6;0.0;7;0.0;
RC;ROLL;1500.0;PITCH;1500.0;YAW;1500.0;THROTTLE;1500.0;AUX1;1500.0;AUX2;1500.0;AUX3;1500.0;AUX4;1500.0
GPS;ALT;0;LAT;0;LON;0;SPD;0
ALTITUDE;20.0
DEBUG;DEBUG10.0;DEBUG2;0.0;DEBUG3;0.0;DEBUG4;0.0
ATTITUDE;ANGX;0.0;ANGY;0.0;HEAD;8.0
STATUS;CYCLETIME;2824;I2CERR;0;PRESENT;31;MODE;2
RAW_IMU;AX;-3.0;AY;0.0;AZ;255.0;GX;0.0;GY;0.0;GZ;0.0;MAGX;2.0;MAGY;46.0;MAGZ;6.0
MOT;0;1000.0;1;1000.0;2;1000.0;3;1000.0;4;0.0;5;0.0;6;0.0;7;0.0;
RC;ROLL;1500.0;PITCH;1500.0;YAW;1500.0;THROTTLE;1500.0;AUX1;1500.0;AUX2;1500.0;AUX3;1500.0;AUX4;1500.0
GPS;ALT;0;LAT;0;LON;0;SPD;0
ALTITUDE;20.0
DEBUG;DEBUG10.0;DEBUG2;0.0;DEBUG3;0.0;DEBUG4;0.0
ATTITUDE;ANGX;0.0;ANGY;0.0;HEAD;8.0
STATUS;CYCLETIME;2744;I2CERR;0;PRESENT;31;MODE;2
RAW_IMU;AX;-3.0;AY;0.0;AZ;255.0;GX;0.0;GY;0.0;GZ;0.0;MAGX;1.0;MAGY;46.0;MAGZ;6.0
MOT;0;1000.0;1;1000.0;2;1000.0;3;1000.0;4;0.0;5;0.0;6;0.0;7;0.0;
RC;ROLL;1500.0;PITCH;1500.0;YAW;1500.0;THROTTLE;1500.0;AUX1;1500.0;AUX2;1500.0;AUX3;1500.0;AUX4;1500.0
GPS;ALT;0;LAT;0;LON;0;SPD;0
ALTITUDE;20.0
DEBUG;DEBUG10.0;DEBUG2;0.0;DEBUG3;0.0;DEBUG4;0.0
ATTITUDE;ANGX;0.0;ANGY;0.0;HEAD;8.0
STATUS;CYCLETIME;2736;I2CERR;0;PRESENT;31;MODE;2
RAW_IMU;AX;-3.0;AY;0.0;AZ;255.0;GX;0.0;GY;0.0;GZ;0.0;MAGX;1.0;MAGY;46.0;MAGZ;6.0
MOT;0;1000.0;1;1000.0;2;1000.0;3;1000.0;4;0.0;5;0.0;6;0.0;7;0.0;
RC;ROLL;1500.0;PITCH;1500.0;YAW;1500.0;THROTTLE;1500.0;AUX1;1500.0;AUX2;1500.0;AUX3;1500.0;AUX4;1500.0
GPS;ALT;0;LAT;0;LON;0;SPD;0
ALTITUDE;20.0
DEBUG;DEBUG10.0;DEBUG2;0.0;DEBUG3;0.0;DEBUG4;0.0
ATTITUDE;ANGX;0.0;ANGY;0.0;HEAD;8.0
STATUS;CYCLETIME;2824;I2CERR;0;PRESENT;31;MODE;2
RAW_IMU;AX;-3.0;AY;0.0;AZ;255.0;GX;0.0;GY;0.0;GZ;0.0;MAGX;2.0;MAGY;47.0;MAGZ;6.0
MOT;0;1000.0;1;1000.0;2;1000.0;3;1000.0;4;0.0;5;0.0;6;0.0;7;0.0;
RC;ROLL;1500.0;PITCH;1500.0;YAW;1500.0;THROTTLE;1500.0;AUX1;1500.0;AUX2;1500.0;AUX3;1500.0;AUX4;1500.0
GPS;ALT;0;LAT;0;LON;0;SPD;0
ALTITUDE;20.0
DEBUG;DEBUG10.0;DEBUG2;0.0;DEBUG3;0.0;DEBUG4;0.0
ATTITUDE;ANGX;0.0;ANGY;0.0;HEAD;8.0
STATUS;CYCLETIME;2736;I2CERR;0;PRESENT;31;MODE;2
RAW_IMU;AX;-2.0;AY;0.0;AZ;255.0;GX;0.0;GY;0.0;GZ;0.0;MAGX;2.0;MAGY;47.0;MAGZ;6.0
MOT;0;1000.0;1;1000.0;2;1000.0;3;1000.0;4;0.0;5;0.0;6;0.0;7;0.0;
RC;ROLL;1500.0;PITCH;1500.0;YAW;1500.0;THROTTLE;1500.0;AUX1;1500.0;AUX2;1500.0;AUX3;1500.0;AUX4;1500.0
GPS;ALT;0;LAT;0;LON;0;SPD;0
ALTITUDE;20.0
DEBUG;DEBUG10.0;DEBUG2;0.0;DEBUG3;0.0;DEBUG4;0.0
ATTITUDE;ANGX;0.0;ANGY;0.0;HEAD;8.0
STATUS;CYCLETIME;2700;I2CERR;0;PRESENT;31;MODE;2
RAW_IMU;AX;-3.0;AY;1.0;AZ;255.0;GX;0.0;GY;0.0;GZ;0.0;MAGX;2.0;MAGY;46.0;MAGZ;7.0
MOT;0;1000.0;1;1000.0;2;1000.0;3;1000.0;4;0.0;5;0.0;6;0.0;7;0.0;
RC;ROLL;1500.0;PITCH;1500.0;YAW;1500.0;THROTTLE;1500.0;AUX1;1500.0;AUX2;1500.0;AUX3;1500.0;AUX4;1500.0
GPS;ALT;0;LAT;0;LON;0;SPD;0
ALTITUDE;20.0
DEBUG;DEBUG10.0;DEBUG2;0.0;DEBUG3;0.0;DEBUG4;0.0
ATTITUDE;ANGX;0.0;ANGY;0.0;HEAD;8.0
STATUS;CYCLETIME;2744;I2CERR;0;PRESENT;31;MODE;2
RAW_IMU;AX;-2.0;AY;1.0;AZ;255.0;GX;0.0;GY;0.0;GZ;0.0;MAGX;2.0;MAGY;46.0;MAGZ;7.0
MOT;0;1000.0;1;1000.0;2;1000.0;3;1000.0;4;0.0;5;0.0;6;0.0;7;0.0;
RC;ROLL;1500.0;PITCH;1500.0;YAW;1500.0;THROTTLE;1500.0;AUX1;1500.0;AUX2;1500.0;AUX3;1500.0;AUX4;1500.0
GPS;ALT;0;LAT;0;LON;0;SPD;0
ALTITUDE;20.0
DEBUG;DEBUG10.0;DEBUG2;0.0;DEBUG3;0.0;DEBUG4;0.0
ATTITUDE;ANGX;0.0;ANGY;0.0;HEAD;8.0
STATUS;CYCLETIME;2752;I2CERR;0;PRESENT;31;MODE;2
RAW_IMU;AX;-2.0;AY;1.0;AZ;255.0;GX;0.0;GY;0.0;GZ;0.0;MAGX;1.0;MAGY;46.0;MAGZ;7.0
MOT;0;1000.0;1;1000.0;2;1000.0;3;1000.0;4;0.0;5;0.0;6;0.0;7;0.0;
RC;ROLL;1500.0;PITCH;1500.0;YAW;1500.0;THROTTLE;1500.0;AUX1;1500.0;AUX2;1500.0;AUX3;1500.0;AUX4;1500.0
GPS;ALT;0;LAT;0;LON;0;SPD;0
ALTITUDE;20.0
DEBUG;DEBUG10.0;DEBUG2;0.0;DEBUG3;0.0;DEBUG4;0.0
ATTITUDE;ANGX;0.0;ANGY;0.0;HEAD;8.0
STATUS;CYCLETIME;2720;I2CERR;0;PRESENT;31;MODE;2
RAW_IMU;AX;-2.0;AY;0.0;AZ;255.0;GX;0.0;GY;0.0;GZ;0.0;MAGX;1.0;MAGY;46.0;MAGZ;7.0
MOT;0;1000.0;1;1000.0;2;1000.0;3;1000.0;4;0.0;5;0.0;6;0.0;7;0.0;
RC;ROLL;1500.0;PITCH;1500.0;YAW;1500.0;THROTTLE;1500.0;AUX1;1500.0;AUX2;1500.0;AUX3;1500.0;AUX4;1500.0
GPS;ALT;0;LAT;0;LON;0;SPD;0
ALTITUDE;20.0
DEBUG;DEBUG10.0;DEBUG2;0.0;DEBUG3;0.0;DEBUG4;0.0
ATTITUDE;ANGX;0.0;ANGY;0.0;HEAD;8.0
STATUS;CYCLETIME;2732;I2CERR;0;PRESENT;31;MODE;2
RAW_IMU;AX;-2.0;AY;0.0;AZ;255.0;GX;0.0;GY;0.0;GZ;0.0;MAGX;2.0;MAGY;46.0;MAGZ;6.0
MOT;0;1000.0;1;1000.0;2;1000.0;3;1000.0;4;0.0;5;0.0;6;0.0;7;0.0;
RC;ROLL;1500.0;PITCH;1500.0;YAW;1500.0;THROTTLE;1500.0;AUX1;1500.0;AUX2;1500.0;AUX3;1500.0;AUX4;1500.0
GPS;ALT;0;LAT;0;LON;0;SPD;0
ALTITUDE;20.0
DEBUG;DEBUG10.0;DEBUG2;0.0;DEBUG3;0.0;DEBUG4;0.0
ATTITUDE;ANGX;0.0;ANGY;0.0;HEAD;8.0
STATUS;CYCLETIME;2716;I2CERR;0;PRESENT;31;MODE;2
RAW_IMU;AX;-2.0;AY;0.0;AZ;255.0;GX;0.0;GY;0.0;GZ;0.0;MAGX;2.0;MAGY;46.0;MAGZ;6.0
MOT;0;1000.0;1;1000.0;2;1000.0;3;1000.0;4;0.0;5;0.0;6;0.0;7;0.0;
RC;ROLL;1500.0;PITCH;1500.0;YAW;1500.0;THROTTLE;1500.0;AUX1;1500.0;AUX2;1500.0;AUX3;1500.0;AUX4;1500.0
GPS;ALT;0;LAT;0;LON;0;SPD;0
ALTITUDE;20.0
DEBUG;DEBUG10.0;DEBUG2;0.0;DEBUG3;0.0;DEBUG4;0.0
ATTITUDE;ANGX;0.0;ANGY;0.0;HEAD;8.0
STATUS;CYCLETIME;2748;I2CERR;0;PRESENT;31;MODE;2
RAW_IMU;AX;-2.0;AY;0.0;AZ;255.0;GX;0.0;GY;0.0;GZ;0.0;MAGX;1.0;MAGY;46.0;MAGZ;7.0
MOT;0;1000.0;1;1000.0;2;1000.0;3;1000.0;4;0.0;5;0.0;6;0.0;7;0.0;
RC;ROLL;1500.0;PITCH;1500.0;YAW;1500.0;THROTTLE;1500.0;AUX1;1500.0;AUX2;1500.0;AUX3;1500.0;AUX4;1500.0
GPS;ALT;0;LAT;0;LON;0;SPD;0
ALTITUDE;20.0
DEBUG;DEBUG10.0;DEBUG2;0.0;DEBUG3;0.0;DEBUG4;0.0
ATTITUDE;ANGX;0.0;ANGY;0.0;HEAD;8.0
STATUS;CYCLETIME;2736;I2CERR;0;PRESENT;31;MODE;2
RAW_IMU;AX;-2.0;AY;0.0;AZ;255.0;GX;0.0;GY;0.0;GZ;0.0;MAGX;1.0;MAGY;46.0;MAGZ;7.0
MOT;0;1000.0;1;1000.0;2;1000.0;3;1000.0;4;0.0;5;0.0;6;0.0;7;0.0;
RC;ROLL;1500.0;PITCH;1500.0;YAW;1500.0;THROTTLE;1500.0;AUX1;1500.0;AUX2;1500.0;AUX3;1500.0;AUX4;1500.0
GPS;ALT;0;LAT;0;LON;0;SPD;0
ALTITUDE;20.0
DEBUG;DEBUG10.0;DEBUG2;0.0;DEBUG3;0.0;DEBUG4;0.0
ATTITUDE;ANGX;0.0;ANGY;0.0;HEAD;8.0
STATUS;CYCLETIME;2732;I2CERR;0;PRESENT;31;MODE;2
RAW_IMU;AX;-2.0;AY;0.0;AZ;255.0;GX;0.0;GY;0.0;GZ;0.0;MAGX;1.0;MAGY;45.0;MAGZ;7.0
MOT;0;1000.0;1;1000.0;2;1000.0;3;1000.0;4;0.0;5;0.0;6;0.0;7;0.0;
RC;ROLL;1500.0;PITCH;1500.0;YAW;1500.0;THROTTLE;1500.0;AUX1;1500.0;AUX2;1500.0;AUX3;1500.0;AUX4;1500.0
GPS;ALT;0;LAT;0;LON;0;SPD;0
ALTITUDE;20.0
DEBUG;DEBUG10.0;DEBUG2;0.0;DEBUG3;0.0;DEBUG4;0.0
ATTITUDE;ANGX;0.0;ANGY;0.0;HEAD;8.0
STATUS;CYCLETIME;2744;I2CERR;0;PRESENT;31;MODE;2
RAW_IMU;AX;-2.0;AY;0.0;AZ;255.0;GX;0.0;GY;0.0;GZ;0.0;MAGX;1.0;MAGY;45.0;MAGZ;7.0
MOT;0;1000.0;1;1000.0;2;1000.0;3;1000.0;4;0.0;5;0.0;6;0.0;7;0.0;
RC;ROLL;1500.0;PITCH;1500.0;YAW;1500.0;THROTTLE;1500.0;AUX1;1500.0;AUX2;1500.0;AUX3;1500.0;AUX4;1500.0
GPS;ALT;0;LAT;0;LON;0;SPD;0
ALTITUDE;20.0
DEBUG;DEBUG10.0;DEBUG2;0.0;DEBUG3;0.0;DEBUG4;0.0
ATTITUDE;ANGX;0.0;ANGY;0.0;HEAD;8.0
STATUS;CYCLETIME;2704;I2CERR;0;PRESENT;31;MODE;2
RAW_IMU;AX;-2.0;AY;0.0;AZ;255.0;GX;0.0;GY;0.0;GZ;0.0;MAGX;2.0;MAGY;46.0;MAGZ;7.0
MOT;0;1000.0;1;1000.0;2;1000.0;3;1000.0;4;0.0;5;0.0;6;0.0;7;0.0;
RC;ROLL;1500.0;PITCH;1500.0;YAW;1500.0;THROTTLE;1500.0;AUX1;1500.0;AUX2;1500.0;AUX3;1500.0;AUX4;1500.0
GPS;ALT;0;LAT;0;LON;0;SPD;0
ALTITUDE;20.0
DEBUG;DEBUG10.0;DEBUG2;0.0;DEBUG3;0.0;DEBUG4;0.0
ATTITUDE;ANGX;0.0;ANGY;0.0;HEAD;8.0
STATUS;CYCLETIME;2956;I2CERR;0;PRESENT;31;MODE;2
RAW_IMU;AX;-2.0;AY;0.0;AZ;255.0;GX;0.0;GY;0.0;GZ;0.0;MAGX;2.0;MAGY;46.0;MAGZ;7.0
MOT;0;1000.0;1;1000.0;2;1000.0;3;1000.0;4;0.0;5;0.0;6;0.0;7;0.0;
RC;ROLL;1500.0;PITCH;1500.0;YAW;1500.0;THROTTLE;1500.0;AUX1;1500.0;AUX2;1500.0;AUX3;1500.0;AUX4;1500.0
GPS;ALT;0;LAT;0;LON;0;SPD;0
ALTITUDE;20.0
DEBUG;DEBUG10.0;DEBUG2;0.0;DEBUG3;0.0;DEBUG4;0.0
ATTITUDE;ANGX;0.0;ANGY;0.0;HEAD;8.0
STATUS;CYCLETIME;2708;I2CERR;0;PRESENT;31;MODE;2
RAW_IMU;AX;-2.0;AY;0.0;AZ;255.0;GX;0.0;GY;0.0;GZ;0.0;MAGX;1.0;MAGY;46.0;MAGZ;7.0
MOT;0;1000.0;1;1000.0;2;1000.0;3;1000.0;4;0.0;5;0.0;6;0.0;7;0.0;
RC;ROLL;1500.0;PITCH;1500.0;YAW;1500.0;THROTTLE;1500.0;AUX1;1500.0;AUX2;1500.0;AUX3;1500.0;AUX4;1500.0
GPS;ALT;0;LAT;0;LON;0;SPD;0
ALTITUDE;20.0
DEBUG;DEBUG10.0;DEBUG2;0.0;DEBUG3;0.0;DEBUG4;0.0
ATTITUDE;ANGX;0.0;ANGY;0.0;HEAD;8.0
STATUS;CYCLETIME;2732;I2CERR;0;PRESENT;31;MODE;2
RAW_IMU;AX;-2.0;AY;0.0;AZ;255.0;GX;0.0;GY;0.0;GZ;0.0;MAGX;1.0;MAGY;46.0;MAGZ;7.0
MOT;0;1000.0;1;1000.0;2;1000.0;3;1000.0;4;0.0;5;0.0;6;0.0;7;0.0;
RC;ROLL;1500.0;PITCH;1500.0;YAW;1500.0;THROTTLE;1500.0;AUX1;1500.0;AUX2;1500.0;AUX3;1500.0;AUX4;1500.0
GPS;ALT;0;LAT;0;LON;0;SPD;0
ALTITUDE;20.0
DEBUG;DEBUG10.0;DEBUG2;0.0;DEBUG3;0.0;DEBUG4;0.0
ATTITUDE;ANGX;0.0;ANGY;0.0;HEAD;8.0
STATUS;CYCLETIME;2804;I2CERR;0;PRESENT;31;MODE;2
RAW_IMU;AX;-2.0;AY;0.0;AZ;255.0;GX;0.0;GY;0.0;GZ;0.0;MAGX;2.0;MAGY;46.0;MAGZ;6.0
MOT;0;1000.0;1;1000.0;2;1000.0;3;1000.0;4;0.0;5;0.0;6;0.0;7;0.0;
RC;ROLL;1500.0;PITCH;1500.0;YAW;1500.0;THROTTLE;1500.0;AUX1;1500.0;AUX2;1500.0;AUX3;1500.0;AUX4;1500.0
GPS;ALT;0;LAT;0;LON;0;SPD;0
ALTITUDE;20.0
DEBUG;DEBUG10.0;DEBUG2;0.0;DEBUG3;0.0;DEBUG4;0.0
ATTITUDE;ANGX;0.0;ANGY;0.0;HEAD;8.0
STATUS;CYCLETIME;2756;I2CERR;0;PRESENT;31;MODE;2
RAW_IMU;AX;-2.0;AY;0.0;AZ;256.0;GX;0.0;GY;0.0;GZ;0.0;MAGX;2.0;MAGY;46.0;MAGZ;6.0
MOT;0;1000.0;1;1000.0;2;1000.0;3;1000.0;4;0.0;5;0.0;6;0.0;7;0.0;
RC;ROLL;1500.0;PITCH;1500.0;YAW;1500.0;THROTTLE;1500.0;AUX1;1500.0;AUX2;1500.0;AUX3;1500.0;AUX4;1500.0
GPS;ALT;0;LAT;0;LON;0;SPD;0
ALTITUDE;20.0
DEBUG;DEBUG10.0;DEBUG2;0.0;DEBUG3;0.0;DEBUG4;0.0
ATTITUDE;ANGX;0.0;ANGY;0.0;HEAD;8.0
STATUS;CYCLETIME;2728;I2CERR;0;PRESENT;31;MODE;2
RAW_IMU;AX;-2.0;AY;0.0;AZ;256.0;GX;0.0;GY;0.0;GZ;0.0;MAGX;2.0;MAGY;46.0;MAGZ;7.0
MOT;0;1000.0;1;1000.0;2;1000.0;3;1000.0;4;0.0;5;0.0;6;0.0;7;0.0;
RC;ROLL;1500.0;PITCH;1500.0;YAW;1500.0;THROTTLE;1500.0;AUX1;1500.0;AUX2;1500.0;AUX3;1500.0;AUX4;1500.0
GPS;ALT;0;LAT;0;LON;0;SPD;0
ALTITUDE;20.0
DEBUG;DEBUG10.0;DEBUG2;0.0;DEBUG3;0.0;DEBUG4;0.0
ATTITUDE;ANGX;0.0;ANGY;0.0;HEAD;8.0
STATUS;CYCLETIME;2792;I2CERR;0;PRESENT;31;MODE;2
RAW_IMU;AX;-2.0;AY;0.0;AZ;255.0;GX;0.0;GY;0.0;GZ;0.0;MAGX;2.0;MAGY;46.0;MAGZ;7.0
MOT;0;1000.0;1;1000.0;2;1000.0;3;1000.0;4;0.0;5;0.0;6;0.0;7;0.0;
RC;ROLL;1500.0;PITCH;1500.0;YAW;1500.0;THROTTLE;1500.0;AUX1;1500.0;AUX2;1500.0;AUX3;1500.0;AUX4;1500.0
GPS;ALT;0;LAT;0;LON;0;SPD;0
ALTITUDE;20.0
DEBUG;DEBUG10.0;DEBUG2;0.0;DEBUG3;0.0;DEBUG4;0.0
ATTITUDE;ANGX;0.0;ANGY;0.0;HEAD;8.0
STATUS;CYCLETIME;2892;I2CERR;0;PRESENT;31;MODE;2
RAW_IMU;AX;-2.0;AY;0.0;AZ;255.0;GX;0.0;GY;0.0;GZ;0.0;MAGX;1.0;MAGY;46.0;MAGZ;6.0
MOT;0;1000.0;1;1000.0;2;1000.0;3;1000.0;4;0.0;5;0.0;6;0.0;7;0.0;
RC;ROLL;1500.0;PITCH;1500.0;YAW;1500.0;THROTTLE;1500.0;AUX1;1500.0;AUX2;1500.0;AUX3;1500.0;AUX4;1500.0
GPS;ALT;0;LAT;181;LON;136;SPD;0
ALTITUDE;20.0
DEBUG;DEBUG10.0;DEBUG2;0.0;DEBUG3;0.0;DEBUG4;0.0
ATTITUDE;ANGX;0.0;ANGY;0.0;HEAD;8.0
STATUS;CYCLETIME;2760;I2CERR;0;PRESENT;31;MODE;2
RAW_IMU;AX;-2.0;AY;0.0;AZ;256.0;GX;0.0;GY;0.0;GZ;0.0;MAGX;1.0;MAGY;46.0;MAGZ;6.0
MOT;0;1000.0;1;1000.0;2;1000.0;3;1000.0;4;0.0;5;0.0;6;0.0;7;0.0;
RC;ROLL;1500.0;PITCH;1500.0;YAW;1500.0;THROTTLE;1500.0;AUX1;1500.0;AUX2;1500.0;AUX3;1500.0;AUX4;1500.0
GPS;ALT;0;LAT;181;LON;136;SPD;0
ALTITUDE;20.0
DEBUG;DEBUG10.0;DEBUG2;0.0;DEBUG3;0.0;DEBUG4;0.0
ATTITUDE;ANGX;0.0;ANGY;0.0;HEAD;8.0
STATUS;CYCLETIME;2764;I2CERR;0;PRESENT;31;MODE;2
RAW_IMU;AX;-2.0;AY;1.0;AZ;255.0;GX;0.0;GY;0.0;GZ;0.0;MAGX;1.0;MAGY;47.0;MAGZ;7.0
MOT;0;1000.0;1;1000.0;2;1000.0;3;1000.0;4;0.0;5;0.0;6;0.0;7;0.0;
RC;ROLL;1500.0;PITCH;1500.0;YAW;1500.0;THROTTLE;1500.0;AUX1;1500.0;AUX2;1500.0;AUX3;1500.0;AUX4;1500.0
GPS;ALT;0;LAT;181;LON;136;SPD;0
ALTITUDE;20.0
DEBUG;DEBUG10.0;DEBUG2;0.0;DEBUG3;0.0;DEBUG4;0.0
ATTITUDE;ANGX;0.0;ANGY;0.0;HEAD;8.0
STATUS;CYCLETIME;2760;I2CERR;0;PRESENT;31;MODE;2
RAW_IMU;AX;-2.0;AY;1.0;AZ;255.0;GX;0.0;GY;0.0;GZ;0.0;MAGX;1.0;MAGY;47.0;MAGZ;7.0
MOT;0;1000.0;1;1000.0;2;1000.0;3;1000.0;4;0.0;5;0.0;6;0.0;7;0.0;
RC;ROLL;1500.0;PITCH;1500.0;YAW;1500.0;THROTTLE;1500.0;AUX1;1500.0;AUX2;1500.0;AUX3;1500.0;AUX4;1500.0
GPS;ALT;0;LAT;181;LON;136;SPD;0
ALTITUDE;20.0
DEBUG;DEBUG10.0;DEBUG2;0.0;DEBUG3;0.0;DEBUG4;0.0
ATTITUDE;ANGX;0.0;ANGY;0.0;HEAD;8.0
STATUS;CYCLETIME;2764;I2CERR;0;PRESENT;31;MODE;2
RAW_IMU;AX;-2.0;AY;1.0;AZ;255.0;GX;0.0;GY;0.0;GZ;0.0;MAGX;1.0;MAGY;46.0;MAGZ;6.0
MOT;0;1000.0;1;1000.0;2;1000.0;3;1000.0;4;0.0;5;0.0;6;0.0;7;0.0;
RC;ROLL;1500.0;PITCH;1500.0;YAW;1500.0;THROTTLE;1500.0;AUX1;1500.0;AUX2;1500.0;AUX3;1500.0;AUX4;1500.0
GPS;ALT;0;LAT;181;LON;136;SPD;0
ALTITUDE;20.0
DEBUG;DEBUG10.0;DEBUG2;0.0;DEBUG3;0.0;DEBUG4;0.0
ATTITUDE;ANGX;0.0;ANGY;0.0;HEAD;8.0
STATUS;CYCLETIME;2732;I2CERR;0;PRESENT;31;MODE;2
RAW_IMU;AX;-3.0;AY;1.0;AZ;255.0;GX;0.0;GY;0.0;GZ;0.0;MAGX;1.0;MAGY;46.0;MAGZ;6.0
MOT;0;1000.0;1;1000.0;2;1000.0;3;1000.0;4;0.0;5;0.0;6;0.0;7;0.0;
RC;ROLL;1500.0;PITCH;1500.0;YAW;1500.0;THROTTLE;1500.0;AUX1;1500.0;AUX2;1500.0;AUX3;1500.0;AUX4;1500.0
GPS;ALT;0;LAT;181;LON;136;SPD;0
ALTITUDE;20.0
DEBUG;DEBUG10.0;DEBUG2;0.0;DEBUG3;0.0;DEBUG4;0.0
ATTITUDE;ANGX;0.0;ANGY;0.0;HEAD;8.0
STATUS;CYCLETIME;3036;I2CERR;0;PRESENT;31;MODE;2
RAW_IMU;AX;-2.0;AY;1.0;AZ;255.0;GX;0.0;GY;0.0;GZ;0.0;MAGX;1.0;MAGY;46.0;MAGZ;6.0
MOT;0;1000.0;1;1000.0;2;1000.0;3;1000.0;4;0.0;5;0.0;6;0.0;7;0.0;
RC;ROLL;1500.0;PITCH;1500.0;YAW;1500.0;THROTTLE;1500.0;AUX1;1500.0;AUX2;1500.0;AUX3;1500.0;AUX4;1500.0
GPS;ALT;0;LAT;181;LON;136;SPD;0
ALTITUDE;20.0
DEBUG;DEBUG10.0;DEBUG2;0.0;DEBUG3;0.0;DEBUG4;0.0
ATTITUDE;ANGX;0.0;ANGY;0.0;HEAD;8.0
STATUS;CYCLETIME;2760;I2CERR;0;PRESENT;31;MODE;2
RAW_IMU;AX;-3.0;AY;1.0;AZ;255.0;GX;0.0;GY;0.0;GZ;0.0;MAGX;1.0;MAGY;46.0;MAGZ;6.0
MOT;0;1000.0;1;1000.0;2;1000.0;3;1000.0;4;0.0;5;0.0;6;0.0;7;0.0;
RC;ROLL;1500.0;PITCH;1500.0;YAW;1500.0;THROTTLE;1500.0;AUX1;1500.0;AUX2;1500.0;AUX3;1500.0;AUX4;1500.0
GPS;ALT;0;LAT;181;LON;136;SPD;0
ALTITUDE;20.0
DEBUG;DEBUG10.0;DEBUG2;0.0;DEBUG3;0.0;DEBUG4;0.0
ATTITUDE;ANGX;0.0;ANGY;0.0;HEAD;8.0
STATUS;CYCLETIME;2728;I2CERR;0;PRESENT;31;MODE;2
RAW_IMU;AX;-2.0;AY;1.0;AZ;255.0;GX;0.0;GY;0.0;GZ;0.0;MAGX;2.0;MAGY;46.0;MAGZ;7.0
MOT;0;1000.0;1;1000.0;2;1000.0;3;1000.0;4;0.0;5;0.0;6;0.0;7;0.0;
RC;ROLL;1500.0;PITCH;1500.0;YAW;1500.0;THROTTLE;1500.0;AUX1;1500.0;AUX2;1500.0;AUX3;1500.0;AUX4;1500.0
GPS;ALT;0;LAT;181;LON;136;SPD;0
ALTITUDE;20.0
DEBUG;DEBUG10.0;DEBUG2;0.0;DEBUG3;0.0;DEBUG4;0.0
ATTITUDE;ANGX;0.0;ANGY;0.0;HEAD;8.0
STATUS;CYCLETIME;2744;I2CERR;0;PRESENT;31;MODE;2
RAW_IMU;AX;-2.0;AY;1.0;AZ;255.0;GX;0.0;GY;0.0;GZ;0.0;MAGX;2.0;MAGY;46.0;MAGZ;7.0
MOT;0;1000.0;1;1000.0;2;1000.0;3;1000.0;4;0.0;5;0.0;6;0.0;7;0.0;
RC;ROLL;1500.0;PITCH;1500.0;YAW;1500.0;THROTTLE;1500.0;AUX1;1500.0;AUX2;1500.0;AUX3;1500.0;AUX4;1500.0
GPS;ALT;0;LAT;181;LON;136;SPD;0
ALTITUDE;20.0
DEBUG;DEBUG10.0;DEBUG2;0.0;DEBUG3;0.0;DEBUG4;0.0
ATTITUDE;ANGX;0.0;ANGY;0.0;HEAD;8.0
STATUS;CYCLETIME;2968;I2CERR;0;PRESENT;31;MODE;2
RAW_IMU;AX;-2.0;AY;1.0;AZ;255.0;GX;0.0;GY;0.0;GZ;0.0;MAGX;1.0;MAGY;46.0;MAGZ;6.0
MOT;0;1000.0;1;1000.0;2;1000.0;3;1000.0;4;0.0;5;0.0;6;0.0;7;0.0;
RC;ROLL;1500.0;PITCH;1500.0;YAW;1500.0;THROTTLE;1500.0;AUX1;1500.0;AUX2;1500.0;AUX3;1500.0;AUX4;1500.0
GPS;ALT;0;LAT;181;LON;136;SPD;0
ALTITUDE;20.0
DEBUG;DEBUG10.0;DEBUG2;0.0;DEBUG3;0.0;DEBUG4;0.0
ATTITUDE;ANGX;0.0;ANGY;0.0;HEAD;8.0
STATUS;CYCLETIME;2996;I2CERR;0;PRESENT;31;MODE;2
RAW_IMU;AX;-2.0;AY;1.0;AZ;255.0;GX;0.0;GY;0.0;GZ;0.0;MAGX;1.0;MAGY;46.0;MAGZ;6.0
MOT;0;1000.0;1;1000.0;2;1000.0;3;1000.0;4;0.0;5;0.0;6;0.0;7;0.0;
RC;ROLL;1500.0;PITCH;1500.0;YAW;1500.0;THROTTLE;1500.0;AUX1;1500.0;AUX2;1500.0;AUX3;1500.0;AUX4;1500.0
GPS;ALT;0;LAT;181;LON;136;SPD;0
ALTITUDE;20.0
DEBUG;DEBUG10.0;DEBUG2;0.0;DEBUG3;0.0;DEBUG4;0.0
ATTITUDE;ANGX;0.0;ANGY;0.0;HEAD;8.0
STATUS;CYCLETIME;2700;I2CERR;0;PRESENT;31;MODE;2
RAW_IMU;AX;-3.0;AY;1.0;AZ;255.0;GX;0.0;GY;0.0;GZ;0.0;MAGX;1.0;MAGY;45.0;MAGZ;6.0
MOT;0;1000.0;1;1000.0;2;1000.0;3;1000.0;4;0.0;5;0.0;6;0.0;7;0.0;
RC;ROLL;1500.0;PITCH;1500.0;YAW;1500.0;THROTTLE;1500.0;AUX1;1500.0;AUX2;1500.0;AUX3;1500.0;AUX4;1500.0
GPS;ALT;0;LAT;181;LON;136;SPD;0
ALTITUDE;20.0
DEBUG;DEBUG10.0;DEBUG2;0.0;DEBUG3;0.0;DEBUG4;0.0
ATTITUDE;ANGX;0.0;ANGY;0.0;HEAD;8.0
STATUS;CYCLETIME;2684;I2CERR;0;PRESENT;31;MODE;2
RAW_IMU;AX;-3.0;AY;0.0;AZ;255.0;GX;0.0;GY;0.0;GZ;0.0;MAGX;1.0;MAGY;45.0;MAGZ;6.0
MOT;0;1000.0;1;1000.0;2;1000.0;3;1000.0;4;0.0;5;0.0;6;0.0;7;0.0;
RC;ROLL;1500.0;PITCH;1500.0;YAW;1500.0;THROTTLE;1500.0;AUX1;1500.0;AUX2;1500.0;AUX3;1500.0;AUX4;1500.0
GPS;ALT;0;LAT;181;LON;136;SPD;0
ALTITUDE;20.0
DEBUG;DEBUG10.0;DEBUG2;0.0;DEBUG3;0.0;DEBUG4;0.0
ATTITUDE;ANGX;0.0;ANGY;0.0;HEAD;8.0
STATUS;CYCLETIME;2736;I2CERR;0;PRESENT;31;MODE;2
RAW_IMU;AX;-3.0;AY;1.0;AZ;255.0;GX;0.0;GY;0.0;GZ;0.0;MAGX;2.0;MAGY;46.0;MAGZ;5.0
MOT;0;1000.0;1;1000.0;2;1000.0;3;1000.0;4;0.0;5;0.0;6;0.0;7;0.0;
RC;ROLL;1500.0;PITCH;1500.0;YAW;1500.0;THROTTLE;1500.0;AUX1;1500.0;AUX2;1500.0;AUX3;1500.0;AUX4;1500.0
GPS;ALT;0;LAT;181;LON;135;SPD;1
ALTITUDE;20.0
DEBUG;DEBUG10.0;DEBUG2;0.0;DEBUG3;0.0;DEBUG4;0.0
ATTITUDE;ANGX;0.0;ANGY;0.0;HEAD;8.0
STATUS;CYCLETIME;2776;I2CERR;0;PRESENT;31;MODE;2
RAW_IMU;AX;-3.0;AY;1.0;AZ;255.0;GX;0.0;GY;0.0;GZ;0.0;MAGX;2.0;MAGY;46.0;MAGZ;5.0
MOT;0;1000.0;1;1000.0;2;1000.0;3;1000.0;4;0.0;5;0.0;6;0.0;7;0.0;
RC;ROLL;1500.0;PITCH;1500.0;YAW;1500.0;THROTTLE;1500.0;AUX1;1500.0;AUX2;1500.0;AUX3;1500.0;AUX4;1500.0
GPS;ALT;0;LAT;181;LON;135;SPD;1
ALTITUDE;20.0
DEBUG;DEBUG10.0;DEBUG2;0.0;DEBUG3;0.0;DEBUG4;0.0
ATTITUDE;ANGX;0.0;ANGY;0.0;HEAD;8.0
STATUS;CYCLETIME;2788;I2CERR;0;PRESENT;31;MODE;2
RAW_IMU;AX;-3.0;AY;1.0;AZ;256.0;GX;0.0;GY;0.0;GZ;0.0;MAGX;2.0;MAGY;46.0;MAGZ;6.0
MOT;0;1000.0;1;1000.0;2;1000.0;3;1000.0;4;0.0;5;0.0;6;0.0;7;0.0;
RC;ROLL;1500.0;PITCH;1500.0;YAW;1500.0;THROTTLE;1500.0;AUX1;1500.0;AUX2;1500.0;AUX3;1500.0;AUX4;1500.0
GPS;ALT;0;LAT;181;LON;135;SPD;1
ALTITUDE;20.0
DEBUG;DEBUG10.0;DEBUG2;0.0;DEBUG3;0.0;DEBUG4;0.0
ATTITUDE;ANGX;0.0;ANGY;0.0;HEAD;8.0
STATUS;CYCLETIME;2732;I2CERR;0;PRESENT;31;MODE;2
RAW_IMU;AX;-3.0;AY;1.0;AZ;256.0;GX;0.0;GY;0.0;GZ;0.0;MAGX;2.0;MAGY;46.0;MAGZ;6.0
MOT;0;1000.0;1;1000.0;2;1000.0;3;1000.0;4;0.0;5;0.0;6;0.0;7;0.0;
RC;ROLL;1500.0;PITCH;1500.0;YAW;1500.0;THROTTLE;1500.0;AUX1;1500.0;AUX2;1500.0;AUX3;1500.0;AUX4;1500.0
GPS;ALT;0;LAT;181;LON;135;SPD;1
ALTITUDE;20.0
DEBUG;DEBUG10.0;DEBUG2;0.0;DEBUG3;0.0;DEBUG4;0.0
ATTITUDE;ANGX;0.0;ANGY;0.0;HEAD;8.0
STATUS;CYCLETIME;2744;I2CERR;0;PRESENT;31;MODE;2
RAW_IMU;AX;-3.0;AY;0.0;AZ;256.0;GX;0.0;GY;0.0;GZ;0.0;MAGX;2.0;MAGY;46.0;MAGZ;6.0
MOT;0;1000.0;1;1000.0;2;1000.0;3;1000.0;4;0.0;5;0.0;6;0.0;7;0.0;
RC;ROLL;1500.0;PITCH;1500.0;YAW;1500.0;THROTTLE;1500.0;AUX1;1500.0;AUX2;1500.0;AUX3;1500.0;AUX4;1500.0
GPS;ALT;0;LAT;181;LON;135;SPD;1
ALTITUDE;20.0
DEBUG;DEBUG10.0;DEBUG2;0.0;DEBUG3;0.0;DEBUG4;0.0
ATTITUDE;ANGX;0.0;ANGY;0.0;HEAD;8.0
STATUS;CYCLETIME;2824;I2CERR;0;PRESENT;31;MODE;2
RAW_IMU;AX;-3.0;AY;0.0;AZ;255.0;GX;0.0;GY;0.0;GZ;0.0;MAGX;2.0;MAGY;46.0;MAGZ;6.0
MOT;0;1000.0;1;1000.0;2;1000.0;3;1000.0;4;0.0;5;0.0;6;0.0;7;0.0;
RC;ROLL;1500.0;PITCH;1500.0;YAW;1500.0;THROTTLE;1500.0;AUX1;1500.0;AUX2;1500.0;AUX3;1500.0;AUX4;1500.0
GPS;ALT;0;LAT;181;LON;135;SPD;1
ALTITUDE;20.0
DEBUG;DEBUG10.0;DEBUG2;0.0;DEBUG3;0.0;DEBUG4;0.0
ATTITUDE;ANGX;0.0;ANGY;0.0;HEAD;8.0
STATUS;CYCLETIME;2676;I2CERR;0;PRESENT;31;MODE;2
RAW_IMU;AX;-3.0;AY;0.0;AZ;255.0;GX;0.0;GY;0.0;GZ;0.0;MAGX;1.0;MAGY;46.0;MAGZ;6.0
MOT;0;1000.0;1;1000.0;2;1000.0;3;1000.0;4;0.0;5;0.0;6;0.0;7;0.0;
RC;ROLL;1500.0;PITCH;1500.0;YAW;1500.0;THROTTLE;1500.0;AUX1;1500.0;AUX2;1500.0;AUX3;1500.0;AUX4;1500.0
GPS;ALT;0;LAT;181;LON;135;SPD;1
ALTITUDE;20.0
DEBUG;DEBUG10.0;DEBUG2;0.0;DEBUG3;0.0;DEBUG4;0.0
ATTITUDE;ANGX;0.0;ANGY;0.0;HEAD;8.0
STATUS;CYCLETIME;2716;I2CERR;0;PRESENT;31;MODE;2
RAW_IMU;AX;-3.0;AY;0.0;AZ;255.0;GX;0.0;GY;0.0;GZ;0.0;MAGX;1.0;MAGY;46.0;MAGZ;6.0
MOT;0;1000.0;1;1000.0;2;1000.0;3;1000.0;4;0.0;5;0.0;6;0.0;7;0.0;
RC;ROLL;1500.0;PITCH;1500.0;YAW;1500.0;THROTTLE;1500.0;AUX1;1500.0;AUX2;1500.0;AUX3;1500.0;AUX4;1500.0
GPS;ALT;0;LAT;181;LON;135;SPD;0
ALTITUDE;20.0
DEBUG;DEBUG10.0;DEBUG2;0.0;DEBUG3;0.0;DEBUG4;0.0
ATTITUDE;ANGX;0.0;ANGY;0.0;HEAD;8.0
STATUS;CYCLETIME;2756;I2CERR;0;PRESENT;31;MODE;2
RAW_IMU;AX;-3.0;AY;0.0;AZ;254.0;GX;0.0;GY;0.0;GZ;0.0;MAGX;2.0;MAGY;46.0;MAGZ;6.0
MOT;0;1000.0;1;1000.0;2;1000.0;3;1000.0;4;0.0;5;0.0;6;0.0;7;0.0;
RC;ROLL;1500.0;PITCH;1500.0;YAW;1500.0;THROTTLE;1500.0;AUX1;1500.0;AUX2;1500.0;AUX3;1500.0;AUX4;1500.0
GPS;ALT;0;LAT;181;LON;135;SPD;0
ALTITUDE;20.0
DEBUG;DEBUG10.0;DEBUG2;0.0;DEBUG3;0.0;DEBUG4;0.0
ATTITUDE;ANGX;0.0;ANGY;0.0;HEAD;8.0
STATUS;CYCLETIME;2676;I2CERR;0;PRESENT;31;MODE;2
RAW_IMU;AX;-3.0;AY;0.0;AZ;254.0;GX;0.0;GY;0.0;GZ;0.0;MAGX;2.0;MAGY;46.0;MAGZ;6.0
MOT;0;1000.0;1;1000.0;2;1000.0;3;1000.0;4;0.0;5;0.0;6;0.0;7;0.0;
RC;ROLL;1500.0;PITCH;1500.0;YAW;1500.0;THROTTLE;1500.0;AUX1;1500.0;AUX2;1500.0;AUX3;1500.0;AUX4;1500.0
GPS;ALT;0;LAT;181;LON;135;SPD;0
ALTITUDE;20.0
DEBUG;DEBUG10.0;DEBUG2;0.0;DEBUG3;0.0;DEBUG4;0.0
ATTITUDE;ANGX;0.0;ANGY;0.0;HEAD;8.0
STATUS;CYCLETIME;2692;I2CERR;0;PRESENT;31;MODE;2
RAW_IMU;AX;-3.0;AY;0.0;AZ;254.0;GX;0.0;GY;0.0;GZ;0.0;MAGX;2.0;MAGY;46.0;MAGZ;6.0
MOT;0;1000.0;1;1000.0;2;1000.0;3;1000.0;4;0.0;5;0.0;6;0.0;7;0.0;
RC;ROLL;1500.0;PITCH;1500.0;YAW;1500.0;THROTTLE;1500.0;AUX1;1500.0;AUX2;1500.0;AUX3;1500.0;AUX4;1500.0
GPS;ALT;0;LAT;181;LON;135;SPD;0
ALTITUDE;20.0
DEBUG;DEBUG10.0;DEBUG2;0.0;DEBUG3;0.0;DEBUG4;0.0
ATTITUDE;ANGX;0.0;ANGY;0.0;HEAD;8.0
STATUS;CYCLETIME;2712;I2CERR;0;PRESENT;31;MODE;2
RAW_IMU;AX;-3.0;AY;0.0;AZ;254.0;GX;0.0;GY;0.0;GZ;0.0;MAGX;2.0;MAGY;46.0;MAGZ;6.0
MOT;0;1000.0;1;1000.0;2;1000.0;3;1000.0;4;0.0;5;0.0;6;0.0;7;0.0;
RC;ROLL;1500.0;PITCH;1500.0;YAW;1500.0;THROTTLE;1500.0;AUX1;1500.0;AUX2;1500.0;AUX3;1500.0;AUX4;1500.0
GPS;ALT;0;LAT;181;LON;135;SPD;0
ALTITUDE;20.0
DEBUG;DEBUG10.0;DEBUG2;0.0;DEBUG3;0.0;DEBUG4;0.0
ATTITUDE;ANGX;0.0;ANGY;0.0;HEAD;8.0
STATUS;CYCLETIME;2688;I2CERR;0;PRESENT;31;MODE;2
RAW_IMU;AX;-3.0;AY;0.0;AZ;255.0;GX;0.0;GY;0.0;GZ;0.0;MAGX;2.0;MAGY;46.0;MAGZ;6.0
MOT;0;1000.0;1;1000.0;2;1000.0;3;1000.0;4;0.0;5;0.0;6;0.0;7;0.0;
RC;ROLL;1500.0;PITCH;1500.0;YAW;1500.0;THROTTLE;1500.0;AUX1;1500.0;AUX2;1500.0;AUX3;1500.0;AUX4;1500.0
GPS;ALT;0;LAT;181;LON;135;SPD;0
ALTITUDE;20.0
DEBUG;DEBUG10.0;DEBUG2;0.0;DEBUG3;0.0;DEBUG4;0.0
ATTITUDE;ANGX;0.0;ANGY;0.0;HEAD;8.0
STATUS;CYCLETIME;2720;I2CERR;0;PRESENT;31;MODE;2
RAW_IMU;AX;-3.0;AY;0.0;AZ;255.0;GX;0.0;GY;0.0;GZ;0.0;MAGX;2.0;MAGY;46.0;MAGZ;6.0
MOT;0;1000.0;1;1000.0;2;1000.0;3;1000.0;4;0.0;5;0.0;6;0.0;7;0.0;
RC;ROLL;1500.0;PITCH;1500.0;YAW;1500.0;THROTTLE;1500.0;AUX1;1500.0;AUX2;1500.0;AUX3;1500.0;AUX4;1500.0
GPS;ALT;0;LAT;181;LON;135;SPD;0
ALTITUDE;20.0
DEBUG;DEBUG10.0;DEBUG2;0.0;DEBUG3;0.0;DEBUG4;0.0
ATTITUDE;ANGX;0.0;ANGY;0.0;HEAD;8.0
STATUS;CYCLETIME;2964;I2CERR;0;PRESENT;31;MODE;2
RAW_IMU;AX;-3.0;AY;0.0;AZ;255.0;GX;0.0;GY;0.0;GZ;0.0;MAGX;2.0;MAGY;46.0;MAGZ;6.0
MOT;0;1000.0;1;1000.0;2;1000.0;3;1000.0;4;0.0;5;0.0;6;0.0;7;0.0;
RC;ROLL;1500.0;PITCH;1500.0;YAW;1500.0;THROTTLE;1500.0;AUX1;1500.0;AUX2;1500.0;AUX3;1500.0;AUX4;1500.0
GPS;ALT;0;LAT;181;LON;135;SPD;0
ALTITUDE;20.0
DEBUG;DEBUG10.0;DEBUG2;0.0;DEBUG3;0.0;DEBUG4;0.0
ATTITUDE;ANGX;0.0;ANGY;0.0;HEAD;8.0
STATUS;CYCLETIME;2684;I2CERR;0;PRESENT;31;MODE;2
RAW_IMU;AX;-3.0;AY;0.0;AZ;256.0;GX;0.0;GY;0.0;GZ;0.0;MAGX;2.0;MAGY;46.0;MAGZ;6.0
MOT;0;1000.0;1;1000.0;2;1000.0;3;1000.0;4;0.0;5;0.0;6;0.0;7;0.0;
RC;ROLL;1500.0;PITCH;1500.0;YAW;1500.0;THROTTLE;1500.0;AUX1;1500.0;AUX2;1500.0;AUX3;1500.0;AUX4;1500.0
GPS;ALT;0;LAT;181;LON;135;SPD;0
ALTITUDE;20.0
DEBUG;DEBUG10.0;DEBUG2;0.0;DEBUG3;0.0;DEBUG4;0.0
ATTITUDE;ANGX;0.0;ANGY;0.0;HEAD;7.0
STATUS;CYCLETIME;2752;I2CERR;0;PRESENT;31;MODE;2
RAW_IMU;AX;-3.0;AY;0.0;AZ;255.0;GX;0.0;GY;0.0;GZ;0.0;MAGX;2.0;MAGY;46.0;MAGZ;6.0
MOT;0;1000.0;1;1000.0;2;1000.0;3;1000.0;4;0.0;5;0.0;6;0.0;7;0.0;
RC;ROLL;1500.0;PITCH;1500.0;YAW;1500.0;THROTTLE;1500.0;AUX1;1500.0;AUX2;1500.0;AUX3;1500.0;AUX4;1500.0
GPS;ALT;0;LAT;181;LON;135;SPD;0
ALTITUDE;20.0
DEBUG;DEBUG10.0;DEBUG2;0.0;DEBUG3;0.0;DEBUG4;0.0
ATTITUDE;ANGX;0.0;ANGY;0.0;HEAD;7.0
STATUS;CYCLETIME;2760;I2CERR;0;PRESENT;31;MODE;2
RAW_IMU;AX;-2.0;AY;0.0;AZ;255.0;GX;0.0;GY;0.0;GZ;0.0;MAGX;1.0;MAGY;46.0;MAGZ;7.0
MOT;0;1000.0;1;1000.0;2;1000.0;3;1000.0;4;0.0;5;0.0;6;0.0;7;0.0;
RC;ROLL;1500.0;PITCH;1500.0;YAW;1500.0;THROTTLE;1500.0;AUX1;1500.0;AUX2;1500.0;AUX3;1500.0;AUX4;1500.0
GPS;ALT;0;LAT;181;LON;135;SPD;0
ALTITUDE;20.0
DEBUG;DEBUG10.0;DEBUG2;0.0;DEBUG3;0.0;DEBUG4;0.0
ATTITUDE;ANGX;0.0;ANGY;0.0;HEAD;7.0
STATUS;CYCLETIME;2776;I2CERR;0;PRESENT;31;MODE;2
RAW_IMU;AX;-3.0;AY;0.0;AZ;255.0;GX;0.0;GY;0.0;GZ;0.0;MAGX;1.0;MAGY;46.0;MAGZ;7.0
MOT;0;1000.0;1;1000.0;2;1000.0;3;1000.0;4;0.0;5;0.0;6;0.0;7;0.0;
RC;ROLL;1500.0;PITCH;1500.0;YAW;1500.0;THROTTLE;1500.0;AUX1;1500.0;AUX2;1500.0;AUX3;1500.0;AUX4;1500.0
GPS;ALT;0;LAT;181;LON;135;SPD;0
ALTITUDE;20.0
DEBUG;DEBUG10.0;DEBUG2;0.0;DEBUG3;0.0;DEBUG4;0.0
ATTITUDE;ANGX;0.0;ANGY;0.0;HEAD;8.0
STATUS;CYCLETIME;2772;I2CERR;0;PRESENT;31;MODE;2
RAW_IMU;AX;-3.0;AY;0.0;AZ;255.0;GX;0.0;GY;0.0;GZ;0.0;MAGX;2.0;MAGY;46.0;MAGZ;6.0
MOT;0;1000.0;1;1000.0;2;1000.0;3;1000.0;4;0.0;5;0.0;6;0.0;7;0.0;
RC;ROLL;1500.0;PITCH;1500.0;YAW;1500.0;THROTTLE;1500.0;AUX1;1500.0;AUX2;1500.0;AUX3;1500.0;AUX4;1500.0
GPS;ALT;0;LAT;181;LON;135;SPD;0
ALTITUDE;20.0
DEBUG;DEBUG10.0;DEBUG2;0.0;DEBUG3;0.0;DEBUG4;0.0
ATTITUDE;ANGX;0.0;ANGY;0.0;HEAD;8.0
STATUS;CYCLETIME;2732;I2CERR;0;PRESENT;31;MODE;2
RAW_IMU;AX;-3.0;AY;0.0;AZ;255.0;GX;0.0;GY;0.0;GZ;0.0;MAGX;2.0;MAGY;46.0;MAGZ;6.0
MOT;0;1000.0;1;1000.0;2;1000.0;3;1000.0;4;0.0;5;0.0;6;0.0;7;0.0;
RC;ROLL;1500.0;PITCH;1500.0;YAW;1500.0;THROTTLE;1500.0;AUX1;1500.0;AUX2;1500.0;AUX3;1500.0;AUX4;1500.0
GPS;ALT;0;LAT;181;LON;135;SPD;0
ALTITUDE;20.0
DEBUG;DEBUG10.0;DEBUG2;0.0;DEBUG3;0.0;DEBUG4;0.0
ATTITUDE;ANGX;0.0;ANGY;0.0;HEAD;8.0
STATUS;CYCLETIME;2684;I2CERR;0;PRESENT;31;MODE;2
RAW_IMU;AX;-2.0;AY;0.0;AZ;254.0;GX;0.0;GY;0.0;GZ;0.0;MAGX;2.0;MAGY;47.0;MAGZ;7.0
MOT;0;1000.0;1;1000.0;2;1000.0;3;1000.0;4;0.0;5;0.0;6;0.0;7;0.0;
RC;ROLL;1500.0;PITCH;1500.0;YAW;1500.0;THROTTLE;1500.0;AUX1;1500.0;AUX2;1500.0;AUX3;1500.0;AUX4;1500.0
GPS;ALT;0;LAT;181;LON;136;SPD;1
ALTITUDE;20.0
DEBUG;DEBUG10.0;DEBUG2;0.0;DEBUG3;0.0;DEBUG4;0.0
ATTITUDE;ANGX;0.0;ANGY;0.0;HEAD;7.0
STATUS;CYCLETIME;2740;I2CERR;0;PRESENT;31;MODE;2
RAW_IMU;AX;-2.0;AY;0.0;AZ;255.0;GX;0.0;GY;0.0;GZ;0.0;MAGX;2.0;MAGY;47.0;MAGZ;7.0
MOT;0;1000.0;1;1000.0;2;1000.0;3;1000.0;4;0.0;5;0.0;6;0.0;7;0.0;
RC;ROLL;1500.0;PITCH;1500.0;YAW;1500.0;THROTTLE;1500.0;AUX1;1500.0;AUX2;1500.0;AUX3;1500.0;AUX4;1500.0
GPS;ALT;0;LAT;181;LON;136;SPD;1
ALTITUDE;20.0
DEBUG;DEBUG10.0;DEBUG2;0.0;DEBUG3;0.0;DEBUG4;0.0
ATTITUDE;ANGX;0.0;ANGY;0.0;HEAD;7.0
STATUS;CYCLETIME;2744;I2CERR;0;PRESENT;31;MODE;2
RAW_IMU;AX;-2.0;AY;0.0;AZ;255.0;GX;0.0;GY;0.0;GZ;0.0;MAGX;2.0;MAGY;46.0;MAGZ;8.0
MOT;0;1000.0;1;1000.0;2;1000.0;3;1000.0;4;0.0;5;0.0;6;0.0;7;0.0;
RC;ROLL;1500.0;PITCH;1500.0;YAW;1500.0;THROTTLE;1500.0;AUX1;1500.0;AUX2;1500.0;AUX3;1500.0;AUX4;1500.0
GPS;ALT;0;LAT;181;LON;136;SPD;1
ALTITUDE;20.0
DEBUG;DEBUG10.0;DEBUG2;0.0;DEBUG3;0.0;DEBUG4;0.0
ATTITUDE;ANGX;0.0;ANGY;0.0;HEAD;7.0
STATUS;CYCLETIME;2768;I2CERR;0;PRESENT;31;MODE;2
RAW_IMU;AX;-2.0;AY;1.0;AZ;255.0;GX;0.0;GY;0.0;GZ;0.0;MAGX;2.0;MAGY;46.0;MAGZ;8.0
MOT;0;1000.0;1;1000.0;2;1000.0;3;1000.0;4;0.0;5;0.0;6;0.0;7;0.0;
RC;ROLL;1500.0;PITCH;1500.0;YAW;1500.0;THROTTLE;1500.0;AUX1;1500.0;AUX2;1500.0;AUX3;1500.0;AUX4;1500.0
GPS;ALT;0;LAT;181;LON;136;SPD;1
ALTITUDE;20.0
DEBUG;DEBUG10.0;DEBUG2;0.0;DEBUG3;0.0;DEBUG4;0.0
ATTITUDE;ANGX;0.0;ANGY;0.0;HEAD;8.0
STATUS;CYCLETIME;2760;I2CERR;0;PRESENT;31;MODE;2
RAW_IMU;AX;-2.0;AY;1.0;AZ;255.0;GX;0.0;GY;0.0;GZ;0.0;MAGX;2.0;MAGY;46.0;MAGZ;7.0
MOT;0;1000.0;1;1000.0;2;1000.0;3;1000.0;4;0.0;5;0.0;6;0.0;7;0.0;
RC;ROLL;1500.0;PITCH;1500.0;YAW;1500.0;THROTTLE;1500.0;AUX1;1500.0;AUX2;1500.0;AUX3;1500.0;AUX4;1500.0
GPS;ALT;0;LAT;181;LON;136;SPD;1
ALTITUDE;20.0
DEBUG;DEBUG10.0;DEBUG2;0.0;DEBUG3;0.0;DEBUG4;0.0
ATTITUDE;ANGX;0.0;ANGY;0.0;HEAD;8.0
STATUS;CYCLETIME;2720;I2CERR;0;PRESENT;31;MODE;2
RAW_IMU;AX;-2.0;AY;1.0;AZ;255.0;GX;0.0;GY;0.0;GZ;0.0;MAGX;2.0;MAGY;46.0;MAGZ;7.0
MOT;0;1000.0;1;1000.0;2;1000.0;3;1000.0;4;0.0;5;0.0;6;0.0;7;0.0;
RC;ROLL;1500.0;PITCH;1500.0;YAW;1500.0;THROTTLE;1500.0;AUX1;1500.0;AUX2;1500.0;AUX3;1500.0;AUX4;1500.0
GPS;ALT;0;LAT;181;LON;136;SPD;1
ALTITUDE;20.0
DEBUG;DEBUG10.0;DEBUG2;0.0;DEBUG3;0.0;DEBUG4;0.0
ATTITUDE;ANGX;0.0;ANGY;0.0;HEAD;8.0
STATUS;CYCLETIME;2764;I2CERR;0;PRESENT;31;MODE;2
RAW_IMU;AX;-3.0;AY;1.0;AZ;255.0;GX;0.0;GY;0.0;GZ;0.0;MAGX;1.0;MAGY;46.0;MAGZ;6.0
MOT;0;1000.0;1;1000.0;2;1000.0;3;1000.0;4;0.0;5;0.0;6;0.0;7;0.0;
RC;ROLL;1500.0;PITCH;1500.0;YAW;1500.0;THROTTLE;1500.0;AUX1;1500.0;AUX2;1500.0;AUX3;1500.0;AUX4;1500.0
GPS;ALT;0;LAT;181;LON;136;SPD;0
ALTITUDE;20.0
DEBUG;DEBUG10.0;DEBUG2;0.0;DEBUG3;0.0;DEBUG4;0.0
ATTITUDE;ANGX;0.0;ANGY;0.0;HEAD;8.0
STATUS;CYCLETIME;2748;I2CERR;0;PRESENT;31;MODE;2
RAW_IMU;AX;-2.0;AY;1.0;AZ;256.0;GX;0.0;GY;0.0;GZ;0.0;MAGX;1.0;MAGY;46.0;MAGZ;6.0
MOT;0;1000.0;1;1000.0;2;1000.0;3;1000.0;4;0.0;5;0.0;6;0.0;7;0.0;
RC;ROLL;1500.0;PITCH;1500.0;YAW;1500.0;THROTTLE;1500.0;AUX1;1500.0;AUX2;1500.0;AUX3;1500.0;AUX4;1500.0
GPS;ALT;0;LAT;181;LON;136;SPD;0
ALTITUDE;20.0
DEBUG;DEBUG10.0;DEBUG2;0.0;DEBUG3;0.0;DEBUG4;0.0
ATTITUDE;ANGX;0.0;ANGY;0.0;HEAD;8.0
STATUS;CYCLETIME;2680;I2CERR;0;PRESENT;31;MODE;2
RAW_IMU;AX;-2.0;AY;1.0;AZ;255.0;GX;0.0;GY;0.0;GZ;0.0;MAGX;1.0;MAGY;46.0;MAGZ;7.0
MOT;0;1000.0;1;1000.0;2;1000.0;3;1000.0;4;0.0;5;0.0;6;0.0;7;0.0;
RC;ROLL;1500.0;PITCH;1500.0;YAW;1500.0;THROTTLE;1500.0;AUX1;1500.0;AUX2;1500.0;AUX3;1500.0;AUX4;1500.0
GPS;ALT;0;LAT;181;LON;136;SPD;0
ALTITUDE;20.0
DEBUG;DEBUG10.0;DEBUG2;0.0;DEBUG3;0.0;DEBUG4;0.0
ATTITUDE;ANGX;0.0;ANGY;0.0;HEAD;8.0
STATUS;CYCLETIME;2724;I2CERR;0;PRESENT;31;MODE;2
