IDENT;V;220;TYPE;3
MSP_MOTOR_PINS
STATUS;CYCLETIME;2940;I2CERR;0;PRESENT;23;MODE;0
RAW_IMU;AX;12.0;AY;-4.0;AZ;259.0;GX;-4.0;GY;2.0;GZ;0.0;MAGX;96.0;MAGY;-73.0;MAGZ;16.0
MOT;0;1000.0;1;1000.0;2;1000.0;3;1000.0;4;0.0;5;0.0;6;0.0;7;0.0;
RC;ROLL;1497.0;PITCH;1506.0;YAW;1509.0;THROTTLE;1064.0;AUX1;1681.0;AUX2;1500.0;AUX3;1500.0;AUX4;1500.0
ALTITUDE;0.0
DEBUG;DEBUG10.0;DEBUG2;0.0;DEBUG3;0.0;DEBUG4;0.0
ATTITUDE;ANGX;2.0;ANGY;0.0;HEAD;-119.0
STATUS;CYCLETIME;2824;I2CERR;0;PRESENT;23;MODE;0
RAW_IMU;AX;5.0;AY;-3.0;AZ;256.0;GX;2.0;GY;-1.0;GZ;-5.0;MAGX;94.0;MAGY;-73.0;MAGZ;10.0
MOT;0;1000.0;1;1000.0;2;1000.0;3;1000.0;4;0.0;5;0.0;6;0.0;7;0.0;
RC;ROLL;1497.0;PITCH;1506.0;YAW;1509.0;THROTTLE;1064.0;AUX1;1681.0;AUX2;1500.0;AUX3;1500.0;AUX4;1500.0
ALTITUDE;0.0
DEBUG;DEBUG10.0;DEBUG2;0.0;DEBUG3;0.0;DEBUG4;0.0
ATTITUDE;ANGX;2.0;ANGY;0.0;HEAD;-119.0
ATTITUDE;ANGX;2.0;ANGY;0.0;HEAD;-119.0
STATUS;CYCLETIME;2880;I2CERR;0;PRESENT;23;MODE;0
RAW_IMU;AX;4.0;AY;-1.0;AZ;259.0;GX;4.0;GY;0.0;GZ;0.0;MAGX;94.0;MAGY;-73.0;MAGZ;10.0
MOT;0;1000.0;1;1000.0;2;1000.0;3;1000.0;4;0.0;5;0.0;6;0.0;7;0.0;
RC;ROLL;1497.0;PITCH;1506.0;YAW;1509.0;THROTTLE;1064.0;AUX1;1681.0;AUX2;1500.0;AUX3;1500.0;AUX4;1500.0
ALTITUDE;0.0
DEBUG;DEBUG10.0;DEBUG2;0.0;DEBUG3;0.0;DEBUG4;0.0
ATTITUDE;ANGX;2.0;ANGY;0.0;HEAD;-119.0
STATUS;CYCLETIME;2812;I2CERR;0;PRESENT;23;MODE;0
RAW_IMU;AX;7.0;AY;0.0;AZ;258.0;GX;-2.0;GY;-2.0;GZ;-1.0;MAGX;94.0;MAGY;-73.0;MAGZ;14.0
MOT;0;1000.0;1;1000.0;2;1000.0;3;1000.0;4;0.0;5;0.0;6;0.0;7;0.0;
RC;ROLL;1497.0;PITCH;1506.0;YAW;1509.0;THROTTLE;1064.0;AUX1;1681.0;AUX2;1500.0;AUX3;1500.0;AUX4;1500.0
ALTITUDE;0.0
DEBUG;DEBUG10.0;DEBUG2;0.0;DEBUG3;0.0;DEBUG4;0.0
ATTITUDE;ANGX;2.0;ANGY;0.0;HEAD;-119.0
STATUS;CYCLETIME;3012;I2CERR;0;PRESENT;23;MODE;0
RAW_IMU;AX;0.0;AY;-1.0;AZ;256.0;GX;0.0;GY;-3.0;GZ;1.0;MAGX;94.0;MAGY;-73.0;MAGZ;14.0
MOT;0;1000.0;1;1000.0;2;1000.0;3;1000.0;4;0.0;5;0.0;6;0.0;7;0.0;
RC;ROLL;1497.0;PITCH;1506.0;YAW;1509.0;THROTTLE;1064.0;AUX1;1681.0;AUX2;1500.0;AUX3;1500.0;AUX4;1500.0
ALTITUDE;0.0
DEBUG;DEBUG10.0;DEBUG2;0.0;DEBUG3;0.0;DEBUG4;0.0
ATTITUDE;ANGX;2.0;ANGY;0.0;HEAD;-119.0
STATUS;CYCLETIME;2900;I2CERR;0;PRESENT;23;MODE;0
RAW_IMU;AX;6.0;AY;-3.0;AZ;257.0;GX;12.0;GY;-6.0;GZ;3.0;MAGX;95.0;MAGY;-73.0;MAGZ;11.0
MOT;0;1000.0;1;1000.0;2;1000.0;3;1000.0;4;0.0;5;0.0;6;0.0;7;0.0;
RC;ROLL;1497.0;PITCH;1506.0;YAW;1509.0;THROTTLE;1064.0;AUX1;1681.0;AUX2;1500.0;AUX3;1500.0;AUX4;1500.0
ALTITUDE;0.0
DEBUG;DEBUG10.0;DEBUG2;0.0;DEBUG3;0.0;DEBUG4;0.0
ATTITUDE;ANGX;3.0;ANGY;-1.0;HEAD;-118.0
STATUS;CYCLETIME;2924;I2CERR;0;PRESENT;23;MODE;0
RAW_IMU;AX;12.0;AY;-8.0;AZ;252.0;GX;11.0;GY;-3.0;GZ;1.0;MAGX;95.0;MAGY;-73.0;MAGZ;11.0
MOT;0;1000.0;1;1000.0;2;1000.0;3;1000.0;4;0.0;5;0.0;6;0.0;7;0.0;
RC;ROLL;1497.0;PITCH;1506.0;YAW;1509.0;THROTTLE;1064.0;AUX1;1681.0;AUX2;1500.0;AUX3;1500.0;AUX4;1500.0
ALTITUDE;0.0
DEBUG;DEBUG10.0;DEBUG2;0.0;DEBUG3;0.0;DEBUG4;0.0
ATTITUDE;ANGX;5.0;ANGY;-1.0;HEAD;-118.0
STATUS;CYCLETIME;2908;I2CERR;0;PRESENT;23;MODE;0
RAW_IMU;AX;14.0;AY;-6.0;AZ;247.0;GX;5.0;GY;5.0;GZ;2.0;MAGX;98.0;MAGY;-73.0;MAGZ;19.0
MOT;0;1000.0;1;1000.0;2;1000.0;3;1000.0;4;0.0;5;0.0;6;0.0;7;0.0;
RC;ROLL;1495.0;PITCH;1506.0;YAW;1509.0;THROTTLE;1064.0;AUX1;1681.0;AUX2;1500.0;AUX3;1500.0;AUX4;1500.0
ALTITUDE;0.0
DEBUG;DEBUG10.0;DEBUG2;0.0;DEBUG3;0.0;DEBUG4;0.0
ATTITUDE;ANGX;5.0;ANGY;-1.0;HEAD;-118.0
STATUS;CYCLETIME;2896;I2CERR;0;PRESENT;23;MODE;0
RAW_IMU;AX;18.0;AY;-2.0;AZ;250.0;GX;0.0;GY;13.0;GZ;0.0;MAGX;98.0;MAGY;-73.0;MAGZ;19.0
MOT;0;1000.0;1;1000.0;2;1000.0;3;1000.0;4;0.0;5;0.0;6;0.0;7;0.0;
RC;ROLL;1495.0;PITCH;1506.0;YAW;1509.0;THROTTLE;1064.0;AUX1;1681.0;AUX2;1500.0;AUX3;1500.0;AUX4;1500.0
ALTITUDE;0.0
DEBUG;DEBUG10.0;DEBUG2;0.0;DEBUG3;0.0;DEBUG4;0.0
ATTITUDE;ANGX;6.0;ANGY;0.0;HEAD;-118.0
STATUS;CYCLETIME;2880;I2CERR;0;PRESENT;23;MODE;0
RAW_IMU;AX;18.0;AY;-3.0;AZ;255.0;GX;-2.0;GY;12.0;GZ;0.0;MAGX;92.0;MAGY;-74.0;MAGZ;21.0
MOT;0;1000.0;1;1000.0;2;1000.0;3;1000.0;4;0.0;5;0.0;6;0.0;7;0.0;
RC;ROLL;1495.0;PITCH;1506.0;YAW;1509.0;THROTTLE;1064.0;AUX1;1681.0;AUX2;1500.0;AUX3;1500.0;AUX4;1500.0
ALTITUDE;0.0
DEBUG;DEBUG10.0;DEBUG2;0.0;DEBUG3;0.0;DEBUG4;0.0
ATTITUDE;ANGX;5.0;ANGY;1.0;HEAD;-118.0
STATUS;CYCLETIME;2908;I2CERR;0;PRESENT;23;MODE;0
RAW_IMU;AX;19.0;AY;-2.0;AZ;266.0;GX;4.0;GY;2.0;GZ;0.0;MAGX;92.0;MAGY;-74.0;MAGZ;21.0
MOT;0;1000.0;1;1000.0;2;1000.0;3;1000.0;4;0.0;5;0.0;6;0.0;7;0.0;
RC;ROLL;1495.0;PITCH;1506.0;YAW;1509.0;THROTTLE;1064.0;AUX1;1681.0;AUX2;1500.0;AUX3;1500.0;AUX4;1500.0
ALTITUDE;0.0
DEBUG;DEBUG10.0;DEBUG2;0.0;DEBUG3;0.0;DEBUG4;0.0
ATTITUDE;ANGX;5.0;ANGY;2.0;HEAD;-118.0
STATUS;CYCLETIME;2932;I2CERR;0;PRESENT;23;MODE;0
RAW_IMU;AX;18.0;AY;0.0;AZ;263.0;GX;4.0;GY;0.0;GZ;-3.0;MAGX;89.0;MAGY;-75.0;MAGZ;21.0
MOT;0;1000.0;1;1000.0;2;1000.0;3;1000.0;4;0.0;5;0.0;6;0.0;7;0.0;
RC;ROLL;1495.0;PITCH;1506.0;YAW;1509.0;THROTTLE;1064.0;AUX1;1681.0;AUX2;1500.0;AUX3;1500.0;AUX4;1500.0
ALTITUDE;0.0
DEBUG;DEBUG10.0;DEBUG2;0.0;DEBUG3;0.0;DEBUG4;0.0
ATTITUDE;ANGX;6.0;ANGY;1.0;HEAD;-119.0
STATUS;CYCLETIME;3000;I2CERR;0;PRESENT;23;MODE;0
RAW_IMU;AX;18.0;AY;-1.0;AZ;261.0;GX;-3.0;GY;2.0;GZ;0.0;MAGX;89.0;MAGY;-75.0;MAGZ;21.0
MOT;0;1000.0;1;1000.0;2;1000.0;3;1000.0;4;0.0;5;0.0;6;0.0;7;0.0;
RC;ROLL;1495.0;PITCH;1506.0;YAW;1509.0;THROTTLE;1064.0;AUX1;1681.0;AUX2;1500.0;AUX3;1500.0;AUX4;1500.0
ALTITUDE;0.0
DEBUG;DEBUG10.0;DEBUG2;0.0;DEBUG3;0.0;DEBUG4;0.0
ATTITUDE;ANGX;6.0;ANGY;1.0;HEAD;-119.0
STATUS;CYCLETIME;2892;I2CERR;0;PRESENT;23;MODE;0
RAW_IMU;AX;15.0;AY;2.0;AZ;257.0;GX;-14.0;GY;5.0;GZ;2.0;MAGX;89.0;MAGY;-75.0;MAGZ;21.0
MOT;0;1000.0;1;1000.0;2;1000.0;3;1000.0;4;0.0;5;0.0;6;0.0;7;0.0;
RC;ROLL;1495.0;PITCH;1506.0;YAW;1509.0;THROTTLE;1064.0;AUX1;1681.0;AUX2;1500.0;AUX3;1500.0;AUX4;1500.0
ALTITUDE;0.0
DEBUG;DEBUG10.0;DEBUG2;0.0;DEBUG3;0.0;DEBUG4;0.0
ATTITUDE;ANGX;4.0;ANGY;2.0;HEAD;-119.0
STATUS;CYCLETIME;2900;I2CERR;0;PRESENT;23;MODE;0
RAW_IMU;AX;14.0;AY;3.0;AZ;261.0;GX;-12.0;GY;4.0;GZ;1.0;MAGX;89.0;MAGY;-75.0;MAGZ;20.0
MOT;0;1000.0;1;1000.0;2;1000.0;3;1000.0;4;0.0;5;0.0;6;0.0;7;0.0;
RC;ROLL;1495.0;PITCH;1506.0;YAW;1509.0;THROTTLE;1064.0;AUX1;1681.0;AUX2;1500.0;AUX3;1500.0;AUX4;1500.0
ALTITUDE;0.0
DEBUG;DEBUG10.0;DEBUG2;0.0;DEBUG3;0.0;DEBUG4;0.0
ATTITUDE;ANGX;3.0;ANGY;2.0;HEAD;-119.0
STATUS;CYCLETIME;2896;I2CERR;0;PRESENT;23;MODE;0
RAW_IMU;AX;10.0;AY;2.0;AZ;259.0;GX;-4.0;GY;-1.0;GZ;0.0;MAGX;89.0;MAGY;-75.0;MAGZ;20.0
MOT;0;1000.0;1;1000.0;2;1000.0;3;1000.0;4;0.0;5;0.0;6;0.0;7;0.0;
RC;ROLL;1495.0;PITCH;1506.0;YAW;1509.0;THROTTLE;1064.0;AUX1;1681.0;AUX2;1500.0;AUX3;1500.0;AUX4;1500.0
ALTITUDE;0.0
DEBUG;DEBUG10.0;DEBUG2;0.0;DEBUG3;0.0;DEBUG4;0.0
ATTITUDE;ANGX;2.0;ANGY;2.0;HEAD;-119.0
STATUS;CYCLETIME;2896;I2CERR;0;PRESENT;23;MODE;0
RAW_IMU;AX;8.0;AY;0.0;AZ;257.0;GX;2.0;GY;-4.0;GZ;-1.0;MAGX;88.0;MAGY;-75.0;MAGZ;12.0
MOT;0;1000.0;1;1000.0;2;1000.0;3;1000.0;4;0.0;5;0.0;6;0.0;7;0.0;
RC;ROLL;1495.0;PITCH;1506.0;YAW;1509.0;THROTTLE;1064.0;AUX1;1681.0;AUX2;1500.0;AUX3;1500.0;AUX4;1500.0
ALTITUDE;0.0
DEBUG;DEBUG10.0;DEBUG2;0.0;DEBUG3;0.0;DEBUG4;0.0
ATTITUDE;ANGX;2.0;ANGY;2.0;HEAD;-119.0
STATUS;CYCLETIME;2888;I2CERR;0;PRESENT;23;MODE;0
RAW_IMU;AX;9.0;AY;1.0;AZ;252.0;GX;2.0;GY;-5.0;GZ;-2.0;MAGX;88.0;MAGY;-75.0;MAGZ;12.0
MOT;0;1000.0;1;1000.0;2;1000.0;3;1000.0;4;0.0;5;0.0;6;0.0;7;0.0;
RC;ROLL;1495.0;PITCH;1506.0;YAW;1509.0;THROTTLE;1064.0;AUX1;1681.0;AUX2;1500.0;AUX3;1500.0;AUX4;1500.0
ALTITUDE;0.0
DEBUG;DEBUG10.0;DEBUG2;0.0;DEBUG3;0.0;DEBUG4;0.0
ATTITUDE;ANGX;2.0;ANGY;1.0;HEAD;-119.0
STATUS;CYCLETIME;2896;I2CERR;0;PRESENT;23;MODE;0
RAW_IMU;AX;9.0;AY;2.0;AZ;253.0;GX;1.0;GY;-1.0;GZ;-1.0;MAGX;90.0;MAGY;-75.0;MAGZ;14.0
MOT;0;1000.0;1;1000.0;2;1000.0;3;1000.0;4;0.0;5;0.0;6;0.0;7;0.0;
RC;ROLL;1495.0;PITCH;1506.0;YAW;1509.0;THROTTLE;1064.0;AUX1;1681.0;AUX2;1500.0;AUX3;1500.0;AUX4;1500.0
ALTITUDE;0.0
DEBUG;DEBUG10.0;DEBUG2;0.0;DEBUG3;0.0;DEBUG4;0.0
ATTITUDE;ANGX;3.0;ANGY;1.0;HEAD;-119.0
STATUS;CYCLETIME;2916;I2CERR;0;PRESENT;23;MODE;0
RAW_IMU;AX;9.0;AY;3.0;AZ;254.0;GX;0.0;GY;1.0;GZ;-1.0;MAGX;90.0;MAGY;-75.0;MAGZ;14.0
MOT;0;1000.0;1;1000.0;2;1000.0;3;1000.0;4;0.0;5;0.0;6;0.0;7;0.0;
RC;ROLL;1495.0;PITCH;1508.0;YAW;1509.0;THROTTLE;1064.0;AUX1;1681.0;AUX2;1500.0;AUX3;1500.0;AUX4;1500.0
ALTITUDE;0.0
DEBUG;DEBUG10.0;DEBUG2;0.0;DEBUG3;0.0;DEBUG4;0.0
ATTITUDE;ANGX;3.0;ANGY;1.0;HEAD;-119.0
STATUS;CYCLETIME;2916;I2CERR;0;PRESENT;23;MODE;0
RAW_IMU;AX;11.0;AY;0.0;AZ;256.0;GX;-1.0;GY;3.0;GZ;0.0;MAGX;91.0;MAGY;-75.0;MAGZ;14.0
MOT;0;1000.0;1;1000.0;2;1000.0;3;1000.0;4;0.0;5;0.0;6;0.0;7;0.0;
RC;ROLL;1497.0;PITCH;1508.0;YAW;1507.0;THROTTLE;1064.0;AUX1;1683.0;AUX2;1500.0;AUX3;1500.0;AUX4;1500.0
ALTITUDE;0.0
DEBUG;DEBUG10.0;DEBUG2;0.0;DEBUG3;0.0;DEBUG4;0.0
ATTITUDE;ANGX;2.0;ANGY;1.0;HEAD;-120.0
STATUS;CYCLETIME;2896;I2CERR;0;PRESENT;23;MODE;0
RAW_IMU;AX;10.0;AY;-1.0;AZ;259.0;GX;-2.0;GY;1.0;GZ;0.0;MAGX;91.0;MAGY;-75.0;MAGZ;14.0
MOT;0;1000.0;1;1000.0;2;1000.0;3;1000.0;4;0.0;5;0.0;6;0.0;7;0.0;
RC;ROLL;1497.0;PITCH;1508.0;YAW;1507.0;THROTTLE;1064.0;AUX1;1683.0;AUX2;1500.0;AUX3;1500.0;AUX4;1500.0
ALTITUDE;0.0
DEBUG;DEBUG10.0;DEBUG2;0.0;DEBUG3;0.0;DEBUG4;0.0
ATTITUDE;ANGX;2.0;ANGY;2.0;HEAD;-120.0
STATUS;CYCLETIME;2896;I2CERR;0;PRESENT;23;MODE;0
RAW_IMU;AX;11.0;AY;-1.0;AZ;256.0;GX;-1.0;GY;0.0;GZ;0.0;MAGX;89.0;MAGY;-75.0;MAGZ;13.0
MOT;0;1000.0;1;1000.0;2;1000.0;3;1000.0;4;0.0;5;0.0;6;0.0;7;0.0;
RC;ROLL;1497.0;PITCH;1508.0;YAW;1507.0;THROTTLE;1064.0;AUX1;1683.0;AUX2;1500.0;AUX3;1500.0;AUX4;1500.0
ALTITUDE;0.0
DEBUG;DEBUG10.0;DEBUG2;0.0;DEBUG3;0.0;DEBUG4;0.0
ATTITUDE;ANGX;2.0;ANGY;1.0;HEAD;-120.0
STATUS;CYCLETIME;2908;I2CERR;0;PRESENT;23;MODE;0
RAW_IMU;AX;12.0;AY;-1.0;AZ;262.0;GX;1.0;GY;0.0;GZ;0.0;MAGX;89.0;MAGY;-75.0;MAGZ;13.0
MOT;0;1000.0;1;1000.0;2;1000.0;3;1000.0;4;0.0;5;0.0;6;0.0;7;0.0;
RC;ROLL;1497.0;PITCH;1508.0;YAW;1507.0;THROTTLE;1064.0;AUX1;1683.0;AUX2;1500.0;AUX3;1500.0;AUX4;1500.0
ALTITUDE;0.0
DEBUG;DEBUG10.0;DEBUG2;0.0;DEBUG3;0.0;DEBUG4;0.0
ATTITUDE;ANGX;2.0;ANGY;1.0;HEAD;-120.0
STATUS;CYCLETIME;2904;I2CERR;0;PRESENT;23;MODE;0
RAW_IMU;AX;13.0;AY;0.0;AZ;260.0;GX;0.0;GY;-1.0;GZ;0.0;MAGX;90.0;MAGY;-75.0;MAGZ;13.0
MOT;0;1000.0;1;1000.0;2;1000.0;3;1000.0;4;0.0;5;0.0;6;0.0;7;0.0;
RC;ROLL;1497.0;PITCH;1508.0;YAW;1507.0;THROTTLE;1064.0;AUX1;1683.0;AUX2;1500.0;AUX3;1500.0;AUX4;1500.0
ALTITUDE;0.0
DEBUG;DEBUG10.0;DEBUG2;0.0;DEBUG3;0.0;DEBUG4;0.0
ATTITUDE;ANGX;2.0;ANGY;1.0;HEAD;-120.0
STATUS;CYCLETIME;2940;I2CERR;0;PRESENT;23;MODE;0
RAW_IMU;AX;8.0;AY;1.0;AZ;257.0;GX;-2.0;GY;-2.0;GZ;0.0;MAGX;90.0;MAGY;-75.0;MAGZ;13.0
MOT;0;1000.0;1;1000.0;2;1000.0;3;1000.0;4;0.0;5;0.0;6;0.0;7;0.0;
RC;ROLL;1497.0;PITCH;1508.0;YAW;1507.0;THROTTLE;1064.0;AUX1;1683.0;AUX2;1500.0;AUX3;1500.0;AUX4;1500.0
ALTITUDE;0.0
DEBUG;DEBUG10.0;DEBUG2;0.0;DEBUG3;0.0;DEBUG4;0.0
ATTITUDE;ANGX;2.0;ANGY;1.0;HEAD;-120.0
STATUS;CYCLETIME;2868;I2CERR;0;PRESENT;23;MODE;0
RAW_IMU;AX;9.0;AY;-1.0;AZ;256.0;GX;0.0;GY;0.0;GZ;0.0;MAGX;90.0;MAGY;-75.0;MAGZ;13.0
MOT;0;1000.0;1;1000.0;2;1000.0;3;1000.0;4;0.0;5;0.0;6;0.0;7;0.0;
RC;ROLL;1497.0;PITCH;1508.0;YAW;1509.0;THROTTLE;1064.0;AUX1;1683.0;AUX2;1500.0;AUX3;1500.0;AUX4;1500.0
ALTITUDE;0.0
DEBUG;DEBUG10.0;DEBUG2;0.0;DEBUG3;0.0;DEBUG4;0.0
ATTITUDE;ANGX;2.0;ANGY;1.0;HEAD;-120.0
STATUS;CYCLETIME;2892;I2CERR;0;PRESENT;23;MODE;0
RAW_IMU;AX;11.0;AY;-1.0;AZ;255.0;GX;3.0;GY;0.0;GZ;-1.0;MAGX;91.0;MAGY;-73.0;MAGZ;11.0
MOT;0;1000.0;1;1000.0;2;1000.0;3;1000.0;4;0.0;5;0.0;6;0.0;7;0.0;
RC;ROLL;1497.0;PITCH;1508.0;YAW;1509.0;THROTTLE;1064.0;AUX1;1683.0;AUX2;1500.0;AUX3;1500.0;AUX4;1500.0
ALTITUDE;0.0
DEBUG;DEBUG10.0;DEBUG2;0.0;DEBUG3;0.0;DEBUG4;0.0
ATTITUDE;ANGX;2.0;ANGY;0.0;HEAD;-120.0
STATUS;CYCLETIME;2888;I2CERR;0;PRESENT;23;MODE;0
RAW_IMU;AX;9.0;AY;0.0;AZ;255.0;GX;1.0;GY;2.0;GZ;0.0;MAGX;91.0;MAGY;-73.0;MAGZ;11.0
MOT;0;1000.0;1;1000.0;2;1000.0;3;1000.0;4;0.0;5;0.0;6;0.0;7;0.0;
RC;ROLL;1497.0;PITCH;1508.0;YAW;1509.0;THROTTLE;1064.0;AUX1;1683.0;AUX2;1500.0;AUX3;1500.0;AUX4;1500.0
ALTITUDE;0.0
DEBUG;DEBUG10.0;DEBUG2;0.0;DEBUG3;0.0;DEBUG4;0.0
ATTITUDE;ANGX;2.0;ANGY;1.0;HEAD;-120.0
STATUS;CYCLETIME;2964;I2CERR;0;PRESENT;23;MODE;0
RAW_IMU;AX;11.0;AY;1.0;AZ;257.0;GX;0.0;GY;5.0;GZ;0.0;MAGX;91.0;MAGY;-74.0;MAGZ;13.0
MOT;0;1000.0;1;1000.0;2;1000.0;3;1000.0;4;0.0;5;0.0;6;0.0;7;0.0;
RC;ROLL;1497.0;PITCH;1508.0;YAW;1509.0;THROTTLE;1064.0;AUX1;1681.0;AUX2;1500.0;AUX3;1500.0;AUX4;1500.0
ALTITUDE;0.0
DEBUG;DEBUG10.0;DEBUG2;0.0;DEBUG3;0.0;DEBUG4;0.0
ATTITUDE;ANGX;2.0;ANGY;1.0;HEAD;-120.0
STATUS;CYCLETIME;2948;I2CERR;0;PRESENT;23;MODE;0
RAW_IMU;AX;11.0;AY;2.0;AZ;265.0;GX;-2.0;GY;3.0;GZ;0.0;MAGX;91.0;MAGY;-74.0;MAGZ;13.0
MOT;0;1000.0;1;1000.0;2;1000.0;3;1000.0;4;0.0;5;0.0;6;0.0;7;0.0;
RC;ROLL;1497.0;PITCH;1508.0;YAW;1509.0;THROTTLE;1064.0;AUX1;1681.0;AUX2;1500.0;AUX3;1500.0;AUX4;1500.0
ALTITUDE;0.0
DEBUG;DEBUG10.0;DEBUG2;0.0;DEBUG3;0.0;DEBUG4;0.0
ATTITUDE;ANGX;2.0;ANGY;2.0;HEAD;-120.0
STATUS;CYCLETIME;3012;I2CERR;0;PRESENT;23;MODE;0
RAW_IMU;AX;7.0;AY;2.0;AZ;261.0;GX;-14.0;GY;2.0;GZ;1.0;MAGX;89.0;MAGY;-75.0;MAGZ;11.0
MOT;0;1000.0;1;1000.0;2;1000.0;3;1000.0;4;0.0;5;0.0;6;0.0;7;0.0;
RC;ROLL;1497.0;PITCH;1508.0;YAW;1509.0;THROTTLE;1064.0;AUX1;1681.0;AUX2;1500.0;AUX3;1500.0;AUX4;1500.0
ALTITUDE;0.0
DEBUG;DEBUG10.0;DEBUG2;0.0;DEBUG3;0.0;DEBUG4;0.0
ATTITUDE;ANGX;1.0;ANGY;2.0;HEAD;-119.0
STATUS;CYCLETIME;2840;I2CERR;0;PRESENT;23;MODE;0
RAW_IMU;AX;4.0;AY;3.0;AZ;262.0;GX;-14.0;GY;0.0;GZ;1.0;MAGX;89.0;MAGY;-75.0;MAGZ;11.0
MOT;0;1000.0;1;1000.0;2;1000.0;3;1000.0;4;0.0;5;0.0;6;0.0;7;0.0;
RC;ROLL;1497.0;PITCH;1508.0;YAW;1509.0;THROTTLE;1064.0;AUX1;1681.0;AUX2;1500.0;AUX3;1500.0;AUX4;1500.0
ALTITUDE;0.0
DEBUG;DEBUG10.0;DEBUG2;0.0;DEBUG3;0.0;DEBUG4;0.0
ATTITUDE;ANGX;0.0;ANGY;2.0;HEAD;-119.0
STATUS;CYCLETIME;2908;I2CERR;0;PRESENT;23;MODE;0
RAW_IMU;AX;-2.0;AY;0.0;AZ;258.0;GX;-1.0;GY;-5.0;GZ;0.0;MAGX;88.0;MAGY;-74.0;MAGZ;4.0
MOT;0;1000.0;1;1000.0;2;1000.0;3;1000.0;4;0.0;5;0.0;6;0.0;7;0.0;
RC;ROLL;1497.0;PITCH;1508.0;YAW;1509.0;THROTTLE;1064.0;AUX1;1681.0;AUX2;1500.0;AUX3;1500.0;AUX4;1500.0
ALTITUDE;0.0
DEBUG;DEBUG10.0;DEBUG2;0.0;DEBUG3;0.0;DEBUG4;0.0
ATTITUDE;ANGX;0.0;ANGY;1.0;HEAD;-119.0
STATUS;CYCLETIME;2948;I2CERR;0;PRESENT;23;MODE;0
RAW_IMU;AX;-3.0;AY;2.0;AZ;253.0;GX;11.0;GY;-6.0;GZ;0.0;MAGX;88.0;MAGY;-74.0;MAGZ;4.0
MOT;0;1000.0;1;1000.0;2;1000.0;3;1000.0;4;0.0;5;0.0;6;0.0;7;0.0;
RC;ROLL;1497.0;PITCH;1508.0;YAW;1509.0;THROTTLE;1064.0;AUX1;1681.0;AUX2;1500.0;AUX3;1500.0;AUX4;1500.0
ALTITUDE;0.0
DEBUG;DEBUG10.0;DEBUG2;0.0;DEBUG3;0.0;DEBUG4;0.0
ATTITUDE;ANGX;0.0;ANGY;0.0;HEAD;-119.0
STATUS;CYCLETIME;3176;I2CERR;0;PRESENT;23;MODE;0
RAW_IMU;AX;3.0;AY;1.0;AZ;250.0;GX;12.0;GY;-2.0;GZ;0.0;MAGX;92.0;MAGY;-74.0;MAGZ;9.0
MOT;0;1000.0;1;1000.0;2;1000.0;3;1000.0;4;0.0;5;0.0;6;0.0;7;0.0;
RC;ROLL;1497.0;PITCH;1506.0;YAW;1509.0;THROTTLE;1064.0;AUX1;1681.0;AUX2;1500.0;AUX3;1500.0;AUX4;1500.0
ALTITUDE;0.0
DEBUG;DEBUG10.0;DEBUG2;0.0;DEBUG3;0.0;DEBUG4;0.0
ATTITUDE;ANGX;1.0;ANGY;0.0;HEAD;-119.0
STATUS;CYCLETIME;2916;I2CERR;0;PRESENT;23;MODE;0
RAW_IMU;AX;7.0;AY;1.0;AZ;252.0;GX;7.0;GY;3.0;GZ;0.0;MAGX;92.0;MAGY;-74.0;MAGZ;9.0
MOT;0;1000.0;1;1000.0;2;1000.0;3;1000.0;4;0.0;5;0.0;6;0.0;7;0.0;
RC;ROLL;1497.0;PITCH;1506.0;YAW;1509.0;THROTTLE;1064.0;AUX1;1681.0;AUX2;1500.0;AUX3;1500.0;AUX4;1500.0
ALTITUDE;0.0
DEBUG;DEBUG10.0;DEBUG2;0.0;DEBUG3;0.0;DEBUG4;0.0
ATTITUDE;ANGX;2.0;ANGY;0.0;HEAD;-119.0
STATUS;CYCLETIME;2920;I2CERR;0;PRESENT;23;MODE;0
RAW_IMU;AX;10.0;AY;-1.0;AZ;257.0;GX;0.0;GY;4.0;GZ;-1.0;MAGX;92.0;MAGY;-74.0;MAGZ;9.0
MOT;0;1000.0;1;1000.0;2;1000.0;3;1000.0;4;0.0;5;0.0;6;0.0;7;0.0;
RC;ROLL;1497.0;PITCH;1506.0;YAW;1509.0;THROTTLE;1064.0;AUX1;1681.0;AUX2;1500.0;AUX3;1500.0;AUX4;1500.0
ALTITUDE;0.0
DEBUG;DEBUG10.0;DEBUG2;0.0;DEBUG3;0.0;DEBUG4;0.0
ATTITUDE;ANGX;2.0;ANGY;1.0;HEAD;-119.0
STATUS;CYCLETIME;2884;I2CERR;0;PRESENT;23;MODE;0
RAW_IMU;AX;8.0;AY;0.0;AZ;260.0;GX;-2.0;GY;0.0;GZ;0.0;MAGX;91.0;MAGY;-74.0;MAGZ;11.0
MOT;0;1000.0;1;1000.0;2;1000.0;3;1000.0;4;0.0;5;0.0;6;0.0;7;0.0;
RC;ROLL;1497.0;PITCH;1506.0;YAW;1509.0;THROTTLE;1064.0;AUX1;1681.0;AUX2;1500.0;AUX3;1500.0;AUX4;1500.0
ALTITUDE;0.0
DEBUG;DEBUG10.0;DEBUG2;0.0;DEBUG3;0.0;DEBUG4;0.0
ATTITUDE;ANGX;2.0;ANGY;1.0;HEAD;-119.0
STATUS;CYCLETIME;2924;I2CERR;0;PRESENT;23;MODE;0
RAW_IMU;AX;7.0;AY;1.0;AZ;258.0;GX;0.0;GY;-3.0;GZ;0.0;MAGX;91.0;MAGY;-74.0;MAGZ;11.0
MOT;0;1000.0;1;1000.0;2;1000.0;3;1000.0;4;0.0;5;0.0;6;0.0;7;0.0;
RC;ROLL;1497.0;PITCH;1506.0;YAW;1509.0;THROTTLE;1064.0;AUX1;1681.0;AUX2;1500.0;AUX3;1500.0;AUX4;1500.0
ALTITUDE;0.0
DEBUG;DEBUG10.0;DEBUG2;0.0;DEBUG3;0.0;DEBUG4;0.0
ATTITUDE;ANGX;2.0;ANGY;1.0;HEAD;-119.0
STATUS;CYCLETIME;2900;I2CERR;0;PRESENT;23;MODE;0
RAW_IMU;AX;8.0;AY;0.0;AZ;257.0;GX;2.0;GY;-3.0;GZ;0.0;MAGX;92.0;MAGY;-74.0;MAGZ;11.0
MOT;0;1000.0;1;1000.0;2;1000.0;3;1000.0;4;0.0;5;0.0;6;0.0;7;0.0;
RC;ROLL;1497.0;PITCH;1506.0;YAW;1509.0;THROTTLE;1064.0;AUX1;1681.0;AUX2;1500.0;AUX3;1500.0;AUX4;1500.0
ALTITUDE;0.0
DEBUG;DEBUG10.0;DEBUG2;0.0;DEBUG3;0.0;DEBUG4;0.0
ATTITUDE;ANGX;2.0;ANGY;0.0;HEAD;-119.0
STATUS;CYCLETIME;2912;I2CERR;0;PRESENT;23;MODE;0
RAW_IMU;AX;11.0;AY;0.0;AZ;257.0;GX;3.0;GY;-2.0;GZ;-1.0;MAGX;92.0;MAGY;-74.0;MAGZ;11.0
MOT;0;1000.0;1;1000.0;2;1000.0;3;1000.0;4;0.0;5;0.0;6;0.0;7;0.0;
RC;ROLL;1497.0;PITCH;1506.0;YAW;1509.0;THROTTLE;1064.0;AUX1;1681.0;AUX2;1500.0;AUX3;1500.0;AUX4;1500.0
ALTITUDE;0.0
DEBUG;DEBUG10.0;DEBUG2;0.0;DEBUG3;0.0;DEBUG4;0.0
ATTITUDE;ANGX;2.0;ANGY;0.0;HEAD;-119.0
STATUS;CYCLETIME;3012;I2CERR;0;PRESENT;23;MODE;0
RAW_IMU;AX;9.0;AY;-1.0;AZ;256.0;GX;1.0;GY;0.0;GZ;0.0;MAGX;92.0;MAGY;-74.0;MAGZ;13.0
MOT;0;1000.0;1;1000.0;2;1000.0;3;1000.0;4;0.0;5;0.0;6;0.0;7;0.0;
RC;ROLL;1497.0;PITCH;1506.0;YAW;1509.0;THROTTLE;1064.0;AUX1;1681.0;AUX2;1500.0;AUX3;1500.0;AUX4;1500.0
ALTITUDE;0.0
DEBUG;DEBUG10.0;DEBUG2;0.0;DEBUG3;0.0;DEBUG4;0.0
ATTITUDE;ANGX;2.0;ANGY;0.0;HEAD;-119.0
STATUS;CYCLETIME;2912;I2CERR;0;PRESENT;23;MODE;0
RAW_IMU;AX;11.0;AY;-2.0;AZ;259.0;GX;0.0;GY;1.0;GZ;0.0;MAGX;92.0;MAGY;-74.0;MAGZ;13.0
MOT;0;1000.0;1;1000.0;2;1000.0;3;1000.0;4;0.0;5;0.0;6;0.0;7;0.0;
RC;ROLL;1497.0;PITCH;1506.0;YAW;1509.0;THROTTLE;1064.0;AUX1;1681.0;AUX2;1500.0;AUX3;1500.0;AUX4;1500.0
ALTITUDE;0.0
DEBUG;DEBUG10.0;DEBUG2;0.0;DEBUG3;0.0;DEBUG4;0.0
ATTITUDE;ANGX;2.0;ANGY;0.0;HEAD;-119.0
STATUS;CYCLETIME;2924;I2CERR;0;PRESENT;23;MODE;0
RAW_IMU;AX;13.0;AY;-3.0;AZ;261.0;GX;-1.0;GY;0.0;GZ;0.0;MAGX;93.0;MAGY;-74.0;MAGZ;13.0
MOT;0;1000.0;1;1000.0;2;1000.0;3;1000.0;4;0.0;5;0.0;6;0.0;7;0.0;
RC;ROLL;1497.0;PITCH;1506.0;YAW;1509.0;THROTTLE;1064.0;AUX1;1681.0;AUX2;1500.0;AUX3;1500.0;AUX4;1500.0
ALTITUDE;0.0
DEBUG;DEBUG10.0;DEBUG2;0.0;DEBUG3;0.0;DEBUG4;0.0
ATTITUDE;ANGX;2.0;ANGY;0.0;HEAD;-119.0
STATUS;CYCLETIME;2912;I2CERR;0;PRESENT;23;MODE;0
RAW_IMU;AX;11.0;AY;-1.0;AZ;260.0;GX;-3.0;GY;-1.0;GZ;0.0;MAGX;93.0;MAGY;-74.0;MAGZ;13.0
MOT;0;1000.0;1;1000.0;2;1000.0;3;1000.0;4;0.0;5;0.0;6;0.0;7;0.0;
RC;ROLL;1497.0;PITCH;1506.0;YAW;1509.0;THROTTLE;1064.0;AUX1;1681.0;AUX2;1500.0;AUX3;1500.0;AUX4;1500.0
ALTITUDE;0.0
DEBUG;DEBUG10.0;DEBUG2;0.0;DEBUG3;0.0;DEBUG4;0.0
ATTITUDE;ANGX;2.0;ANGY;0.0;HEAD;-119.0
STATUS;CYCLETIME;2924;I2CERR;0;PRESENT;23;MODE;0
RAW_IMU;AX;8.0;AY;-2.0;AZ;261.0;GX;-2.0;GY;-1.0;GZ;0.0;MAGX;92.0;MAGY;-73.0;MAGZ;11.0
MOT;0;1000.0;1;1000.0;2;1000.0;3;1000.0;4;0.0;5;0.0;6;0.0;7;0.0;
RC;ROLL;1497.0;PITCH;1506.0;YAW;1509.0;THROTTLE;1064.0;AUX1;1681.0;AUX2;1500.0;AUX3;1500.0;AUX4;1500.0
ALTITUDE;0.0
DEBUG;DEBUG10.0;DEBUG2;0.0;DEBUG3;0.0;DEBUG4;0.0
ATTITUDE;ANGX;2.0;ANGY;0.0;HEAD;-119.0
STATUS;CYCLETIME;2928;I2CERR;0;PRESENT;23;MODE;0
RAW_IMU;AX;7.0;AY;-3.0;AZ;259.0;GX;0.0;GY;0.0;GZ;0.0;MAGX;92.0;MAGY;-73.0;MAGZ;11.0
MOT;0;1000.0;1;1000.0;2;1000.0;3;1000.0;4;0.0;5;0.0;6;0.0;7;0.0;
RC;ROLL;1497.0;PITCH;1506.0;YAW;1509.0;THROTTLE;1064.0;AUX1;1681.0;AUX2;1500.0;AUX3;1500.0;AUX4;1500.0
ALTITUDE;0.0
DEBUG;DEBUG10.0;DEBUG2;0.0;DEBUG3;0.0;DEBUG4;0.0
ATTITUDE;ANGX;2.0;ANGY;0.0;HEAD;-119.0
STATUS;CYCLETIME;2956;I2CERR;0;PRESENT;23;MODE;0
RAW_IMU;AX;9.0;AY;-3.0;AZ;258.0;GX;0.0;GY;0.0;GZ;0.0;MAGX;92.0;MAGY;-73.0;MAGZ;11.0
MOT;0;1000.0;1;1000.0;2;1000.0;3;1000.0;4;0.0;5;0.0;6;0.0;7;0.0;
RC;ROLL;1495.0;PITCH;1506.0;YAW;1509.0;THROTTLE;1064.0;AUX1;1681.0;AUX2;1500.0;AUX3;1500.0;AUX4;1500.0
ALTITUDE;0.0
DEBUG;DEBUG10.0;DEBUG2;0.0;DEBUG3;0.0;DEBUG4;0.0
ATTITUDE;ANGX;2.0;ANGY;0.0;HEAD;-119.0
STATUS;CYCLETIME;2972;I2CERR;0;PRESENT;23;MODE;0
RAW_IMU;AX;11.0;AY;-3.0;AZ;257.0;GX;0.0;GY;-2.0;GZ;0.0;MAGX;93.0;MAGY;-74.0;MAGZ;10.0
MOT;0;1000.0;1;1000.0;2;1000.0;3;1000.0;4;0.0;5;0.0;6;0.0;7;0.0;
RC;ROLL;1495.0;PITCH;1506.0;YAW;1509.0;THROTTLE;1064.0;AUX1;1681.0;AUX2;1500.0;AUX3;1500.0;AUX4;1500.0
ALTITUDE;0.0
DEBUG;DEBUG10.0;DEBUG2;0.0;DEBUG3;0.0;DEBUG4;0.0
ATTITUDE;ANGX;2.0;ANGY;0.0;HEAD;-119.0
STATUS;CYCLETIME;2832;I2CERR;0;PRESENT;23;MODE;0
RAW_IMU;AX;12.0;AY;-2.0;AZ;256.0;GX;0.0;GY;-2.0;GZ;-1.0;MAGX;93.0;MAGY;-74.0;MAGZ;10.0
MOT;0;1000.0;1;1000.0;2;1000.0;3;1000.0;4;0.0;5;0.0;6;0.0;7;0.0;
RC;ROLL;1495.0;PITCH;1506.0;YAW;1509.0;THROTTLE;1064.0;AUX1;1681.0;AUX2;1500.0;AUX3;1500.0;AUX4;1500.0
ALTITUDE;0.0
DEBUG;DEBUG10.0;DEBUG2;0.0;DEBUG3;0.0;DEBUG4;0.0
ATTITUDE;ANGX;2.0;ANGY;0.0;HEAD;-119.0
STATUS;CYCLETIME;2828;I2CERR;0;PRESENT;23;MODE;0
RAW_IMU;AX;11.0;AY;-3.0;AZ;255.0;GX;-1.0;GY;0.0;GZ;0.0;MAGX;94.0;MAGY;-74.0;MAGZ;11.0
MOT;0;1000.0;1;1000.0;2;1000.0;3;1000.0;4;0.0;5;0.0;6;0.0;7;0.0;
RC;ROLL;1495.0;PITCH;1506.0;YAW;1509.0;THROTTLE;1064.0;AUX1;1681.0;AUX2;1500.0;AUX3;1500.0;AUX4;1500.0
ALTITUDE;0.0
DEBUG;DEBUG10.0;DEBUG2;0.0;DEBUG3;0.0;DEBUG4;0.0
ATTITUDE;ANGX;2.0;ANGY;0.0;HEAD;-119.0
STATUS;CYCLETIME;2816;I2CERR;0;PRESENT;23;MODE;0
RAW_IMU;AX;11.0;AY;-2.0;AZ;255.0;GX;-1.0;GY;2.0;GZ;0.0;MAGX;94.0;MAGY;-74.0;MAGZ;11.0
MOT;0;1000.0;1;1000.0;2;1000.0;3;1000.0;4;0.0;5;0.0;6;0.0;7;0.0;
RC;ROLL;1495.0;PITCH;1506.0;YAW;1509.0;THROTTLE;1064.0;AUX1;1681.0;AUX2;1500.0;AUX3;1500.0;AUX4;1500.0
ALTITUDE;0.0
DEBUG;DEBUG10.0;DEBUG2;0.0;DEBUG3;0.0;DEBUG4;0.0
ATTITUDE;ANGX;1.0;ANGY;0.0;HEAD;-119.0
STATUS;CYCLETIME;2940;I2CERR;0;PRESENT;23;MODE;0
RAW_IMU;AX;9.0;AY;0.0;AZ;257.0;GX;1.0;GY;1.0;GZ;0.0;MAGX;94.0;MAGY;-74.0;MAGZ;10.0
MOT;0;1000.0;1;1000.0;2;1000.0;3;1000.0;4;0.0;5;0.0;6;0.0;7;0.0;
RC;ROLL;1495.0;PITCH;1506.0;YAW;1509.0;THROTTLE;1064.0;AUX1;1681.0;AUX2;1500.0;AUX3;1500.0;AUX4;1500.0
ALTITUDE;0.0
DEBUG;DEBUG10.0;DEBUG2;0.0;DEBUG3;0.0;DEBUG4;0.0
ATTITUDE;ANGX;2.0;ANGY;0.0;HEAD;-119.0
STATUS;CYCLETIME;2912;I2CERR;0;PRESENT;23;MODE;0
RAW_IMU;AX;7.0;AY;-1.0;AZ;257.0;GX;3.0;GY;1.0;GZ;0.0;MAGX;94.0;MAGY;-74.0;MAGZ;10.0
MOT;0;1000.0;1;1000.0;2;1000.0;3;1000.0;4;0.0;5;0.0;6;0.0;7;0.0;
RC;ROLL;1495.0;PITCH;1506.0;YAW;1509.0;THROTTLE;1064.0;AUX1;1681.0;AUX2;1500.0;AUX3;1500.0;AUX4;1500.0
ALTITUDE;0.0
DEBUG;DEBUG10.0;DEBUG2;0.0;DEBUG3;0.0;DEBUG4;0.0
ATTITUDE;ANGX;2.0;ANGY;0.0;HEAD;-119.0
STATUS;CYCLETIME;2904;I2CERR;0;PRESENT;23;MODE;0
RAW_IMU;AX;11.0;AY;-2.0;AZ;258.0;GX;0.0;GY;2.0;GZ;0.0;MAGX;93.0;MAGY;-73.0;MAGZ;11.0
MOT;0;1000.0;1;1000.0;2;1000.0;3;1000.0;4;0.0;5;0.0;6;0.0;7;0.0;
RC;ROLL;1495.0;PITCH;1506.0;YAW;1509.0;THROTTLE;1064.0;AUX1;1681.0;AUX2;1500.0;AUX3;1500.0;AUX4;1500.0
ALTITUDE;0.0
DEBUG;DEBUG10.0;DEBUG2;0.0;DEBUG3;0.0;DEBUG4;0.0
ATTITUDE;ANGX;2.0;ANGY;0.0;HEAD;-119.0
STATUS;CYCLETIME;2904;I2CERR;0;PRESENT;23;MODE;0
RAW_IMU;AX;9.0;AY;-2.0;AZ;257.0;GX;-1.0;GY;2.0;GZ;0.0;MAGX;93.0;MAGY;-73.0;MAGZ;11.0
MOT;0;1000.0;1;1000.0;2;1000.0;3;1000.0;4;0.0;5;0.0;6;0.0;7;0.0;
RC;ROLL;1495.0;PITCH;1506.0;YAW;1509.0;THROTTLE;1064.0;AUX1;1681.0;AUX2;1500.0;AUX3;1500.0;AUX4;1500.0
ALTITUDE;0.0
DEBUG;DEBUG10.0;DEBUG2;0.0;DEBUG3;0.0;DEBUG4;0.0
ATTITUDE;ANGX;2.0;ANGY;0.0;HEAD;-119.0
STATUS;CYCLETIME;2928;I2CERR;0;PRESENT;23;MODE;0
RAW_IMU;AX;9.0;AY;-2.0;AZ;258.0;GX;0.0;GY;1.0;GZ;0.0;MAGX;92.0;MAGY;-73.0;MAGZ;12.0
MOT;0;1000.0;1;1000.0;2;1000.0;3;1000.0;4;0.0;5;0.0;6;0.0;7;0.0;
RC;ROLL;1495.0;PITCH;1506.0;YAW;1509.0;THROTTLE;1064.0;AUX1;1681.0;AUX2;1500.0;AUX3;1500.0;AUX4;1500.0
ALTITUDE;0.0
DEBUG;DEBUG10.0;DEBUG2;0.0;DEBUG3;0.0;DEBUG4;0.0
ATTITUDE;ANGX;2.0;ANGY;0.0;HEAD;-119.0
STATUS;CYCLETIME;2924;I2CERR;0;PRESENT;23;MODE;0
RAW_IMU;AX;9.0;AY;-1.0;AZ;258.0;GX;0.0;GY;0.0;GZ;0.0;MAGX;92.0;MAGY;-73.0;MAGZ;12.0
MOT;0;1000.0;1;1000.0;2;1000.0;3;1000.0;4;0.0;5;0.0;6;0.0;7;0.0;
RC;ROLL;1495.0;PITCH;1506.0;YAW;1511.0;THROTTLE;1064.0;AUX1;1681.0;AUX2;1500.0;AUX3;1500.0;AUX4;1500.0
ALTITUDE;0.0
DEBUG;DEBUG10.0;DEBUG2;0.0;DEBUG3;0.0;DEBUG4;0.0
ATTITUDE;ANGX;2.0;ANGY;0.0;HEAD;-119.0
STATUS;CYCLETIME;3016;I2CERR;0;PRESENT;23;MODE;0
RAW_IMU;AX;8.0;AY;-3.0;AZ;255.0;GX;0.0;GY;0.0;GZ;0.0;MAGX;92.0;MAGY;-74.0;MAGZ;11.0
MOT;0;1000.0;1;1000.0;2;1000.0;3;1000.0;4;0.0;5;0.0;6;0.0;7;0.0;
RC;ROLL;1495.0;PITCH;1506.0;YAW;1511.0;THROTTLE;1064.0;AUX1;1681.0;AUX2;1500.0;AUX3;1500.0;AUX4;1500.0
ALTITUDE;0.0
DEBUG;DEBUG10.0;DEBUG2;0.0;DEBUG3;0.0;DEBUG4;0.0
ATTITUDE;ANGX;2.0;ANGY;0.0;HEAD;-119.0
STATUS;CYCLETIME;2904;I2CERR;0;PRESENT;23;MODE;0
RAW_IMU;AX;11.0;AY;-1.0;AZ;255.0;GX;0.0;GY;0.0;GZ;0.0;MAGX;92.0;MAGY;-74.0;MAGZ;11.0
MOT;0;1000.0;1;1000.0;2;1000.0;3;1000.0;4;0.0;5;0.0;6;0.0;7;0.0;
RC;ROLL;1495.0;PITCH;1506.0;YAW;1511.0;THROTTLE;1064.0;AUX1;1681.0;AUX2;1500.0;AUX3;1500.0;AUX4;1500.0
ALTITUDE;0.0
DEBUG;DEBUG10.0;DEBUG2;0.0;DEBUG3;0.0;DEBUG4;0.0
ATTITUDE;ANGX;2.0;ANGY;0.0;HEAD;-118.0
STATUS;CYCLETIME;2904;I2CERR;0;PRESENT;23;MODE;0
RAW_IMU;AX;10.0;AY;0.0;AZ;257.0;GX;-1.0;GY;0.0;GZ;1.0;MAGX;92.0;MAGY;-74.0;MAGZ;12.0
MOT;0;1000.0;1;1000.0;2;1000.0;3;1000.0;4;0.0;5;0.0;6;0.0;7;0.0;
RC;ROLL;1495.0;PITCH;1506.0;YAW;1511.0;THROTTLE;1064.0;AUX1;1681.0;AUX2;1500.0;AUX3;1500.0;AUX4;1500.0
ALTITUDE;0.0
DEBUG;DEBUG10.0;DEBUG2;0.0;DEBUG3;0.0;DEBUG4;0.0
ATTITUDE;ANGX;2.0;ANGY;0.0;HEAD;-118.0
STATUS;CYCLETIME;3068;I2CERR;0;PRESENT;23;MODE;0
RAW_IMU;AX;11.0;AY;0.0;AZ;257.0;GX;0.0;GY;0.0;GZ;0.0;MAGX;92.0;MAGY;-74.0;MAGZ;12.0
MOT;0;1000.0;1;1000.0;2;1000.0;3;1000.0;4;0.0;5;0.0;6;0.0;7;0.0;
RC;ROLL;1495.0;PITCH;1506.0;YAW;1511.0;THROTTLE;1064.0;AUX1;1681.0;AUX2;1500.0;AUX3;1500.0;AUX4;1500.0
ALTITUDE;0.0
DEBUG;DEBUG10.0;DEBUG2;0.0;DEBUG3;0.0;DEBUG4;0.0
ATTITUDE;ANGX;2.0;ANGY;0.0;HEAD;-118.0
STATUS;CYCLETIME;2904;I2CERR;0;PRESENT;23;MODE;0
RAW_IMU;AX;9.0;AY;-2.0;AZ;256.0;GX;0.0;GY;0.0;GZ;0.0;MAGX;91.0;MAGY;-74.0;MAGZ;11.0
MOT;0;1000.0;1;1000.0;2;1000.0;3;1000.0;4;0.0;5;0.0;6;0.0;7;0.0;
RC;ROLL;1495.0;PITCH;1506.0;YAW;1509.0;THROTTLE;1064.0;AUX1;1681.0;AUX2;1500.0;AUX3;1500.0;AUX4;1500.0
ALTITUDE;0.0
DEBUG;DEBUG10.0;DEBUG2;0.0;DEBUG3;0.0;DEBUG4;0.0
ATTITUDE;ANGX;2.0;ANGY;0.0;HEAD;-118.0
STATUS;CYCLETIME;2872;I2CERR;0;PRESENT;23;MODE;0
RAW_IMU;AX;9.0;AY;-1.0;AZ;256.0;GX;1.0;GY;1.0;GZ;0.0;MAGX;91.0;MAGY;-74.0;MAGZ;11.0
MOT;0;1000.0;1;1000.0;2;1000.0;3;1000.0;4;0.0;5;0.0;6;0.0;7;0.0;
RC;ROLL;1498.0;PITCH;1506.0;YAW;1509.0;THROTTLE;1064.0;AUX1;1681.0;AUX2;1500.0;AUX3;1500.0;AUX4;1500.0
ALTITUDE;0.0
DEBUG;DEBUG10.0;DEBUG2;0.0;DEBUG3;0.0;DEBUG4;0.0
ATTITUDE;ANGX;2.0;ANGY;0.0;HEAD;-118.0
STATUS;CYCLETIME;2896;I2CERR;0;PRESENT;23;MODE;0
RAW_IMU;AX;10.0;AY;0.0;AZ;256.0;GX;0.0;GY;0.0;GZ;0.0;MAGX;91.0;MAGY;-74.0;MAGZ;11.0
MOT;0;1000.0;1;1000.0;2;1000.0;3;1000.0;4;0.0;5;0.0;6;0.0;7;0.0;
RC;ROLL;1498.0;PITCH;1506.0;YAW;1509.0;THROTTLE;1064.0;AUX1;1681.0;AUX2;1500.0;AUX3;1500.0;AUX4;1500.0
ALTITUDE;0.0
DEBUG;DEBUG10.0;DEBUG2;0.0;DEBUG3;0.0;DEBUG4;0.0
ATTITUDE;ANGX;2.0;ANGY;0.0;HEAD;-118.0
STATUS;CYCLETIME;2908;I2CERR;0;PRESENT;23;MODE;0
RAW_IMU;AX;9.0;AY;-1.0;AZ;258.0;GX;0.0;GY;0.0;GZ;0.0;MAGX;91.0;MAGY;-74.0;MAGZ;12.0
MOT;0;1000.0;1;1000.0;2;1000.0;3;1000.0;4;0.0;5;0.0;6;0.0;7;0.0;
RC;ROLL;1498.0;PITCH;1506.0;YAW;1509.0;THROTTLE;1064.0;AUX1;1681.0;AUX2;1500.0;AUX3;1500.0;AUX4;1500.0
ALTITUDE;0.0
DEBUG;DEBUG10.0;DEBUG2;0.0;DEBUG3;0.0;DEBUG4;0.0
ATTITUDE;ANGX;2.0;ANGY;0.0;HEAD;-118.0
STATUS;CYCLETIME;2916;I2CERR;0;PRESENT;23;MODE;0
RAW_IMU;AX;8.0;AY;0.0;AZ;259.0;GX;2.0;GY;0.0;GZ;0.0;MAGX;91.0;MAGY;-74.0;MAGZ;12.0
MOT;0;1000.0;1;1000.0;2;1000.0;3;1000.0;4;0.0;5;0.0;6;0.0;7;0.0;
RC;ROLL;1498.0;PITCH;1506.0;YAW;1509.0;THROTTLE;1064.0;AUX1;1681.0;AUX2;1500.0;AUX3;1500.0;AUX4;1500.0
ALTITUDE;0.0
DEBUG;DEBUG10.0;DEBUG2;0.0;DEBUG3;0.0;DEBUG4;0.0
ATTITUDE;ANGX;2.0;ANGY;0.0;HEAD;-118.0
STATUS;CYCLETIME;2892;I2CERR;0;PRESENT;23;MODE;0
RAW_IMU;AX;11.0;AY;1.0;AZ;257.0;GX;1.0;GY;0.0;GZ;0.0;MAGX;92.0;MAGY;-74.0;MAGZ;12.0
MOT;0;1000.0;1;1000.0;2;1000.0;3;1000.0;4;0.0;5;0.0;6;0.0;7;0.0;
RC;ROLL;1496.0;PITCH;1506.0;YAW;1509.0;THROTTLE;1064.0;AUX1;1681.0;AUX2;1500.0;AUX3;1500.0;AUX4;1500.0
ALTITUDE;0.0
DEBUG;DEBUG10.0;DEBUG2;0.0;DEBUG3;0.0;DEBUG4;0.0
ATTITUDE;ANGX;2.0;ANGY;0.0;HEAD;-118.0
STATUS;CYCLETIME;2912;I2CERR;0;PRESENT;23;MODE;0
RAW_IMU;AX;10.0;AY;-1.0;AZ;258.0;GX;0.0;GY;0.0;GZ;0.0;MAGX;92.0;MAGY;-74.0;MAGZ;12.0
MOT;0;1000.0;1;1000.0;2;1000.0;3;1000.0;4;0.0;5;0.0;6;0.0;7;0.0;
RC;ROLL;1496.0;PITCH;1506.0;YAW;1509.0;THROTTLE;1064.0;AUX1;1681.0;AUX2;1500.0;AUX3;1500.0;AUX4;1500.0
ALTITUDE;0.0
DEBUG;DEBUG10.0;DEBUG2;0.0;DEBUG3;0.0;DEBUG4;0.0
ATTITUDE;ANGX;3.0;ANGY;0.0;HEAD;-118.0
STATUS;CYCLETIME;3008;I2CERR;0;PRESENT;23;MODE;0
RAW_IMU;AX;11.0;AY;-2.0;AZ;258.0;GX;0.0;GY;0.0;GZ;0.0;MAGX;92.0;MAGY;-74.0;MAGZ;12.0
MOT;0;1000.0;1;1000.0;2;1000.0;3;1000.0;4;0.0;5;0.0;6;0.0;7;0.0;
RC;ROLL;1496.0;PITCH;1506.0;YAW;1509.0;THROTTLE;1066.0;AUX1;1681.0;AUX2;1500.0;AUX3;1500.0;AUX4;1500.0
ALTITUDE;0.0
DEBUG;DEBUG10.0;DEBUG2;0.0;DEBUG3;0.0;DEBUG4;0.0
ATTITUDE;ANGX;2.0;ANGY;0.0;HEAD;-118.0
STATUS;CYCLETIME;2912;I2CERR;0;PRESENT;23;MODE;0
RAW_IMU;AX;13.0;AY;-3.0;AZ;258.0;GX;-1.0;GY;0.0;GZ;0.0;MAGX;92.0;MAGY;-74.0;MAGZ;12.0
MOT;0;1000.0;1;1000.0;2;1000.0;3;1000.0;4;0.0;5;0.0;6;0.0;7;0.0;
RC;ROLL;1496.0;PITCH;1506.0;YAW;1509.0;THROTTLE;1066.0;AUX1;1681.0;AUX2;1500.0;AUX3;1500.0;AUX4;1500.0
ALTITUDE;0.0
DEBUG;DEBUG10.0;DEBUG2;0.0;DEBUG3;0.0;DEBUG4;0.0
ATTITUDE;ANGX;2.0;ANGY;0.0;HEAD;-118.0
STATUS;CYCLETIME;2936;I2CERR;0;PRESENT;23;MODE;0
RAW_IMU;AX;11.0;AY;-2.0;AZ;258.0;GX;0.0;GY;0.0;GZ;0.0;MAGX;92.0;MAGY;-74.0;MAGZ;13.0
MOT;0;1000.0;1;1000.0;2;1000.0;3;1000.0;4;0.0;5;0.0;6;0.0;7;0.0;
RC;ROLL;1496.0;PITCH;1508.0;YAW;1509.0;THROTTLE;1064.0;AUX1;1681.0;AUX2;1500.0;AUX3;1500.0;AUX4;1500.0
ALTITUDE;0.0
DEBUG;DEBUG10.0;DEBUG2;0.0;DEBUG3;0.0;DEBUG4;0.0
ATTITUDE;ANGX;2.0;ANGY;0.0;HEAD;-119.0
STATUS;CYCLETIME;2936;I2CERR;0;PRESENT;23;MODE;0
RAW_IMU;AX;12.0;AY;-1.0;AZ;257.0;GX;0.0;GY;-1.0;GZ;0.0;MAGX;92.0;MAGY;-74.0;MAGZ;13.0
MOT;0;1000.0;1;1000.0;2;1000.0;3;1000.0;4;0.0;5;0.0;6;0.0;7;0.0;
RC;ROLL;1496.0;PITCH;1508.0;YAW;1509.0;THROTTLE;1064.0;AUX1;1681.0;AUX2;1500.0;AUX3;1500.0;AUX4;1500.0
ALTITUDE;0.0
DEBUG;DEBUG10.0;DEBUG2;0.0;DEBUG3;0.0;DEBUG4;0.0
ATTITUDE;ANGX;2.0;ANGY;0.0;HEAD;-119.0
STATUS;CYCLETIME;3188;I2CERR;0;PRESENT;23;MODE;0
RAW_IMU;AX;11.0;AY;-1.0;AZ;258.0;GX;0.0;GY;0.0;GZ;0.0;MAGX;92.0;MAGY;-73.0;MAGZ;11.0
MOT;0;1000.0;1;1000.0;2;1000.0;3;1000.0;4;0.0;5;0.0;6;0.0;7;0.0;
RC;ROLL;1496.0;PITCH;1508.0;YAW;1509.0;THROTTLE;1064.0;AUX1;1681.0;AUX2;1500.0;AUX3;1500.0;AUX4;1500.0
ALTITUDE;0.0
DEBUG;DEBUG10.0;DEBUG2;0.0;DEBUG3;0.0;DEBUG4;0.0
ATTITUDE;ANGX;2.0;ANGY;0.0;HEAD;-119.0
STATUS;CYCLETIME;2912;I2CERR;0;PRESENT;23;MODE;0
RAW_IMU;AX;12.0;AY;0.0;AZ;258.0;GX;0.0;GY;0.0;GZ;0.0;MAGX;92.0;MAGY;-73.0;MAGZ;11.0
MOT;0;1000.0;1;1000.0;2;1000.0;3;1000.0;4;0.0;5;0.0;6;0.0;7;0.0;
RC;ROLL;1496.0;PITCH;1508.0;YAW;1509.0;THROTTLE;1064.0;AUX1;1681.0;AUX2;1500.0;AUX3;1500.0;AUX4;1500.0
ALTITUDE;0.0
DEBUG;DEBUG10.0;DEBUG2;0.0;DEBUG3;0.0;DEBUG4;0.0
ATTITUDE;ANGX;2.0;ANGY;0.0;HEAD;-118.0
STATUS;CYCLETIME;2960;I2CERR;0;PRESENT;23;MODE;0
RAW_IMU;AX;13.0;AY;-1.0;AZ;256.0;GX;0.0;GY;1.0;GZ;0.0;MAGX;92.0;MAGY;-73.0;MAGZ;11.0
MOT;0;1000.0;1;1000.0;2;1000.0;3;1000.0;4;0.0;5;0.0;6;0.0;7;0.0;
RC;ROLL;1496.0;PITCH;1506.0;YAW;1509.0;THROTTLE;1064.0;AUX1;1681.0;AUX2;1500.0;AUX3;1500.0;AUX4;1500.0
ALTITUDE;0.0
DEBUG;DEBUG10.0;DEBUG2;0.0;DEBUG3;0.0;DEBUG4;0.0
ATTITUDE;ANGX;2.0;ANGY;0.0;HEAD;-118.0
STATUS;CYCLETIME;2900;I2CERR;0;PRESENT;23;MODE;0
RAW_IMU;AX;12.0;AY;-1.0;AZ;257.0;GX;0.0;GY;1.0;GZ;0.0;MAGX;93.0;MAGY;-74.0;MAGZ;12.0
MOT;0;1000.0;1;1000.0;2;1000.0;3;1000.0;4;0.0;5;0.0;6;0.0;7;0.0;
RC;ROLL;1496.0;PITCH;1506.0;YAW;1509.0;THROTTLE;1064.0;AUX1;1681.0;AUX2;1500.0;AUX3;1500.0;AUX4;1500.0
ALTITUDE;0.0
DEBUG;DEBUG10.0;DEBUG2;0.0;DEBUG3;0.0;DEBUG4;0.0
ATTITUDE;ANGX;2.0;ANGY;0.0;HEAD;-118.0
STATUS;CYCLETIME;2980;I2CERR;0;PRESENT;23;MODE;0
RAW_IMU;AX;11.0;AY;-1.0;AZ;257.0;GX;-1.0;GY;0.0;GZ;0.0;MAGX;93.0;MAGY;-74.0;MAGZ;12.0
MOT;0;1000.0;1;1000.0;2;1000.0;3;1000.0;4;0.0;5;0.0;6;0.0;7;0.0;
RC;ROLL;1496.0;PITCH;1506.0;YAW;1509.0;THROTTLE;1064.0;AUX1;1681.0;AUX2;1500.0;AUX3;1500.0;AUX4;1500.0
ALTITUDE;0.0
DEBUG;DEBUG10.0;DEBUG2;0.0;DEBUG3;0.0;DEBUG4;0.0
ATTITUDE;ANGX;2.0;ANGY;0.0;HEAD;-118.0
STATUS;CYCLETIME;2900;I2CERR;0;PRESENT;23;MODE;0
RAW_IMU;AX;6.0;AY;-1.0;AZ;258.0;GX;-3.0;GY;0.0;GZ;1.0;MAGX;92.0;MAGY;-73.0;MAGZ;10.0
MOT;0;1000.0;1;1000.0;2;1000.0;3;1000.0;4;0.0;5;0.0;6;0.0;7;0.0;
RC;ROLL;1496.0;PITCH;1506.0;YAW;1509.0;THROTTLE;1064.0;AUX1;1681.0;AUX2;1500.0;AUX3;1500.0;AUX4;1500.0
ALTITUDE;0.0
DEBUG;DEBUG10.0;DEBUG2;0.0;DEBUG3;0.0;DEBUG4;0.0
ATTITUDE;ANGX;2.0;ANGY;0.0;HEAD;-118.0
STATUS;CYCLETIME;2912;I2CERR;0;PRESENT;23;MODE;0
RAW_IMU;AX;7.0;AY;0.0;AZ;259.0;GX;-1.0;GY;-1.0;GZ;0.0;MAGX;92.0;MAGY;-73.0;MAGZ;10.0
MOT;0;1000.0;1;1000.0;2;1000.0;3;1000.0;4;0.0;5;0.0;6;0.0;7;0.0;
RC;ROLL;1496.0;PITCH;1506.0;YAW;1509.0;THROTTLE;1064.0;AUX1;1681.0;AUX2;1500.0;AUX3;1500.0;AUX4;1500.0
ALTITUDE;0.0
DEBUG;DEBUG10.0;DEBUG2;0.0;DEBUG3;0.0;DEBUG4;0.0
ATTITUDE;ANGX;1.0;ANGY;0.0;HEAD;-118.0
STATUS;CYCLETIME;2992;I2CERR;0;PRESENT;23;MODE;0
RAW_IMU;AX;10.0;AY;2.0;AZ;257.0;GX;0.0;GY;-2.0;GZ;0.0;MAGX;93.0;MAGY;-74.0;MAGZ;10.0
MOT;0;1000.0;1;1000.0;2;1000.0;3;1000.0;4;0.0;5;0.0;6;0.0;7;0.0;
RC;ROLL;1496.0;PITCH;1506.0;YAW;1509.0;THROTTLE;1064.0;AUX1;1681.0;AUX2;1500.0;AUX3;1500.0;AUX4;1500.0
ALTITUDE;0.0
DEBUG;DEBUG10.0;DEBUG2;0.0;DEBUG3;0.0;DEBUG4;0.0
ATTITUDE;ANGX;1.0;ANGY;0.0;HEAD;-118.0
STATUS;CYCLETIME;2832;I2CERR;0;PRESENT;23;MODE;0
RAW_IMU;AX;6.0;AY;0.0;AZ;257.0;GX;0.0;GY;0.0;GZ;0.0;MAGX;93.0;MAGY;-74.0;MAGZ;10.0
MOT;0;1000.0;1;1000.0;2;1000.0;3;1000.0;4;0.0;5;0.0;6;0.0;7;0.0;
RC;ROLL;1496.0;PITCH;1506.0;YAW;1509.0;THROTTLE;1066.0;AUX1;1681.0;AUX2;1500.0;AUX3;1500.0;AUX4;1500.0
ALTITUDE;0.0
DEBUG;DEBUG10.0;DEBUG2;0.0;DEBUG3;0.0;DEBUG4;0.0
ATTITUDE;ANGX;1.0;ANGY;0.0;HEAD;-118.0
STATUS;CYCLETIME;2832;I2CERR;0;PRESENT;23;MODE;0
RAW_IMU;AX;8.0;AY;-3.0;AZ;254.0;GX;-1.0;GY;1.0;GZ;0.0;MAGX;94.0;MAGY;-73.0;MAGZ;11.0
MOT;0;1000.0;1;1000.0;2;1000.0;3;1000.0;4;0.0;5;0.0;6;0.0;7;0.0;
RC;ROLL;1494.0;PITCH;1506.0;YAW;1509.0;THROTTLE;1066.0;AUX1;1679.0;AUX2;1500.0;AUX3;1500.0;AUX4;1500.0
ALTITUDE;0.0
DEBUG;DEBUG10.0;DEBUG2;0.0;DEBUG3;0.0;DEBUG4;0.0
ATTITUDE;ANGX;1.0;ANGY;0.0;HEAD;-118.0
STATUS;CYCLETIME;2944;I2CERR;0;PRESENT;23;MODE;0
RAW_IMU;AX;6.0;AY;-5.0;AZ;257.0;GX;-1.0;GY;0.0;GZ;0.0;MAGX;94.0;MAGY;-73.0;MAGZ;11.0
MOT;0;1000.0;1;1000.0;2;1000.0;3;1000.0;4;0.0;5;0.0;6;0.0;7;0.0;
RC;ROLL;1494.0;PITCH;1508.0;YAW;1509.0;THROTTLE;1066.0;AUX1;1679.0;AUX2;1500.0;AUX3;1500.0;AUX4;1500.0
ALTITUDE;0.0
DEBUG;DEBUG10.0;DEBUG2;0.0;DEBUG3;0.0;DEBUG4;0.0
ATTITUDE;ANGX;1.0;ANGY;0.0;HEAD;-118.0
STATUS;CYCLETIME;2852;I2CERR;0;PRESENT;23;MODE;0
RAW_IMU;AX;7.0;AY;-3.0;AZ;258.0;GX;1.0;GY;-1.0;GZ;-1.0;MAGX;95.0;MAGY;-72.0;MAGZ;8.0
MOT;0;1000.0;1;1000.0;2;1000.0;3;1000.0;4;0.0;5;0.0;6;0.0;7;0.0;
RC;ROLL;1494.0;PITCH;1508.0;YAW;1509.0;THROTTLE;1066.0;AUX1;1679.0;AUX2;1500.0;AUX3;1500.0;AUX4;1500.0
ALTITUDE;0.0
DEBUG;DEBUG10.0;DEBUG2;0.0;DEBUG3;0.0;DEBUG4;0.0
ATTITUDE;ANGX;1.0;ANGY;0.0;HEAD;-118.0
STATUS;CYCLETIME;2860;I2CERR;0;PRESENT;23;MODE;0
RAW_IMU;AX;5.0;AY;-2.0;AZ;257.0;GX;0.0;GY;0.0;GZ;-1.0;MAGX;95.0;MAGY;-72.0;MAGZ;8.0
MOT;0;1000.0;1;1000.0;2;1000.0;3;1000.0;4;0.0;5;0.0;6;0.0;7;0.0;
RC;ROLL;1494.0;PITCH;1508.0;YAW;1509.0;THROTTLE;1066.0;AUX1;1681.0;AUX2;1500.0;AUX3;1500.0;AUX4;1500.0
ALTITUDE;0.0
DEBUG;DEBUG10.0;DEBUG2;0.0;DEBUG3;0.0;DEBUG4;0.0
ATTITUDE;ANGX;1.0;ANGY;0.0;HEAD;-118.0
STATUS;CYCLETIME;2836;I2CERR;0;PRESENT;23;MODE;0
RAW_IMU;AX;5.0;AY;-4.0;AZ;257.0;GX;0.0;GY;1.0;GZ;0.0;MAGX;95.0;MAGY;-73.0;MAGZ;9.0
MOT;0;1000.0;1;1000.0;2;1000.0;3;1000.0;4;0.0;5;0.0;6;0.0;7;0.0;
RC;ROLL;1494.0;PITCH;1508.0;YAW;1509.0;THROTTLE;1066.0;AUX1;1681.0;AUX2;1500.0;AUX3;1500.0;AUX4;1500.0
ALTITUDE;0.0
DEBUG;DEBUG10.0;DEBUG2;0.0;DEBUG3;0.0;DEBUG4;0.0
ATTITUDE;ANGX;1.0;ANGY;0.0;HEAD;-118.0
STATUS;CYCLETIME;2836;I2CERR;0;PRESENT;23;MODE;0
RAW_IMU;AX;6.0;AY;-4.0;AZ;257.0;GX;0.0;GY;1.0;GZ;0.0;MAGX;95.0;MAGY;-73.0;MAGZ;9.0
MOT;0;1000.0;1;1000.0;2;1000.0;3;1000.0;4;0.0;5;0.0;6;0.0;7;0.0;
RC;ROLL;1494.0;PITCH;1508.0;YAW;1509.0;THROTTLE;1066.0;AUX1;1681.0;AUX2;1500.0;AUX3;1500.0;AUX4;1500.0
ALTITUDE;0.0
DEBUG;DEBUG10.0;DEBUG2;0.0;DEBUG3;0.0;DEBUG4;0.0
ATTITUDE;ANGX;1.0;ANGY;0.0;HEAD;-118.0
STATUS;CYCLETIME;3016;I2CERR;0;PRESENT;23;MODE;0
RAW_IMU;AX;10.0;AY;-3.0;AZ;255.0;GX;0.0;GY;1.0;GZ;0.0;MAGX;94.0;MAGY;-74.0;MAGZ;9.0
MOT;0;1000.0;1;1000.0;2;1000.0;3;1000.0;4;0.0;5;0.0;6;0.0;7;0.0;
RC;ROLL;1494.0;PITCH;1508.0;YAW;1509.0;THROTTLE;1064.0;AUX1;1681.0;AUX2;1500.0;AUX3;1500.0;AUX4;1500.0
ALTITUDE;0.0
DEBUG;DEBUG10.0;DEBUG2;0.0;DEBUG3;0.0;DEBUG4;0.0
ATTITUDE;ANGX;1.0;ANGY;0.0;HEAD;-118.0
STATUS;CYCLETIME;2952;I2CERR;0;PRESENT;23;MODE;0
RAW_IMU;AX;8.0;AY;-1.0;AZ;255.0;GX;0.0;GY;0.0;GZ;0.0;MAGX;94.0;MAGY;-74.0;MAGZ;9.0
MOT;0;1000.0;1;1000.0;2;1000.0;3;1000.0;4;0.0;5;0.0;6;0.0;7;0.0;
RC;ROLL;1494.0;PITCH;1506.0;YAW;1509.0;THROTTLE;1064.0;AUX1;1681.0;AUX2;1500.0;AUX3;1500.0;AUX4;1500.0
ALTITUDE;0.0
DEBUG;DEBUG10.0;DEBUG2;0.0;DEBUG3;0.0;DEBUG4;0.0
ATTITUDE;ANGX;1.0;ANGY;0.0;HEAD;-118.0
STATUS;CYCLETIME;3168;I2CERR;0;PRESENT;23;MODE;0
RAW_IMU;AX;7.0;AY;-1.0;AZ;257.0;GX;0.0;GY;0.0;GZ;0.0;MAGX;93.0;MAGY;-74.0;MAGZ;9.0
MOT;0;1000.0;1;1000.0;2;1000.0;3;1000.0;4;0.0;5;0.0;6;0.0;7;0.0;
RC;ROLL;1494.0;PITCH;1506.0;YAW;1509.0;THROTTLE;1066.0;AUX1;1681.0;AUX2;1500.0;AUX3;1500.0;AUX4;1500.0
ALTITUDE;0.0
DEBUG;DEBUG10.0;DEBUG2;0.0;DEBUG3;0.0;DEBUG4;0.0
ATTITUDE;ANGX;1.0;ANGY;0.0;HEAD;-118.0
STATUS;CYCLETIME;2908;I2CERR;0;PRESENT;23;MODE;0
RAW_IMU;AX;8.0;AY;-2.0;AZ;257.0;GX;1.0;GY;0.0;GZ;0.0;MAGX;93.0;MAGY;-74.0;MAGZ;9.0
MOT;0;1000.0;1;1000.0;2;1000.0;3;1000.0;4;0.0;5;0.0;6;0.0;7;0.0;
RC;ROLL;1494.0;PITCH;1506.0;YAW;1509.0;THROTTLE;1066.0;AUX1;1681.0;AUX2;1500.0;AUX3;1500.0;AUX4;1500.0
ALTITUDE;0.0
DEBUG;DEBUG10.0;DEBUG2;0.0;DEBUG3;0.0;DEBUG4;0.0
ATTITUDE;ANGX;1.0;ANGY;0.0;HEAD;-118.0
STATUS;CYCLETIME;2816;I2CERR;0;PRESENT;23;MODE;0
RAW_IMU;AX;8.0;AY;-4.0;AZ;256.0;GX;0.0;GY;1.0;GZ;0.0;MAGX;93.0;MAGY;-74.0;MAGZ;9.0
MOT;0;1000.0;1;1000.0;2;1000.0;3;1000.0;4;0.0;5;0.0;6;0.0;7;0.0;
RC;ROLL;1494.0;PITCH;1506.0;YAW;1509.0;THROTTLE;1066.0;AUX1;1681.0;AUX2;1500.0;AUX3;1500.0;AUX4;1500.0
ALTITUDE;0.0
DEBUG;DEBUG10.0;DEBUG2;0.0;DEBUG3;0.0;DEBUG4;0.0
ATTITUDE;ANGX;1.0;ANGY;0.0;HEAD;-118.0
STATUS;CYCLETIME;2916;I2CERR;0;PRESENT;23;MODE;0
RAW_IMU;AX;7.0;AY;-3.0;AZ;258.0;GX;0.0;GY;0.0;GZ;0.0;MAGX;94.0;MAGY;-72.0;MAGZ;9.0
MOT;0;1000.0;1;1000.0;2;1000.0;3;1000.0;4;0.0;5;0.0;6;0.0;7;0.0;
RC;ROLL;1494.0;PITCH;1506.0;YAW;1509.0;THROTTLE;1066.0;AUX1;1681.0;AUX2;1500.0;AUX3;1500.0;AUX4;1500.0
ALTITUDE;0.0
DEBUG;DEBUG10.0;DEBUG2;0.0;DEBUG3;0.0;DEBUG4;0.0
ATTITUDE;ANGX;1.0;ANGY;0.0;HEAD;-118.0
STATUS;CYCLETIME;2956;I2CERR;0;PRESENT;23;MODE;0
RAW_IMU;AX;6.0;AY;-2.0;AZ;257.0;GX;1.0;GY;0.0;GZ;0.0;MAGX;94.0;MAGY;-72.0;MAGZ;9.0
MOT;0;1000.0;1;1000.0;2;1000.0;3;1000.0;4;0.0;5;0.0;6;0.0;7;0.0;
RC;ROLL;1494.0;PITCH;1506.0;YAW;1509.0;THROTTLE;1066.0;AUX1;1681.0;AUX2;1500.0;AUX3;1500.0;AUX4;1500.0
ALTITUDE;0.0
DEBUG;DEBUG10.0;DEBUG2;0.0;DEBUG3;0.0;DEBUG4;0.0
ATTITUDE;ANGX;1.0;ANGY;0.0;HEAD;-118.0
STATUS;CYCLETIME;2900;I2CERR;0;PRESENT;23;MODE;0
RAW_IMU;AX;8.0;AY;-2.0;AZ;257.0;GX;1.0;GY;0.0;GZ;0.0;MAGX;94.0;MAGY;-73.0;MAGZ;8.0
MOT;0;1000.0;1;1000.0;2;1000.0;3;1000.0;4;0.0;5;0.0;6;0.0;7;0.0;
RC;ROLL;1494.0;PITCH;1506.0;YAW;1509.0;THROTTLE;1066.0;AUX1;1681.0;AUX2;1500.0;AUX3;1500.0;AUX4;1500.0
ALTITUDE;0.0
DEBUG;DEBUG10.0;DEBUG2;0.0;DEBUG3;0.0;DEBUG4;0.0
ATTITUDE;ANGX;2.0;ANGY;0.0;HEAD;-118.0
STATUS;CYCLETIME;2896;I2CERR;0;PRESENT;23;MODE;0
RAW_IMU;AX;7.0;AY;-2.0;AZ;257.0;GX;0.0;GY;0.0;GZ;0.0;MAGX;94.0;MAGY;-73.0;MAGZ;8.0
MOT;0;1000.0;1;1000.0;2;1000.0;3;1000.0;4;0.0;5;0.0;6;0.0;7;0.0;
RC;ROLL;1494.0;PITCH;1506.0;YAW;1509.0;THROTTLE;1066.0;AUX1;1681.0;AUX2;1500.0;AUX3;1500.0;AUX4;1500.0
ALTITUDE;0.0
DEBUG;DEBUG10.0;DEBUG2;0.0;DEBUG3;0.0;DEBUG4;0.0
ATTITUDE;ANGX;2.0;ANGY;0.0;HEAD;-118.0
STATUS;CYCLETIME;2892;I2CERR;0;PRESENT;23;MODE;0
RAW_IMU;AX;7.0;AY;-3.0;AZ;256.0;GX;0.0;GY;0.0;GZ;0.0;MAGX;93.0;MAGY;-73.0;MAGZ;10.0
MOT;0;1000.0;1;1000.0;2;1000.0;3;1000.0;4;0.0;5;0.0;6;0.0;7;0.0;
RC;ROLL;1494.0;PITCH;1506.0;YAW;1509.0;THROTTLE;1064.0;AUX1;1681.0;AUX2;1500.0;AUX3;1500.0;AUX4;1500.0
ALTITUDE;0.0
DEBUG;DEBUG10.0;DEBUG2;0.0;DEBUG3;0.0;DEBUG4;0.0
ATTITUDE;ANGX;2.0;ANGY;0.0;HEAD;-118.0
STATUS;CYCLETIME;2928;I2CERR;0;PRESENT;23;MODE;0
RAW_IMU;AX;9.0;AY;-4.0;AZ;254.0;GX;0.0;GY;0.0;GZ;0.0;MAGX;93.0;MAGY;-73.0;MAGZ;10.0
MOT;0;1000.0;1;1000.0;2;1000.0;3;1000.0;4;0.0;5;0.0;6;0.0;7;0.0;
RC;ROLL;1494.0;PITCH;1506.0;YAW;1509.0;THROTTLE;1064.0;AUX1;1681.0;AUX2;1500.0;AUX3;1500.0;AUX4;1500.0
ALTITUDE;0.0
DEBUG;DEBUG10.0;DEBUG2;0.0;DEBUG3;0.0;DEBUG4;0.0
ATTITUDE;ANGX;2.0;ANGY;0.0;HEAD;-118.0
STATUS;CYCLETIME;3056;I2CERR;0;PRESENT;23;MODE;0
RAW_IMU;AX;10.0;AY;-3.0;AZ;255.0;GX;0.0;GY;0.0;GZ;0.0;MAGX;92.0;MAGY;-73.0;MAGZ;11.0
MOT;0;1000.0;1;1000.0;2;1000.0;3;1000.0;4;0.0;5;0.0;6;0.0;7;0.0;
RC;ROLL;1494.0;PITCH;1506.0;YAW;1509.0;THROTTLE;1066.0;AUX1;1681.0;AUX2;1500.0;AUX3;1500.0;AUX4;1500.0
ALTITUDE;0.0
DEBUG;DEBUG10.0;DEBUG2;0.0;DEBUG3;0.0;DEBUG4;0.0
ATTITUDE;ANGX;2.0;ANGY;0.0;HEAD;-118.0
STATUS;CYCLETIME;2924;I2CERR;0;PRESENT;23;MODE;0
RAW_IMU;AX;7.0;AY;-2.0;AZ;260.0;GX;1.0;GY;0.0;GZ;0.0;MAGX;92.0;MAGY;-73.0;MAGZ;11.0
MOT;0;1000.0;1;1000.0;2;1000.0;3;1000.0;4;0.0;5;0.0;6;0.0;7;0.0;
RC;ROLL;1494.0;PITCH;1506.0;YAW;1509.0;THROTTLE;1066.0;AUX1;1681.0;AUX2;1500.0;AUX3;1500.0;AUX4;1500.0
ALTITUDE;0.0
DEBUG;DEBUG10.0;DEBUG2;0.0;DEBUG3;0.0;DEBUG4;0.0
ATTITUDE;ANGX;2.0;ANGY;0.0;HEAD;-118.0
STATUS;CYCLETIME;2860;I2CERR;0;PRESENT;23;MODE;0
RAW_IMU;AX;8.0;AY;-1.0;AZ;257.0;GX;-2.0;GY;0.0;GZ;0.0;MAGX;94.0;MAGY;-73.0;MAGZ;10.0
MOT;0;1000.0;1;1000.0;2;1000.0;3;1000.0;4;0.0;5;0.0;6;0.0;7;0.0;
RC;ROLL;1494.0;PITCH;1506.0;YAW;1509.0;THROTTLE;1066.0;AUX1;1681.0;AUX2;1500.0;AUX3;1500.0;AUX4;1500.0
ALTITUDE;0.0
DEBUG;DEBUG10.0;DEBUG2;0.0;DEBUG3;0.0;DEBUG4;0.0
ATTITUDE;ANGX;2.0;ANGY;0.0;HEAD;-118.0
STATUS;CYCLETIME;2928;I2CERR;0;PRESENT;23;MODE;0
RAW_IMU;AX;10.0;AY;-1.0;AZ;257.0;GX;0.0;GY;0.0;GZ;0.0;MAGX;94.0;MAGY;-73.0;MAGZ;10.0
MOT;0;1000.0;1;1000.0;2;1000.0;3;1000.0;4;0.0;5;0.0;6;0.0;7;0.0;
RC;ROLL;1494.0;PITCH;1506.0;YAW;1509.0;THROTTLE;1066.0;AUX1;1681.0;AUX2;1500.0;AUX3;1500.0;AUX4;1500.0
ALTITUDE;0.0
DEBUG;DEBUG10.0;DEBUG2;0.0;DEBUG3;0.0;DEBUG4;0.0
ATTITUDE;ANGX;2.0;ANGY;0.0;HEAD;-118.0
STATUS;CYCLETIME;2936;I2CERR;0;PRESENT;23;MODE;0
RAW_IMU;AX;9.0;AY;0.0;AZ;259.0;GX;0.0;GY;0.0;GZ;0.0;MAGX;93.0;MAGY;-73.0;MAGZ;10.0
MOT;0;1000.0;1;1000.0;2;1000.0;3;1000.0;4;0.0;5;0.0;6;0.0;7;0.0;
RC;ROLL;1494.0;PITCH;1506.0;YAW;1509.0;THROTTLE;1064.0;AUX1;1681.0;AUX2;1500.0;AUX3;1500.0;AUX4;1500.0
ALTITUDE;0.0
DEBUG;DEBUG10.0;DEBUG2;0.0;DEBUG3;0.0;DEBUG4;0.0
ATTITUDE;ANGX;2.0;ANGY;0.0;HEAD;-118.0
STATUS;CYCLETIME;2892;I2CERR;0;PRESENT;23;MODE;0
RAW_IMU;AX;8.0;AY;-3.0;AZ;256.0;GX;0.0;GY;0.0;GZ;0.0;MAGX;93.0;MAGY;-73.0;MAGZ;10.0
MOT;0;1000.0;1;1000.0;2;1000.0;3;1000.0;4;0.0;5;0.0;6;0.0;7;0.0;
RC;ROLL;1494.0;PITCH;1506.0;YAW;1509.0;THROTTLE;1064.0;AUX1;1681.0;AUX2;1500.0;AUX3;1500.0;AUX4;1500.0
ALTITUDE;0.0
DEBUG;DEBUG10.0;DEBUG2;0.0;DEBUG3;0.0;DEBUG4;0.0
ATTITUDE;ANGX;2.0;ANGY;0.0;HEAD;-118.0
STATUS;CYCLETIME;2896;I2CERR;0;PRESENT;23;MODE;0
RAW_IMU;AX;9.0;AY;-2.0;AZ;255.0;GX;1.0;GY;0.0;GZ;0.0;MAGX;93.0;MAGY;-73.0;MAGZ;10.0
MOT;0;1000.0;1;1000.0;2;1000.0;3;1000.0;4;0.0;5;0.0;6;0.0;7;0.0;
RC;ROLL;1494.0;PITCH;1506.0;YAW;1509.0;THROTTLE;1064.0;AUX1;1681.0;AUX2;1500.0;AUX3;1500.0;AUX4;1500.0
ALTITUDE;0.0
DEBUG;DEBUG10.0;DEBUG2;0.0;DEBUG3;0.0;DEBUG4;0.0
ATTITUDE;ANGX;2.0;ANGY;0.0;HEAD;-118.0
STATUS;CYCLETIME;2892;I2CERR;0;PRESENT;23;MODE;0
RAW_IMU;AX;8.0;AY;-1.0;AZ;254.0;GX;0.0;GY;0.0;GZ;0.0;MAGX;92.0;MAGY;-74.0;MAGZ;11.0
MOT;0;1000.0;1;1000.0;2;1000.0;3;1000.0;4;0.0;5;0.0;6;0.0;7;0.0;
RC;ROLL;1497.0;PITCH;1503.0;YAW;1513.0;THROTTLE;1064.0;AUX1;1681.0;AUX2;1500.0;AUX3;1500.0;AUX4;1500.0
ALTITUDE;0.0
DEBUG;DEBUG10.0;DEBUG2;0.0;DEBUG3;0.0;DEBUG4;0.0
ATTITUDE;ANGX;2.0;ANGY;0.0;HEAD;-118.0
STATUS;CYCLETIME;2912;I2CERR;0;PRESENT;23;MODE;0
RAW_IMU;AX;9.0;AY;-1.0;AZ;255.0;GX;0.0;GY;0.0;GZ;0.0;MAGX;92.0;MAGY;-74.0;MAGZ;11.0
MOT;0;1000.0;1;1000.0;2;1000.0;3;1000.0;4;0.0;5;0.0;6;0.0;7;0.0;
RC;ROLL;1497.0;PITCH;1500.0;YAW;1520.0;THROTTLE;1062.0;AUX1;1679.0;AUX2;1500.0;AUX3;1500.0;AUX4;1500.0
ALTITUDE;0.0
DEBUG;DEBUG10.0;DEBUG2;0.0;DEBUG3;0.0;DEBUG4;0.0
ATTITUDE;ANGX;2.0;ANGY;0.0;HEAD;-118.0
STATUS;CYCLETIME;2908;I2CERR;0;PRESENT;23;MODE;0
RAW_IMU;AX;10.0;AY;-1.0;AZ;257.0;GX;2.0;GY;0.0;GZ;0.0;MAGX;92.0;MAGY;-73.0;MAGZ;10.0
MOT;0;1000.0;1;1000.0;2;1000.0;3;1000.0;4;0.0;5;0.0;6;0.0;7;0.0;
RC;ROLL;1497.0;PITCH;1500.0;YAW;1520.0;THROTTLE;1060.0;AUX1;1679.0;AUX2;1500.0;AUX3;1500.0;AUX4;1500.0
ALTITUDE;0.0
DEBUG;DEBUG10.0;DEBUG2;0.0;DEBUG3;0.0;DEBUG4;0.0
ATTITUDE;ANGX;2.0;ANGY;0.0;HEAD;-118.0
STATUS;CYCLETIME;2912;I2CERR;0;PRESENT;23;MODE;0
RAW_IMU;AX;10.0;AY;-2.0;AZ;255.0;GX;0.0;GY;1.0;GZ;0.0;MAGX;92.0;MAGY;-73.0;MAGZ;10.0
MOT;0;1000.0;1;1000.0;2;1000.0;3;1000.0;4;0.0;5;0.0;6;0.0;7;0.0;
RC;ROLL;1497.0;PITCH;1500.0;YAW;1515.0;THROTTLE;1060.0;AUX1;1679.0;AUX2;1500.0;AUX3;1500.0;AUX4;1500.0
ALTITUDE;0.0
DEBUG;DEBUG10.0;DEBUG2;0.0;DEBUG3;0.0;DEBUG4;0.0
ATTITUDE;ANGX;2.0;ANGY;0.0;HEAD;-118.0
STATUS;CYCLETIME;3012;I2CERR;0;PRESENT;23;MODE;0
RAW_IMU;AX;11.0;AY;-2.0;AZ;257.0;GX;0.0;GY;1.0;GZ;0.0;MAGX;92.0;MAGY;-74.0;MAGZ;11.0
MOT;0;1000.0;1;1000.0;2;1000.0;3;1000.0;4;0.0;5;0.0;6;0.0;7;0.0;
RC;ROLL;1490.0;PITCH;1505.0;YAW;1515.0;THROTTLE;1060.0;AUX1;1679.0;AUX2;1500.0;AUX3;1500.0;AUX4;1500.0
ALTITUDE;0.0
DEBUG;DEBUG10.0;DEBUG2;0.0;DEBUG3;0.0;DEBUG4;0.0
ATTITUDE;ANGX;2.0;ANGY;0.0;HEAD;-118.0
STATUS;CYCLETIME;2900;I2CERR;0;PRESENT;23;MODE;0
RAW_IMU;AX;10.0;AY;-3.0;AZ;256.0;GX;-1.0;GY;0.0;GZ;0.0;MAGX;92.0;MAGY;-74.0;MAGZ;11.0
MOT;0;1000.0;1;1000.0;2;1000.0;3;1000.0;4;0.0;5;0.0;6;0.0;7;0.0;
RC;ROLL;1496.0;PITCH;1507.0;YAW;1515.0;THROTTLE;1060.0;AUX1;1679.0;AUX2;1500.0;AUX3;1500.0;AUX4;1500.0
ALTITUDE;0.0
DEBUG;DEBUG10.0;DEBUG2;0.0;DEBUG3;0.0;DEBUG4;0.0
ATTITUDE;ANGX;2.0;ANGY;0.0;HEAD;-118.0
STATUS;CYCLETIME;2888;I2CERR;0;PRESENT;23;MODE;0
RAW_IMU;AX;8.0;AY;1.0;AZ;260.0;GX;0.0;GY;0.0;GZ;0.0;MAGX;91.0;MAGY;-74.0;MAGZ;11.0
MOT;0;1000.0;1;1000.0;2;1000.0;3;1000.0;4;0.0;5;0.0;6;0.0;7;0.0;
RC;ROLL;1499.0;PITCH;1505.0;YAW;1515.0;THROTTLE;1063.0;AUX1;1679.0;AUX2;1500.0;AUX3;1500.0;AUX4;1500.0
ALTITUDE;0.0
DEBUG;DEBUG10.0;DEBUG2;0.0;DEBUG3;0.0;DEBUG4;0.0
ATTITUDE;ANGX;2.0;ANGY;0.0;HEAD;-118.0
STATUS;CYCLETIME;2976;I2CERR;0;PRESENT;23;MODE;0
RAW_IMU;AX;8.0;AY;1.0;AZ;261.0;GX;1.0;GY;0.0;GZ;0.0;MAGX;91.0;MAGY;-74.0;MAGZ;11.0
MOT;0;1000.0;1;1000.0;2;1000.0;3;1000.0;4;0.0;5;0.0;6;0.0;7;0.0;
RC;ROLL;1499.0;PITCH;1505.0;YAW;1515.0;THROTTLE;1065.0;AUX1;1679.0;AUX2;1500.0;AUX3;1500.0;AUX4;1500.0
ALTITUDE;0.0
DEBUG;DEBUG10.0;DEBUG2;0.0;DEBUG3;0.0;DEBUG4;0.0
ATTITUDE;ANGX;2.0;ANGY;0.0;HEAD;-118.0
STATUS;CYCLETIME;3180;I2CERR;0;PRESENT;23;MODE;0
RAW_IMU;AX;10.0;AY;0.0;AZ;258.0;GX;0.0;GY;0.0;GZ;0.0;MAGX;92.0;MAGY;-74.0;MAGZ;10.0
MOT;0;1000.0;1;1000.0;2;1000.0;3;1000.0;4;0.0;5;0.0;6;0.0;7;0.0;
RC;ROLL;1496.0;PITCH;1503.0;YAW;1515.0;THROTTLE;1061.0;AUX1;1679.0;AUX2;1500.0;AUX3;1500.0;AUX4;1500.0
ALTITUDE;0.0
DEBUG;DEBUG10.0;DEBUG2;0.0;DEBUG3;0.0;DEBUG4;0.0
ATTITUDE;ANGX;2.0;ANGY;0.0;HEAD;-118.0
STATUS;CYCLETIME;2904;I2CERR;0;PRESENT;23;MODE;0
RAW_IMU;AX;10.0;AY;-1.0;AZ;257.0;GX;1.0;GY;0.0;GZ;0.0;MAGX;92.0;MAGY;-74.0;MAGZ;10.0
MOT;0;1000.0;1;1000.0;2;1000.0;3;1000.0;4;0.0;5;0.0;6;0.0;7;0.0;
RC;ROLL;1494.0;PITCH;1503.0;YAW;1515.0;THROTTLE;1057.0;AUX1;1681.0;AUX2;1500.0;AUX3;1500.0;AUX4;1500.0
ALTITUDE;0.0
DEBUG;DEBUG10.0;DEBUG2;0.0;DEBUG3;0.0;DEBUG4;0.0
ATTITUDE;ANGX;2.0;ANGY;0.0;HEAD;-118.0
STATUS;CYCLETIME;2872;I2CERR;0;PRESENT;23;MODE;0
RAW_IMU;AX;11.0;AY;-1.0;AZ;256.0;GX;1.0;GY;0.0;GZ;0.0;MAGX;92.0;MAGY;-74.0;MAGZ;10.0
MOT;0;1000.0;1;1000.0;2;1000.0;3;1000.0;4;0.0;5;0.0;6;0.0;7;0.0;
RC;ROLL;1494.0;PITCH;1503.0;YAW;1515.0;THROTTLE;1060.0;AUX1;1681.0;AUX2;1500.0;AUX3;1500.0;AUX4;1500.0
ALTITUDE;0.0
DEBUG;DEBUG10.0;DEBUG2;0.0;DEBUG3;0.0;DEBUG4;0.0
ATTITUDE;ANGX;2.0;ANGY;0.0;HEAD;-118.0
STATUS;CYCLETIME;2920;I2CERR;0;PRESENT;23;MODE;0
RAW_IMU;AX;11.0;AY;-3.0;AZ;257.0;GX;0.0;GY;2.0;GZ;0.0;MAGX;93.0;MAGY;-74.0;MAGZ;11.0
MOT;0;1000.0;1;1000.0;2;1000.0;3;1000.0;4;0.0;5;0.0;6;0.0;7;0.0;
RC;ROLL;1494.0;PITCH;1505.0;YAW;1515.0;THROTTLE;1060.0;AUX1;1681.0;AUX2;1500.0;AUX3;1500.0;AUX4;1500.0
ALTITUDE;0.0
DEBUG;DEBUG10.0;DEBUG2;0.0;DEBUG3;0.0;DEBUG4;0.0
ATTITUDE;ANGX;2.0;ANGY;0.0;HEAD;-118.0
STATUS;CYCLETIME;2908;I2CERR;0;PRESENT;23;MODE;0
RAW_IMU;AX;13.0;AY;-2.0;AZ;260.0;GX;0.0;GY;0.0;GZ;0.0;MAGX;93.0;MAGY;-74.0;MAGZ;11.0
MOT;0;1000.0;1;1000.0;2;1000.0;3;1000.0;4;0.0;5;0.0;6;0.0;7;0.0;
RC;ROLL;1498.0;PITCH;1503.0;YAW;1515.0;THROTTLE;1060.0;AUX1;1681.0;AUX2;1500.0;AUX3;1500.0;AUX4;1500.0
ALTITUDE;0.0
DEBUG;DEBUG10.0;DEBUG2;0.0;DEBUG3;0.0;DEBUG4;0.0
ATTITUDE;ANGX;2.0;ANGY;0.0;HEAD;-118.0
STATUS;CYCLETIME;4064;I2CERR;0;PRESENT;23;MODE;0
RAW_IMU;AX;11.0;AY;0.0;AZ;258.0;GX;-1.0;GY;0.0;GZ;0.0;MAGX;92.0;MAGY;-74.0;MAGZ;11.0
MOT;0;1000.0;1;1000.0;2;1000.0;3;1000.0;4;0.0;5;0.0;6;0.0;7;0.0;
RC;ROLL;1498.0;PITCH;1503.0;YAW;1515.0;THROTTLE;1060.0;AUX1;1681.0;AUX2;1500.0;AUX3;1500.0;AUX4;1500.0
ALTITUDE;0.0
DEBUG;DEBUG10.0;DEBUG2;0.0;DEBUG3;0.0;DEBUG4;0.0
ATTITUDE;ANGX;2.0;ANGY;0.0;HEAD;-118.0
STATUS;CYCLETIME;2908;I2CERR;0;PRESENT;23;MODE;0
RAW_IMU;AX;10.0;AY;-1.0;AZ;256.0;GX;-1.0;GY;0.0;GZ;0.0;MAGX;92.0;MAGY;-74.0;MAGZ;11.0
MOT;0;1000.0;1;1000.0;2;1000.0;3;1000.0;4;0.0;5;0.0;6;0.0;7;0.0;
RC;ROLL;1498.0;PITCH;1508.0;YAW;1515.0;THROTTLE;1060.0;AUX1;1681.0;AUX2;1500.0;AUX3;1500.0;AUX4;1500.0
ALTITUDE;0.0
DEBUG;DEBUG10.0;DEBUG2;0.0;DEBUG3;0.0;DEBUG4;0.0
ATTITUDE;ANGX;2.0;ANGY;0.0;HEAD;-118.0
STATUS;CYCLETIME;3016;I2CERR;0;PRESENT;23;MODE;0
RAW_IMU;AX;8.0;AY;-1.0;AZ;254.0;GX;0.0;GY;0.0;GZ;0.0;MAGX;91.0;MAGY;-74.0;MAGZ;11.0
MOT;0;1000.0;1;1000.0;2;1000.0;3;1000.0;4;0.0;5;0.0;6;0.0;7;0.0;
RC;ROLL;1498.0;PITCH;1508.0;YAW;1515.0;THROTTLE;1060.0;AUX1;1681.0;AUX2;1500.0;AUX3;1500.0;AUX4;1500.0
ALTITUDE;0.0
DEBUG;DEBUG10.0;DEBUG2;0.0;DEBUG3;0.0;DEBUG4;0.0
ATTITUDE;ANGX;2.0;ANGY;0.0;HEAD;-118.0
STATUS;CYCLETIME;2920;I2CERR;0;PRESENT;23;MODE;0
RAW_IMU;AX;10.0;AY;-1.0;AZ;255.0;GX;0.0;GY;0.0;GZ;0.0;MAGX;91.0;MAGY;-74.0;MAGZ;11.0
MOT;0;1000.0;1;1000.0;2;1000.0;3;1000.0;4;0.0;5;0.0;6;0.0;7;0.0;
RC;ROLL;1496.0;PITCH;1508.0;YAW;1515.0;THROTTLE;1060.0;AUX1;1681.0;AUX2;1500.0;AUX3;1500.0;AUX4;1500.0
ALTITUDE;0.0
DEBUG;DEBUG10.0;DEBUG2;0.0;DEBUG3;0.0;DEBUG4;0.0
ATTITUDE;ANGX;2.0;ANGY;0.0;HEAD;-118.0
STATUS;CYCLETIME;2956;I2CERR;0;PRESENT;23;MODE;0
RAW_IMU;AX;9.0;AY;-2.0;AZ;257.0;GX;0.0;GY;0.0;GZ;0.0;MAGX;93.0;MAGY;-74.0;MAGZ;10.0
MOT;0;1000.0;1;1000.0;2;1000.0;3;1000.0;4;0.0;5;0.0;6;0.0;7;0.0;
RC;ROLL;1496.0;PITCH;1508.0;YAW;1515.0;THROTTLE;1060.0;AUX1;1681.0;AUX2;1500.0;AUX3;1500.0;AUX4;1500.0
ALTITUDE;0.0
DEBUG;DEBUG10.0;DEBUG2;0.0;DEBUG3;0.0;DEBUG4;0.0
ATTITUDE;ANGX;2.0;ANGY;0.0;HEAD;-118.0
STATUS;CYCLETIME;2908;I2CERR;0;PRESENT;23;MODE;0
RAW_IMU;AX;9.0;AY;-3.0;AZ;256.0;GX;-1.0;GY;0.0;GZ;0.0;MAGX;93.0;MAGY;-74.0;MAGZ;10.0
MOT;0;1000.0;1;1000.0;2;1000.0;3;1000.0;4;0.0;5;0.0;6;0.0;7;0.0;
RC;ROLL;1496.0;PITCH;1508.0;YAW;1515.0;THROTTLE;1060.0;AUX1;1681.0;AUX2;1500.0;AUX3;1500.0;AUX4;1500.0
ALTITUDE;0.0
DEBUG;DEBUG10.0;DEBUG2;0.0;DEBUG3;0.0;DEBUG4;0.0
ATTITUDE;ANGX;1.0;ANGY;0.0;HEAD;-118.0
STATUS;CYCLETIME;2916;I2CERR;0;PRESENT;23;MODE;0
RAW_IMU;AX;8.0;AY;-2.0;AZ;258.0;GX;0.0;GY;0.0;GZ;0.0;MAGX;92.0;MAGY;-73.0;MAGZ;10.0
MOT;0;1000.0;1;1000.0;2;1000.0;3;1000.0;4;0.0;5;0.0;6;0.0;7;0.0;
RC;ROLL;1494.0;PITCH;1508.0;YAW;1515.0;THROTTLE;1060.0;AUX1;1681.0;AUX2;1500.0;AUX3;1500.0;AUX4;1500.0
ALTITUDE;0.0
DEBUG;DEBUG10.0;DEBUG2;0.0;DEBUG3;0.0;DEBUG4;0.0
ATTITUDE;ANGX;1.0;ANGY;0.0;HEAD;-118.0
STATUS;CYCLETIME;2924;I2CERR;0;PRESENT;23;MODE;0
RAW_IMU;AX;8.0;AY;-1.0;AZ;259.0;GX;0.0;GY;0.0;GZ;0.0;MAGX;92.0;MAGY;-73.0;MAGZ;10.0
MOT;0;1000.0;1;1000.0;2;1000.0;3;1000.0;4;0.0;5;0.0;6;0.0;7;0.0;
RC;ROLL;1494.0;PITCH;1508.0;YAW;1515.0;THROTTLE;1060.0;AUX1;1681.0;AUX2;1500.0;AUX3;1500.0;AUX4;1500.0
ALTITUDE;0.0
DEBUG;DEBUG10.0;DEBUG2;0.0;DEBUG3;0.0;DEBUG4;0.0
ATTITUDE;ANGX;1.0;ANGY;0.0;HEAD;-118.0
STATUS;CYCLETIME;2956;I2CERR;0;PRESENT;23;MODE;0
RAW_IMU;AX;9.0;AY;-2.0;AZ;257.0;GX;0.0;GY;0.0;GZ;0.0;MAGX;92.0;MAGY;-73.0;MAGZ;9.0
MOT;0;1000.0;1;1000.0;2;1000.0;3;1000.0;4;0.0;5;0.0;6;0.0;7;0.0;
RC;ROLL;1494.0;PITCH;1508.0;YAW;1515.0;THROTTLE;1060.0;AUX1;1681.0;AUX2;1500.0;AUX3;1500.0;AUX4;1500.0
ALTITUDE;0.0
DEBUG;DEBUG10.0;DEBUG2;0.0;DEBUG3;0.0;DEBUG4;0.0
ATTITUDE;ANGX;1.0;ANGY;0.0;HEAD;-118.0
STATUS;CYCLETIME;2904;I2CERR;0;PRESENT;23;MODE;0
RAW_IMU;AX;10.0;AY;-2.0;AZ;259.0;GX;-1.0;GY;0.0;GZ;0.0;MAGX;92.0;MAGY;-73.0;MAGZ;9.0
MOT;0;1000.0;1;1000.0;2;1000.0;3;1000.0;4;0.0;5;0.0;6;0.0;7;0.0;
RC;ROLL;1496.0;PITCH;1505.0;YAW;1515.0;THROTTLE;1060.0;AUX1;1681.0;AUX2;1500.0;AUX3;1500.0;AUX4;1500.0
ALTITUDE;0.0
DEBUG;DEBUG10.0;DEBUG2;0.0;DEBUG3;0.0;DEBUG4;0.0
ATTITUDE;ANGX;1.0;ANGY;0.0;HEAD;-118.0
STATUS;CYCLETIME;3016;I2CERR;0;PRESENT;23;MODE;0
RAW_IMU;AX;9.0;AY;-1.0;AZ;256.0;GX;-3.0;GY;1.0;GZ;0.0;MAGX;92.0;MAGY;-73.0;MAGZ;9.0
MOT;0;1000.0;1;1000.0;2;1000.0;3;1000.0;4;0.0;5;0.0;6;0.0;7;0.0;
RC;ROLL;1496.0;PITCH;1505.0;YAW;1515.0;THROTTLE;1060.0;AUX1;1681.0;AUX2;1500.0;AUX3;1500.0;AUX4;1500.0
ALTITUDE;0.0
DEBUG;DEBUG10.0;DEBUG2;0.0;DEBUG3;0.0;DEBUG4;0.0
ATTITUDE;ANGX;1.0;ANGY;0.0;HEAD;-118.0
STATUS;CYCLETIME;2872;I2CERR;0;PRESENT;23;MODE;0
RAW_IMU;AX;4.0;AY;0.0;AZ;259.0;GX;-1.0;GY;0.0;GZ;0.0;MAGX;92.0;MAGY;-73.0;MAGZ;9.0
MOT;0;1000.0;1;1000.0;2;1000.0;3;1000.0;4;0.0;5;0.0;6;0.0;7;0.0;
RC;ROLL;1496.0;PITCH;1507.0;YAW;1512.0;THROTTLE;1060.0;AUX1;1681.0;AUX2;1500.0;AUX3;1500.0;AUX4;1500.0
ALTITUDE;0.0
DEBUG;DEBUG10.0;DEBUG2;0.0;DEBUG3;0.0;DEBUG4;0.0
ATTITUDE;ANGX;1.0;ANGY;0.0;HEAD;-118.0
STATUS;CYCLETIME;2932;I2CERR;0;PRESENT;23;MODE;0
RAW_IMU;AX;3.0;AY;-2.0;AZ;258.0;GX;1.0;GY;0.0;GZ;0.0;MAGX;92.0;MAGY;-73.0;MAGZ;9.0
MOT;0;1000.0;1;1000.0;2;1000.0;3;1000.0;4;0.0;5;0.0;6;0.0;7;0.0;
RC;ROLL;1496.0;PITCH;1507.0;YAW;1512.0;THROTTLE;1060.0;AUX1;1681.0;AUX2;1500.0;AUX3;1500.0;AUX4;1500.0
ALTITUDE;0.0
DEBUG;DEBUG10.0;DEBUG2;0.0;DEBUG3;0.0;DEBUG4;0.0
ATTITUDE;ANGX;1.0;ANGY;0.0;HEAD;-118.0
STATUS;CYCLETIME;3020;I2CERR;0;PRESENT;23;MODE;0
RAW_IMU;AX;7.0;AY;-2.0;AZ;256.0;GX;1.0;GY;0.0;GZ;0.0;MAGX;92.0;MAGY;-73.0;MAGZ;10.0
MOT;0;1000.0;1;1000.0;2;1000.0;3;1000.0;4;0.0;5;0.0;6;0.0;7;0.0;
RC;ROLL;1496.0;PITCH;1507.0;YAW;1512.0;THROTTLE;1060.0;AUX1;1681.0;AUX2;1500.0;AUX3;1500.0;AUX4;1500.0
ALTITUDE;0.0
DEBUG;DEBUG10.0;DEBUG2;0.0;DEBUG3;0.0;DEBUG4;0.0
ATTITUDE;ANGX;1.0;ANGY;0.0;HEAD;-118.0
STATUS;CYCLETIME;2896;I2CERR;0;PRESENT;23;MODE;0
RAW_IMU;AX;6.0;AY;-2.0;AZ;258.0;GX;0.0;GY;-1.0;GZ;0.0;MAGX;92.0;MAGY;-73.0;MAGZ;10.0
MOT;0;1000.0;1;1000.0;2;1000.0;3;1000.0;4;0.0;5;0.0;6;0.0;7;0.0;
RC;ROLL;1496.0;PITCH;1507.0;YAW;1512.0;THROTTLE;1060.0;AUX1;1681.0;AUX2;1500.0;AUX3;1500.0;AUX4;1500.0
ALTITUDE;0.0
DEBUG;DEBUG10.0;DEBUG2;0.0;DEBUG3;0.0;DEBUG4;0.0
ATTITUDE;ANGX;1.0;ANGY;0.0;HEAD;-118.0
STATUS;CYCLETIME;2892;I2CERR;0;PRESENT;23;MODE;0
RAW_IMU;AX;8.0;AY;-2.0;AZ;258.0;GX;0.0;GY;0.0;GZ;0.0;MAGX;93.0;MAGY;-72.0;MAGZ;8.0
MOT;0;1000.0;1;1000.0;2;1000.0;3;1000.0;4;0.0;5;0.0;6;0.0;7;0.0;
RC;ROLL;1498.0;PITCH;1507.0;YAW;1512.0;THROTTLE;1060.0;AUX1;1681.0;AUX2;1500.0;AUX3;1500.0;AUX4;1500.0
ALTITUDE;0.0
DEBUG;DEBUG10.0;DEBUG2;0.0;DEBUG3;0.0;DEBUG4;0.0
ATTITUDE;ANGX;1.0;ANGY;0.0;HEAD;-118.0
STATUS;CYCLETIME;2920;I2CERR;0;PRESENT;23;MODE;0
RAW_IMU;AX;7.0;AY;-2.0;AZ;256.0;GX;1.0;GY;0.0;GZ;0.0;MAGX;93.0;MAGY;-72.0;MAGZ;8.0
MOT;0;1000.0;1;1000.0;2;1000.0;3;1000.0;4;0.0;5;0.0;6;0.0;7;0.0;
RC;ROLL;1494.0;PITCH;1507.0;YAW;1514.0;THROTTLE;1060.0;AUX1;1681.0;AUX2;1500.0;AUX3;1500.0;AUX4;1500.0
ALTITUDE;0.0
DEBUG;DEBUG10.0;DEBUG2;0.0;DEBUG3;0.0;DEBUG4;0.0
ATTITUDE;ANGX;1.0;ANGY;0.0;HEAD;-118.0
STATUS;CYCLETIME;2900;I2CERR;0;PRESENT;23;MODE;0
RAW_IMU;AX;6.0;AY;-4.0;AZ;254.0;GX;1.0;GY;0.0;GZ;0.0;MAGX;92.0;MAGY;-74.0;MAGZ;8.0
MOT;0;1000.0;1;1000.0;2;1000.0;3;1000.0;4;0.0;5;0.0;6;0.0;7;0.0;
RC;ROLL;1494.0;PITCH;1507.0;YAW;1514.0;THROTTLE;1060.0;AUX1;1681.0;AUX2;1500.0;AUX3;1500.0;AUX4;1500.0
ALTITUDE;0.0
DEBUG;DEBUG10.0;DEBUG2;0.0;DEBUG3;0.0;DEBUG4;0.0
ATTITUDE;ANGX;1.0;ANGY;0.0;HEAD;-118.0
STATUS;CYCLETIME;2876;I2CERR;0;PRESENT;23;MODE;0
RAW_IMU;AX;6.0;AY;-5.0;AZ;256.0;GX;0.0;GY;0.0;GZ;0.0;MAGX;92.0;MAGY;-74.0;MAGZ;8.0
MOT;0;1000.0;1;1000.0;2;1000.0;3;1000.0;4;0.0;5;0.0;6;0.0;7;0.0;
RC;ROLL;1496.0;PITCH;1507.0;YAW;1514.0;THROTTLE;1060.0;AUX1;1681.0;AUX2;1500.0;AUX3;1500.0;AUX4;1500.0
ALTITUDE;0.0
DEBUG;DEBUG10.0;DEBUG2;0.0;DEBUG3;0.0;DEBUG4;0.0
ATTITUDE;ANGX;2.0;ANGY;0.0;HEAD;-118.0
STATUS;CYCLETIME;2904;I2CERR;0;PRESENT;23;MODE;0
RAW_IMU;AX;7.0;AY;-5.0;AZ;256.0;GX;-1.0;GY;0.0;GZ;0.0;MAGX;93.0;MAGY;-73.0;MAGZ;10.0
MOT;0;1000.0;1;1000.0;2;1000.0;3;1000.0;4;0.0;5;0.0;6;0.0;7;0.0;
RC;ROLL;1496.0;PITCH;1507.0;YAW;1514.0;THROTTLE;1060.0;AUX1;1681.0;AUX2;1500.0;AUX3;1500.0;AUX4;1500.0
ALTITUDE;0.0
DEBUG;DEBUG10.0;DEBUG2;0.0;DEBUG3;0.0;DEBUG4;0.0
ATTITUDE;ANGX;1.0;ANGY;0.0;HEAD;-118.0
STATUS;CYCLETIME;2888;I2CERR;0;PRESENT;23;MODE;0
RAW_IMU;AX;6.0;AY;-4.0;AZ;256.0;GX;0.0;GY;0.0;GZ;0.0;MAGX;93.0;MAGY;-73.0;MAGZ;10.0
MOT;0;1000.0;1;1000.0;2;1000.0;3;1000.0;4;0.0;5;0.0;6;0.0;7;0.0;
RC;ROLL;1496.0;PITCH;1507.0;YAW;1514.0;THROTTLE;1060.0;AUX1;1681.0;AUX2;1500.0;AUX3;1500.0;AUX4;1500.0
ALTITUDE;0.0
DEBUG;DEBUG10.0;DEBUG2;0.0;DEBUG3;0.0;DEBUG4;0.0
ATTITUDE;ANGX;1.0;ANGY;0.0;HEAD;-118.0
STATUS;CYCLETIME;3020;I2CERR;0;PRESENT;23;MODE;0
RAW_IMU;AX;8.0;AY;-4.0;AZ;256.0;GX;0.0;GY;0.0;GZ;0.0;MAGX;93.0;MAGY;-74.0;MAGZ;10.0
MOT;0;1000.0;1;1000.0;2;1000.0;3;1000.0;4;0.0;5;0.0;6;0.0;7;0.0;
RC;ROLL;1496.0;PITCH;1507.0;YAW;1516.0;THROTTLE;1060.0;AUX1;1681.0;AUX2;1500.0;AUX3;1500.0;AUX4;1500.0
ALTITUDE;0.0
DEBUG;DEBUG10.0;DEBUG2;0.0;DEBUG3;0.0;DEBUG4;0.0
ATTITUDE;ANGX;1.0;ANGY;0.0;HEAD;-118.0
STATUS;CYCLETIME;2944;I2CERR;0;PRESENT;23;MODE;0
RAW_IMU;AX;8.0;AY;-4.0;AZ;253.0;GX;0.0;GY;0.0;GZ;-1.0;MAGX;93.0;MAGY;-74.0;MAGZ;10.0
MOT;0;1000.0;1;1000.0;2;1000.0;3;1000.0;4;0.0;5;0.0;6;0.0;7;0.0;
RC;ROLL;1496.0;PITCH;1507.0;YAW;1516.0;THROTTLE;1060.0;AUX1;1681.0;AUX2;1500.0;AUX3;1500.0;AUX4;1500.0
ALTITUDE;0.0
DEBUG;DEBUG10.0;DEBUG2;0.0;DEBUG3;0.0;DEBUG4;0.0
ATTITUDE;ANGX;1.0;ANGY;0.0;HEAD;-118.0
STATUS;CYCLETIME;2796;I2CERR;0;PRESENT;23;MODE;0
RAW_IMU;AX;8.0;AY;-5.0;AZ;252.0;GX;0.0;GY;0.0;GZ;0.0;MAGX;93.0;MAGY;-73.0;MAGZ;9.0
MOT;0;1000.0;1;1000.0;2;1000.0;3;1000.0;4;0.0;5;0.0;6;0.0;7;0.0;
RC;ROLL;1496.0;PITCH;1507.0;YAW;1540.0;THROTTLE;1058.0;AUX1;1681.0;AUX2;1500.0;AUX3;1500.0;AUX4;1500.0
ALTITUDE;0.0
DEBUG;DEBUG10.0;DEBUG2;0.0;DEBUG3;0.0;DEBUG4;0.0
ATTITUDE;ANGX;1.0;ANGY;0.0;HEAD;-118.0
STATUS;CYCLETIME;2928;I2CERR;0;PRESENT;23;MODE;0
RAW_IMU;AX;8.0;AY;-4.0;AZ;256.0;GX;0.0;GY;1.0;GZ;0.0;MAGX;93.0;MAGY;-73.0;MAGZ;9.0
MOT;0;1000.0;1;1000.0;2;1000.0;3;1000.0;4;0.0;5;0.0;6;0.0;7;0.0;
RC;ROLL;1496.0;PITCH;1505.0;YAW;1574.0;THROTTLE;1056.0;AUX1;1681.0;AUX2;1500.0;AUX3;1500.0;AUX4;1500.0
ALTITUDE;0.0
DEBUG;DEBUG10.0;DEBUG2;0.0;DEBUG3;0.0;DEBUG4;0.0
ATTITUDE;ANGX;1.0;ANGY;0.0;HEAD;-118.0
STATUS;CYCLETIME;2896;I2CERR;0;PRESENT;23;MODE;0
RAW_IMU;AX;8.0;AY;-2.0;AZ;255.0;GX;0.0;GY;0.0;GZ;0.0;MAGX;93.0;MAGY;-73.0;MAGZ;9.0
MOT;0;1000.0;1;1000.0;2;1000.0;3;1000.0;4;0.0;5;0.0;6;0.0;7;0.0;
RC;ROLL;1494.0;PITCH;1505.0;YAW;1614.0;THROTTLE;1056.0;AUX1;1681.0;AUX2;1500.0;AUX3;1500.0;AUX4;1500.0
ALTITUDE;0.0
DEBUG;DEBUG10.0;DEBUG2;0.0;DEBUG3;0.0;DEBUG4;0.0
ATTITUDE;ANGX;1.0;ANGY;0.0;HEAD;-118.0
STATUS;CYCLETIME;2952;I2CERR;0;PRESENT;23;MODE;0
RAW_IMU;AX;8.0;AY;-3.0;AZ;257.0;GX;0.0;GY;0.0;GZ;0.0;MAGX;94.0;MAGY;-73.0;MAGZ;9.0
MOT;0;1000.0;1;1000.0;2;1000.0;3;1000.0;4;0.0;5;0.0;6;0.0;7;0.0;
RC;ROLL;1497.0;PITCH;1505.0;YAW;1682.0;THROTTLE;1056.0;AUX1;1681.0;AUX2;1500.0;AUX3;1500.0;AUX4;1500.0
ALTITUDE;0.0
DEBUG;DEBUG10.0;DEBUG2;0.0;DEBUG3;0.0;DEBUG4;0.0
ATTITUDE;ANGX;2.0;ANGY;0.0;HEAD;-118.0
STATUS;CYCLETIME;2948;I2CERR;0;PRESENT;23;MODE;0
RAW_IMU;AX;8.0;AY;1.0;AZ;256.0;GX;-1.0;GY;0.0;GZ;0.0;MAGX;94.0;MAGY;-73.0;MAGZ;9.0
MOT;0;1000.0;1;1000.0;2;1000.0;3;1000.0;4;0.0;5;0.0;6;0.0;7;0.0;
RC;ROLL;1497.0;PITCH;1505.0;YAW;1730.0;THROTTLE;1056.0;AUX1;1681.0;AUX2;1500.0;AUX3;1500.0;AUX4;1500.0
ALTITUDE;0.0
DEBUG;DEBUG10.0;DEBUG2;0.0;DEBUG3;0.0;DEBUG4;0.0
ATTITUDE;ANGX;1.0;ANGY;0.0;HEAD;-118.0
STATUS;CYCLETIME;2908;I2CERR;0;PRESENT;23;MODE;0
RAW_IMU;AX;4.0;AY;1.0;AZ;256.0;GX;-1.0;GY;1.0;GZ;0.0;MAGX;93.0;MAGY;-73.0;MAGZ;10.0
MOT;0;1000.0;1;1000.0;2;1000.0;3;1000.0;4;0.0;5;0.0;6;0.0;7;0.0;
RC;ROLL;1497.0;PITCH;1505.0;YAW;1769.0;THROTTLE;1056.0;AUX1;1681.0;AUX2;1500.0;AUX3;1500.0;AUX4;1500.0
ALTITUDE;0.0
