IDENT;V;220;TYPE;3
MSP_MOTOR_PINS
STATUS;CYCLETIME;2916;I2CERR;0;PRESENT;23;MODE;2
RAW_IMU;AX;4.0;AY;-5.0;AZ;259.0;GX;-2.0;GY;0.0;GZ;1.0;MAGX;46.0;MAGY;-115.0;MAGZ;153.0
MOT;0;1000.0;1;1000.0;2;1000.0;3;1000.0;4;0.0;5;0.0;6;0.0;7;0.0;
RC;ROLL;1497.0;PITCH;1498.0;YAW;1517.0;THROTTLE;1059.0;AUX1;1530.0;AUX2;1500.0;AUX3;1500.0;AUX4;1500.0
ALTITUDE;20.0
DEBUG;DEBUG10.0;DEBUG2;0.0;DEBUG3;20.0;DEBUG4;0.0
ATTITUDE;ANGX;-8.0;ANGY;1.0;HEAD;-140.0
STATUS;CYCLETIME;2924;I2CERR;0;PRESENT;23;MODE;2
RAW_IMU;AX;6.0;AY;-7.0;AZ;257.0;GX;-2.0;GY;0.0;GZ;1.0;MAGX;45.0;MAGY;-115.0;MAGZ;154.0
MOT;0;1000.0;1;1000.0;2;1000.0;3;1000.0;4;0.0;5;0.0;6;0.0;7;0.0;
RC;ROLL;1497.0;PITCH;1500.0;YAW;1517.0;THROTTLE;1059.0;AUX1;1532.0;AUX2;1500.0;AUX3;1500.0;AUX4;1500.0
ALTITUDE;20.0
DEBUG;DEBUG10.0;DEBUG2;0.0;DEBUG3;20.0;DEBUG4;0.0
ATTITUDE;ANGX;-8.0;ANGY;1.0;HEAD;-140.0
STATUS;CYCLETIME;2900;I2CERR;0;PRESENT;23;MODE;2
RAW_IMU;AX;6.0;AY;-6.0;AZ;254.0;GX;-2.0;GY;0.0;GZ;1.0;MAGX;45.0;MAGY;-115.0;MAGZ;154.0
MOT;0;1000.0;1;1000.0;2;1000.0;3;1000.0;4;0.0;5;0.0;6;0.0;7;0.0;
RC;ROLL;1497.0;PITCH;1500.0;YAW;1522.0;THROTTLE;1057.0;AUX1;1534.0;AUX2;1500.0;AUX3;1500.0;AUX4;1500.0
ALTITUDE;20.0
DEBUG;DEBUG10.0;DEBUG2;0.0;DEBUG3;20.0;DEBUG4;0.0
ATTITUDE;ANGX;-8.0;ANGY;1.0;HEAD;-140.0
STATUS;CYCLETIME;2924;I2CERR;0;PRESENT;23;MODE;2
RAW_IMU;AX;6.0;AY;-5.0;AZ;257.0;GX;-2.0;GY;0.0;GZ;1.0;MAGX;45.0;MAGY;-114.0;MAGZ;155.0
MOT;0;1000.0;1;1000.0;2;1000.0;3;1000.0;4;0.0;5;0.0;6;0.0;7;0.0;
RC;ROLL;1497.0;PITCH;1503.0;YAW;1522.0;THROTTLE;1057.0;AUX1;1534.0;AUX2;1500.0;AUX3;1500.0;AUX4;1500.0
ALTITUDE;20.0
DEBUG;DEBUG10.0;DEBUG2;0.0;DEBUG3;20.0;DEBUG4;0.0
ATTITUDE;ANGX;-8.0;ANGY;1.0;HEAD;-140.0
STATUS;CYCLETIME;2908;I2CERR;0;PRESENT;23;MODE;2
RAW_IMU;AX;6.0;AY;-4.0;AZ;255.0;GX;-2.0;GY;1.0;GZ;1.0;MAGX;45.0;MAGY;-114.0;MAGZ;155.0
MOT;0;1000.0;1;1000.0;2;1000.0;3;1000.0;4;0.0;5;0.0;6;0.0;7;0.0;
RC;ROLL;1493.0;PITCH;1505.0;YAW;1522.0;THROTTLE;1054.0;AUX1;1532.0;AUX2;1500.0;AUX3;1500.0;AUX4;1500.0
ALTITUDE;20.0
DEBUG;DEBUG10.0;DEBUG2;0.0;DEBUG3;20.0;DEBUG4;0.0
ATTITUDE;ANGX;-8.0;ANGY;1.0;HEAD;-141.0
STATUS;CYCLETIME;3016;I2CERR;0;PRESENT;23;MODE;2
RAW_IMU;AX;8.0;AY;-5.0;AZ;257.0;GX;-2.0;GY;0.0;GZ;0.0;MAGX;45.0;MAGY;-115.0;MAGZ;155.0
MOT;0;1000.0;1;1000.0;2;1000.0;3;1000.0;4;0.0;5;0.0;6;0.0;7;0.0;
RC;ROLL;1493.0;PITCH;1498.0;YAW;1522.0;THROTTLE;1057.0;AUX1;1532.0;AUX2;1500.0;AUX3;1500.0;AUX4;1500.0
ALTITUDE;20.0
DEBUG;DEBUG10.0;DEBUG2;0.0;DEBUG3;20.0;DEBUG4;0.0
ATTITUDE;ANGX;-8.0;ANGY;1.0;HEAD;-141.0
STATUS;CYCLETIME;2964;I2CERR;0;PRESENT;23;MODE;2
RAW_IMU;AX;8.0;AY;-6.0;AZ;256.0;GX;-2.0;GY;0.0;GZ;1.0;MAGX;45.0;MAGY;-115.0;MAGZ;155.0
MOT;0;1000.0;1;1000.0;2;1000.0;3;1000.0;4;0.0;5;0.0;6;0.0;7;0.0;
RC;ROLL;1496.0;PITCH;1498.0;YAW;1522.0;THROTTLE;1057.0;AUX1;1536.0;AUX2;1500.0;AUX3;1500.0;AUX4;1500.0
ALTITUDE;20.0
DEBUG;DEBUG10.0;DEBUG2;0.0;DEBUG3;20.0;DEBUG4;0.0
ATTITUDE;ANGX;-8.0;ANGY;1.0;HEAD;-141.0
STATUS;CYCLETIME;2916;I2CERR;0;PRESENT;23;MODE;2
RAW_IMU;AX;6.0;AY;-6.0;AZ;255.0;GX;-2.0;GY;0.0;GZ;1.0;MAGX;46.0;MAGY;-115.0;MAGZ;155.0
MOT;0;1000.0;1;1000.0;2;1000.0;3;1000.0;4;0.0;5;0.0;6;0.0;7;0.0;
RC;ROLL;1496.0;PITCH;1496.0;YAW;1520.0;THROTTLE;1057.0;AUX1;1536.0;AUX2;1500.0;AUX3;1500.0;AUX4;1500.0
ALTITUDE;20.0
DEBUG;DEBUG10.0;DEBUG2;0.0;DEBUG3;20.0;DEBUG4;0.0
ATTITUDE;ANGX;-8.0;ANGY;1.0;HEAD;-141.0
STATUS;CYCLETIME;3012;I2CERR;0;PRESENT;23;MODE;2
RAW_IMU;AX;6.0;AY;-6.0;AZ;256.0;GX;-2.0;GY;0.0;GZ;1.0;MAGX;46.0;MAGY;-115.0;MAGZ;155.0
MOT;0;1000.0;1;1000.0;2;1000.0;3;1000.0;4;0.0;5;0.0;6;0.0;7;0.0;
RC;ROLL;1493.0;PITCH;1496.0;YAW;1513.0;THROTTLE;1059.0;AUX1;1536.0;AUX2;1500.0;AUX3;1500.0;AUX4;1500.0
ALTITUDE;20.0
DEBUG;DEBUG10.0;DEBUG2;0.0;DEBUG3;20.0;DEBUG4;0.0
ATTITUDE;ANGX;-8.0;ANGY;1.0;HEAD;-141.0
STATUS;CYCLETIME;3208;I2CERR;0;PRESENT;23;MODE;2
RAW_IMU;AX;7.0;AY;-5.0;AZ;258.0;GX;-2.0;GY;0.0;GZ;0.0;MAGX;46.0;MAGY;-113.0;MAGZ;155.0
MOT;0;1000.0;1;1000.0;2;1000.0;3;1000.0;4;0.0;5;0.0;6;0.0;7;0.0;
RC;ROLL;1486.0;PITCH;1507.0;YAW;1513.0;THROTTLE;1059.0;AUX1;1536.0;AUX2;1500.0;AUX3;1500.0;AUX4;1500.0
ALTITUDE;20.0
DEBUG;DEBUG10.0;DEBUG2;0.0;DEBUG3;20.0;DEBUG4;0.0
ATTITUDE;ANGX;-8.0;ANGY;1.0;HEAD;-141.0
STATUS;CYCLETIME;2908;I2CERR;0;PRESENT;23;MODE;2
RAW_IMU;AX;7.0;AY;-6.0;AZ;259.0;GX;-2.0;GY;0.0;GZ;0.0;MAGX;46.0;MAGY;-113.0;MAGZ;155.0
MOT;0;1000.0;1;1000.0;2;1000.0;3;1000.0;4;0.0;5;0.0;6;0.0;7;0.0;
RC;ROLL;1490.0;PITCH;1507.0;YAW;1517.0;THROTTLE;1059.0;AUX1;1536.0;AUX2;1500.0;AUX3;1500.0;AUX4;1500.0
ALTITUDE;20.0
DEBUG;DEBUG10.0;DEBUG2;0.0;DEBUG3;20.0;DEBUG4;0.0
ATTITUDE;ANGX;-8.0;ANGY;1.0;HEAD;-141.0
STATUS;CYCLETIME;2896;I2CERR;0;PRESENT;23;MODE;2
RAW_IMU;AX;7.0;AY;-4.0;AZ;257.0;GX;-2.0;GY;0.0;GZ;1.0;MAGX;46.0;MAGY;-113.0;MAGZ;155.0
MOT;0;1000.0;1;1000.0;2;1000.0;3;1000.0;4;0.0;5;0.0;6;0.0;7;0.0;
RC;ROLL;1496.0;PITCH;1503.0;YAW;1517.0;THROTTLE;1064.0;AUX1;1536.0;AUX2;1500.0;AUX3;1500.0;AUX4;1500.0
ALTITUDE;20.0
DEBUG;DEBUG10.0;DEBUG2;0.0;DEBUG3;20.0;DEBUG4;0.0
ATTITUDE;ANGX;-8.0;ANGY;1.0;HEAD;-141.0
STATUS;CYCLETIME;2892;I2CERR;0;PRESENT;23;MODE;2
RAW_IMU;AX;8.0;AY;-3.0;AZ;259.0;GX;-2.0;GY;1.0;GZ;1.0;MAGX;45.0;MAGY;-114.0;MAGZ;154.0
MOT;0;1000.0;1;1000.0;2;1000.0;3;1000.0;4;0.0;5;0.0;6;0.0;7;0.0;
RC;ROLL;1496.0;PITCH;1503.0;YAW;1517.0;THROTTLE;1061.0;AUX1;1536.0;AUX2;1500.0;AUX3;1500.0;AUX4;1500.0
ALTITUDE;20.0
DEBUG;DEBUG10.0;DEBUG2;0.0;DEBUG3;20.0;DEBUG4;0.0
ATTITUDE;ANGX;-8.0;ANGY;1.0;HEAD;-140.0
STATUS;CYCLETIME;2928;I2CERR;0;PRESENT;23;MODE;2
RAW_IMU;AX;7.0;AY;-4.0;AZ;256.0;GX;-2.0;GY;0.0;GZ;1.0;MAGX;45.0;MAGY;-114.0;MAGZ;154.0
MOT;0;1000.0;1;1000.0;2;1000.0;3;1000.0;4;0.0;5;0.0;6;0.0;7;0.0;
RC;ROLL;1496.0;PITCH;1503.0;YAW;1517.0;THROTTLE;1061.0;AUX1;1536.0;AUX2;1500.0;AUX3;1500.0;AUX4;1500.0
ALTITUDE;20.0
DEBUG;DEBUG10.0;DEBUG2;0.0;DEBUG3;20.0;DEBUG4;0.0
ATTITUDE;ANGX;-8.0;ANGY;1.0;HEAD;-140.0
STATUS;CYCLETIME;3072;I2CERR;0;PRESENT;23;MODE;2
RAW_IMU;AX;7.0;AY;-4.0;AZ;256.0;GX;-2.0;GY;0.0;GZ;1.0;MAGX;47.0;MAGY;-115.0;MAGZ;154.0
MOT;0;1000.0;1;1000.0;2;1000.0;3;1000.0;4;0.0;5;0.0;6;0.0;7;0.0;
RC;ROLL;1490.0;PITCH;1505.0;YAW;1517.0;THROTTLE;1059.0;AUX1;1536.0;AUX2;1500.0;AUX3;1500.0;AUX4;1500.0
ALTITUDE;20.0
DEBUG;DEBUG10.0;DEBUG2;0.0;DEBUG3;20.0;DEBUG4;0.0
ATTITUDE;ANGX;-8.0;ANGY;1.0;HEAD;-140.0
STATUS;CYCLETIME;2892;I2CERR;0;PRESENT;23;MODE;2
RAW_IMU;AX;8.0;AY;-4.0;AZ;254.0;GX;-2.0;GY;0.0;GZ;1.0;MAGX;47.0;MAGY;-115.0;MAGZ;154.0
MOT;0;1000.0;1;1000.0;2;1000.0;3;1000.0;4;0.0;5;0.0;6;0.0;7;0.0;
RC;ROLL;1490.0;PITCH;1505.0;YAW;1520.0;THROTTLE;1057.0;AUX1;1532.0;AUX2;1500.0;AUX3;1500.0;AUX4;1500.0
ALTITUDE;20.0
DEBUG;DEBUG10.0;DEBUG2;0.0;DEBUG3;20.0;DEBUG4;0.0
ATTITUDE;ANGX;-8.0;ANGY;1.0;HEAD;-140.0
STATUS;CYCLETIME;2892;I2CERR;0;PRESENT;23;MODE;2
RAW_IMU;AX;8.0;AY;-5.0;AZ;255.0;GX;-2.0;GY;0.0;GZ;1.0;MAGX;45.0;MAGY;-114.0;MAGZ;154.0
MOT;0;1000.0;1;1000.0;2;1000.0;3;1000.0;4;0.0;5;0.0;6;0.0;7;0.0;
RC;ROLL;1490.0;PITCH;1503.0;YAW;1520.0;THROTTLE;1062.0;AUX1;1532.0;AUX2;1500.0;AUX3;1500.0;AUX4;1500.0
ALTITUDE;20.0
DEBUG;DEBUG10.0;DEBUG2;0.0;DEBUG3;20.0;DEBUG4;0.0
ATTITUDE;ANGX;-8.0;ANGY;1.0;HEAD;-140.0
STATUS;CYCLETIME;3012;I2CERR;0;PRESENT;23;MODE;2
RAW_IMU;AX;8.0;AY;-3.0;AZ;256.0;GX;-2.0;GY;0.0;GZ;1.0;MAGX;45.0;MAGY;-114.0;MAGZ;154.0
MOT;0;1000.0;1;1000.0;2;1000.0;3;1000.0;4;0.0;5;0.0;6;0.0;7;0.0;
RC;ROLL;1492.0;PITCH;1501.0;YAW;1516.0;THROTTLE;1059.0;AUX1;1532.0;AUX2;1500.0;AUX3;1500.0;AUX4;1500.0
ALTITUDE;20.0
DEBUG;DEBUG10.0;DEBUG2;0.0;DEBUG3;20.0;DEBUG4;0.0
ATTITUDE;ANGX;-8.0;ANGY;1.0;HEAD;-140.0
STATUS;CYCLETIME;2928;I2CERR;0;PRESENT;23;MODE;2
RAW_IMU;AX;26.0;AY;1.0;AZ;256.0;GX;-1.0;GY;1.0;GZ;1.0;MAGX;47.0;MAGY;-114.0;MAGZ;155.0
MOT;0;1000.0;1;1000.0;2;1000.0;3;1000.0;4;0.0;5;0.0;6;0.0;7;0.0;
RC;ROLL;1495.0;PITCH;1501.0;YAW;1516.0;THROTTLE;1059.0;AUX1;1532.0;AUX2;1500.0;AUX3;1500.0;AUX4;1500.0
ALTITUDE;20.0
DEBUG;DEBUG10.0;DEBUG2;0.0;DEBUG3;20.0;DEBUG4;0.0
ATTITUDE;ANGX;-8.0;ANGY;1.0;HEAD;-140.0
STATUS;CYCLETIME;2964;I2CERR;0;PRESENT;23;MODE;2
RAW_IMU;AX;17.0;AY;-2.0;AZ;254.0;GX;-2.0;GY;1.0;GZ;1.0;MAGX;47.0;MAGY;-114.0;MAGZ;155.0
MOT;0;1000.0;1;1000.0;2;1000.0;3;1000.0;4;0.0;5;0.0;6;0.0;7;0.0;
RC;ROLL;1495.0;PITCH;1501.0;YAW;1516.0;THROTTLE;1059.0;AUX1;1532.0;AUX2;1500.0;AUX3;1500.0;AUX4;1500.0
ALTITUDE;20.0
DEBUG;DEBUG10.0;DEBUG2;0.0;DEBUG3;20.0;DEBUG4;0.0
ATTITUDE;ANGX;-8.0;ANGY;1.0;HEAD;-141.0
STATUS;CYCLETIME;2900;I2CERR;0;PRESENT;23;MODE;2
RAW_IMU;AX;9.0;AY;-3.0;AZ;259.0;GX;-4.0;GY;0.0;GZ;0.0;MAGX;46.0;MAGY;-114.0;MAGZ;154.0
MOT;0;1000.0;1;1000.0;2;1000.0;3;1000.0;4;0.0;5;0.0;6;0.0;7;0.0;
RC;ROLL;1497.0;PITCH;1501.0;YAW;1516.0;THROTTLE;1057.0;AUX1;1532.0;AUX2;1500.0;AUX3;1500.0;AUX4;1500.0
ALTITUDE;20.0
DEBUG;DEBUG10.0;DEBUG2;0.0;DEBUG3;20.0;DEBUG4;0.0
ATTITUDE;ANGX;-8.0;ANGY;1.0;HEAD;-141.0
STATUS;CYCLETIME;2916;I2CERR;0;PRESENT;23;MODE;2
RAW_IMU;AX;5.0;AY;-6.0;AZ;253.0;GX;0.0;GY;3.0;GZ;0.0;MAGX;46.0;MAGY;-114.0;MAGZ;154.0
MOT;0;1000.0;1;1000.0;2;1000.0;3;1000.0;4;0.0;5;0.0;6;0.0;7;0.0;
RC;ROLL;1497.0;PITCH;1499.0;YAW;1519.0;THROTTLE;1057.0;AUX1;1532.0;AUX2;1500.0;AUX3;1500.0;AUX4;1500.0
ALTITUDE;20.0
DEBUG;DEBUG10.0;DEBUG2;0.0;DEBUG3;20.0;DEBUG4;0.0
ATTITUDE;ANGX;-8.0;ANGY;1.0;HEAD;-141.0
STATUS;CYCLETIME;2908;I2CERR;0;PRESENT;23;MODE;2
RAW_IMU;AX;1.0;AY;-7.0;AZ;254.0;GX;-3.0;GY;0.0;GZ;1.0;MAGX;46.0;MAGY;-114.0;MAGZ;154.0
MOT;0;1000.0;1;1000.0;2;1000.0;3;1000.0;4;0.0;5;0.0;6;0.0;7;0.0;
RC;ROLL;1497.0;PITCH;1499.0;YAW;1519.0;THROTTLE;1057.0;AUX1;1532.0;AUX2;1500.0;AUX3;1500.0;AUX4;1500.0
ALTITUDE;20.0
DEBUG;DEBUG10.0;DEBUG2;0.0;DEBUG3;20.0;DEBUG4;0.0
ATTITUDE;ANGX;-8.0;ANGY;1.0;HEAD;-141.0
STATUS;CYCLETIME;2928;I2CERR;0;PRESENT;23;MODE;2
RAW_IMU;AX;5.0;AY;-7.0;AZ;256.0;GX;-2.0;GY;0.0;GZ;1.0;MAGX;46.0;MAGY;-114.0;MAGZ;154.0
MOT;0;1000.0;1;1000.0;2;1000.0;3;1000.0;4;0.0;5;0.0;6;0.0;7;0.0;
RC;ROLL;1495.0;PITCH;1496.0;YAW;1519.0;THROTTLE;1061.0;AUX1;1532.0;AUX2;1500.0;AUX3;1500.0;AUX4;1500.0
ALTITUDE;20.0
DEBUG;DEBUG10.0;DEBUG2;0.0;DEBUG3;20.0;DEBUG4;0.0
ATTITUDE;ANGX;-8.0;ANGY;1.0;HEAD;-141.0
STATUS;CYCLETIME;2900;I2CERR;0;PRESENT;23;MODE;2
RAW_IMU;AX;6.0;AY;-3.0;AZ;254.0;GX;-2.0;GY;1.0;GZ;1.0;MAGX;47.0;MAGY;-114.0;MAGZ;156.0
MOT;0;1000.0;1;1000.0;2;1000.0;3;1000.0;4;0.0;5;0.0;6;0.0;7;0.0;
RC;ROLL;1495.0;PITCH;1496.0;YAW;1519.0;THROTTLE;1061.0;AUX1;1532.0;AUX2;1500.0;AUX3;1500.0;AUX4;1500.0
ALTITUDE;20.0
DEBUG;DEBUG10.0;DEBUG2;0.0;DEBUG3;20.0;DEBUG4;0.0
ATTITUDE;ANGX;-8.0;ANGY;1.0;HEAD;-141.0
STATUS;CYCLETIME;3008;I2CERR;0;PRESENT;23;MODE;2
RAW_IMU;AX;6.0;AY;-5.0;AZ;253.0;GX;-1.0;GY;1.0;GZ;1.0;MAGX;47.0;MAGY;-114.0;MAGZ;156.0
MOT;0;1000.0;1;1000.0;2;1000.0;3;1000.0;4;0.0;5;0.0;6;0.0;7;0.0;
RC;ROLL;1495.0;PITCH;1502.0;YAW;1519.0;THROTTLE;1059.0;AUX1;1532.0;AUX2;1500.0;AUX3;1500.0;AUX4;1500.0
ALTITUDE;20.0
DEBUG;DEBUG10.0;DEBUG2;0.0;DEBUG3;20.0;DEBUG4;0.0
ATTITUDE;ANGX;-8.0;ANGY;1.0;HEAD;-141.0
STATUS;CYCLETIME;2892;I2CERR;0;PRESENT;23;MODE;2
RAW_IMU;AX;10.0;AY;-6.0;AZ;256.0;GX;-2.0;GY;0.0;GZ;1.0;MAGX;46.0;MAGY;-114.0;MAGZ;155.0
MOT;0;1000.0;1;1000.0;2;1000.0;3;1000.0;4;0.0;5;0.0;6;0.0;7;0.0;
RC;ROLL;1498.0;PITCH;1502.0;YAW;1519.0;THROTTLE;1059.0;AUX1;1532.0;AUX2;1500.0;AUX3;1500.0;AUX4;1500.0
ALTITUDE;20.0
DEBUG;DEBUG10.0;DEBUG2;0.0;DEBUG3;20.0;DEBUG4;0.0
ATTITUDE;ANGX;-8.0;ANGY;1.0;HEAD;-141.0
STATUS;CYCLETIME;2904;I2CERR;0;PRESENT;23;MODE;2
RAW_IMU;AX;7.0;AY;-5.0;AZ;255.0;GX;-2.0;GY;0.0;GZ;1.0;MAGX;46.0;MAGY;-114.0;MAGZ;155.0
MOT;0;1000.0;1;1000.0;2;1000.0;3;1000.0;4;0.0;5;0.0;6;0.0;7;0.0;
RC;ROLL;1498.0;PITCH;1502.0;YAW;1517.0;THROTTLE;1059.0;AUX1;1532.0;AUX2;1500.0;AUX3;1500.0;AUX4;1500.0
ALTITUDE;20.0
DEBUG;DEBUG10.0;DEBUG2;0.0;DEBUG3;20.0;DEBUG4;0.0
ATTITUDE;ANGX;-8.0;ANGY;1.0;HEAD;-141.0
STATUS;CYCLETIME;3076;I2CERR;0;PRESENT;23;MODE;2
RAW_IMU;AX;6.0;AY;-4.0;AZ;256.0;GX;-1.0;GY;2.0;GZ;0.0;MAGX;47.0;MAGY;-114.0;MAGZ;154.0
MOT;0;1000.0;1;1000.0;2;1000.0;3;1000.0;4;0.0;5;0.0;6;0.0;7;0.0;
RC;ROLL;1498.0;PITCH;1504.0;YAW;1519.0;THROTTLE;1059.0;AUX1;1530.0;AUX2;1500.0;AUX3;1500.0;AUX4;1500.0
ALTITUDE;20.0
DEBUG;DEBUG10.0;DEBUG2;0.0;DEBUG3;20.0;DEBUG4;0.0
ATTITUDE;ANGX;-8.0;ANGY;2.0;HEAD;-141.0
STATUS;CYCLETIME;2924;I2CERR;0;PRESENT;23;MODE;2
RAW_IMU;AX;7.0;AY;-4.0;AZ;253.0;GX;-4.0;GY;0.0;GZ;1.0;MAGX;47.0;MAGY;-114.0;MAGZ;154.0
MOT;0;1000.0;1;1000.0;2;1000.0;3;1000.0;4;0.0;5;0.0;6;0.0;7;0.0;
RC;ROLL;1495.0;PITCH;1504.0;YAW;1519.0;THROTTLE;1059.0;AUX1;1530.0;AUX2;1500.0;AUX3;1500.0;AUX4;1500.0
ALTITUDE;20.0
DEBUG;DEBUG10.0;DEBUG2;0.0;DEBUG3;20.0;DEBUG4;0.0
ATTITUDE;ANGX;-8.0;ANGY;1.0;HEAD;-141.0
STATUS;CYCLETIME;2944;I2CERR;0;PRESENT;23;MODE;2
RAW_IMU;AX;6.0;AY;-7.0;AZ;254.0;GX;-2.0;GY;1.0;GZ;0.0;MAGX;47.0;MAGY;-114.0;MAGZ;154.0
MOT;0;1000.0;1;1000.0;2;1000.0;3;1000.0;4;0.0;5;0.0;6;0.0;7;0.0;
RC;ROLL;1498.0;PITCH;1502.0;YAW;1523.0;THROTTLE;1050.0;AUX1;1532.0;AUX2;1500.0;AUX3;1500.0;AUX4;1500.0
ALTITUDE;20.0
DEBUG;DEBUG10.0;DEBUG2;0.0;DEBUG3;20.0;DEBUG4;0.0
ATTITUDE;ANGX;-8.0;ANGY;1.0;HEAD;-141.0
STATUS;CYCLETIME;2900;I2CERR;0;PRESENT;23;MODE;2
RAW_IMU;AX;6.0;AY;-6.0;AZ;254.0;GX;-2.0;GY;0.0;GZ;1.0;MAGX;46.0;MAGY;-114.0;MAGZ;154.0
MOT;0;1000.0;1;1000.0;2;1000.0;3;1000.0;4;0.0;5;0.0;6;0.0;7;0.0;
RC;ROLL;1498.0;PITCH;1502.0;YAW;1529.0;THROTTLE;1050.0;AUX1;1530.0;AUX2;1500.0;AUX3;1500.0;AUX4;1500.0
ALTITUDE;20.0
DEBUG;DEBUG10.0;DEBUG2;0.0;DEBUG3;20.0;DEBUG4;0.0
ATTITUDE;ANGX;-8.0;ANGY;1.0;HEAD;-141.0
STATUS;CYCLETIME;2904;I2CERR;0;PRESENT;23;MODE;2
RAW_IMU;AX;5.0;AY;-4.0;AZ;256.0;GX;-2.0;GY;1.0;GZ;1.0;MAGX;46.0;MAGY;-114.0;MAGZ;154.0
MOT;0;1000.0;1;1000.0;2;1000.0;3;1000.0;4;0.0;5;0.0;6;0.0;7;0.0;
RC;ROLL;1498.0;PITCH;1502.0;YAW;1525.0;THROTTLE;1055.0;AUX1;1527.0;AUX2;1500.0;AUX3;1500.0;AUX4;1500.0
ALTITUDE;20.0
DEBUG;DEBUG10.0;DEBUG2;0.0;DEBUG3;20.0;DEBUG4;0.0
ATTITUDE;ANGX;-8.0;ANGY;1.0;HEAD;-141.0
STATUS;CYCLETIME;2928;I2CERR;0;PRESENT;23;MODE;2
RAW_IMU;AX;6.0;AY;-6.0;AZ;256.0;GX;-2.0;GY;1.0;GZ;0.0;MAGX;46.0;MAGY;-115.0;MAGZ;156.0
MOT;0;1000.0;1;1000.0;2;1000.0;3;1000.0;4;0.0;5;0.0;6;0.0;7;0.0;
RC;ROLL;1498.0;PITCH;1498.0;YAW;1522.0;THROTTLE;1059.0;AUX1;1531.0;AUX2;1500.0;AUX3;1500.0;AUX4;1500.0
ALTITUDE;20.0
DEBUG;DEBUG10.0;DEBUG2;0.0;DEBUG3;20.0;DEBUG4;0.0
ATTITUDE;ANGX;-8.0;ANGY;1.0;HEAD;-141.0
STATUS;CYCLETIME;2904;I2CERR;0;PRESENT;23;MODE;2
RAW_IMU;AX;7.0;AY;-6.0;AZ;255.0;GX;-2.0;GY;1.0;GZ;0.0;MAGX;46.0;MAGY;-115.0;MAGZ;156.0
MOT;0;1000.0;1;1000.0;2;1000.0;3;1000.0;4;0.0;5;0.0;6;0.0;7;0.0;
RC;ROLL;1500.0;PITCH;1502.0;YAW;1520.0;THROTTLE;1059.0;AUX1;1534.0;AUX2;1500.0;AUX3;1500.0;AUX4;1500.0
ALTITUDE;20.0
DEBUG;DEBUG10.0;DEBUG2;0.0;DEBUG3;20.0;DEBUG4;0.0
ATTITUDE;ANGX;-8.0;ANGY;2.0;HEAD;-141.0
STATUS;CYCLETIME;2892;I2CERR;0;PRESENT;23;MODE;2
RAW_IMU;AX;9.0;AY;-4.0;AZ;255.0;GX;-3.0;GY;0.0;GZ;1.0;MAGX;46.0;MAGY;-115.0;MAGZ;155.0
MOT;0;1000.0;1;1000.0;2;1000.0;3;1000.0;4;0.0;5;0.0;6;0.0;7;0.0;
RC;ROLL;1496.0;PITCH;1500.0;YAW;1520.0;THROTTLE;1059.0;AUX1;1534.0;AUX2;1500.0;AUX3;1500.0;AUX4;1500.0
ALTITUDE;20.0
DEBUG;DEBUG10.0;DEBUG2;0.0;DEBUG3;20.0;DEBUG4;0.0
ATTITUDE;ANGX;-8.0;ANGY;2.0;HEAD;-141.0
STATUS;CYCLETIME;3008;I2CERR;0;PRESENT;23;MODE;2
RAW_IMU;AX;7.0;AY;-5.0;AZ;251.0;GX;-2.0;GY;0.0;GZ;1.0;MAGX;46.0;MAGY;-115.0;MAGZ;155.0
MOT;0;1000.0;1;1000.0;2;1000.0;3;1000.0;4;0.0;5;0.0;6;0.0;7;0.0;
RC;ROLL;1496.0;PITCH;1498.0;YAW;1531.0;THROTTLE;1054.0;AUX1;1528.0;AUX2;1500.0;AUX3;1500.0;AUX4;1500.0
ALTITUDE;20.0
DEBUG;DEBUG10.0;DEBUG2;0.0;DEBUG3;20.0;DEBUG4;0.0
ATTITUDE;ANGX;-8.0;ANGY;1.0;HEAD;-141.0
STATUS;CYCLETIME;2928;I2CERR;0;PRESENT;23;MODE;2
RAW_IMU;AX;7.0;AY;-4.0;AZ;254.0;GX;-2.0;GY;1.0;GZ;1.0;MAGX;46.0;MAGY;-115.0;MAGZ;155.0
MOT;0;1000.0;1;1000.0;2;1000.0;3;1000.0;4;0.0;5;0.0;6;0.0;7;0.0;
RC;ROLL;1501.0;PITCH;1498.0;YAW;1531.0;THROTTLE;1046.0;AUX1;1526.0;AUX2;1500.0;AUX3;1500.0;AUX4;1500.0
ALTITUDE;20.0
DEBUG;DEBUG10.0;DEBUG2;0.0;DEBUG3;20.0;DEBUG4;0.0
ATTITUDE;ANGX;-8.0;ANGY;2.0;HEAD;-141.0
STATUS;CYCLETIME;2916;I2CERR;0;PRESENT;23;MODE;2
RAW_IMU;AX;4.0;AY;-6.0;AZ;257.0;GX;-2.0;GY;1.0;GZ;1.0;MAGX;46.0;MAGY;-115.0;MAGZ;155.0
MOT;0;1000.0;1;1000.0;2;1000.0;3;1000.0;4;0.0;5;0.0;6;0.0;7;0.0;
RC;ROLL;1501.0;PITCH;1509.0;YAW;1528.0;THROTTLE;1049.0;AUX1;1530.0;AUX2;1500.0;AUX3;1500.0;AUX4;1500.0
ALTITUDE;20.0
DEBUG;DEBUG10.0;DEBUG2;0.0;DEBUG3;20.0;DEBUG4;0.0
ATTITUDE;ANGX;-8.0;ANGY;2.0;HEAD;-141.0
STATUS;CYCLETIME;2928;I2CERR;0;PRESENT;23;MODE;2
RAW_IMU;AX;6.0;AY;-5.0;AZ;255.0;GX;-2.0;GY;0.0;GZ;0.0;MAGX;46.0;MAGY;-113.0;MAGZ;155.0
MOT;0;1000.0;1;1000.0;2;1000.0;3;1000.0;4;0.0;5;0.0;6;0.0;7;0.0;
RC;ROLL;1497.0;PITCH;1511.0;YAW;1528.0;THROTTLE;1052.0;AUX1;1536.0;AUX2;1500.0;AUX3;1500.0;AUX4;1500.0
ALTITUDE;20.0
DEBUG;DEBUG10.0;DEBUG2;0.0;DEBUG3;20.0;DEBUG4;0.0
ATTITUDE;ANGX;-8.0;ANGY;1.0;HEAD;-141.0
STATUS;CYCLETIME;2904;I2CERR;0;PRESENT;23;MODE;2
RAW_IMU;AX;7.0;AY;-6.0;AZ;255.0;GX;0.0;GY;2.0;GZ;0.0;MAGX;46.0;MAGY;-113.0;MAGZ;155.0
MOT;0;1000.0;1;1000.0;2;1000.0;3;1000.0;4;0.0;5;0.0;6;0.0;7;0.0;
RC;ROLL;1493.0;PITCH;1504.0;YAW;1524.0;THROTTLE;1052.0;AUX1;1531.0;AUX2;1500.0;AUX3;1500.0;AUX4;1500.0
ALTITUDE;20.0
DEBUG;DEBUG10.0;DEBUG2;0.0;DEBUG3;20.0;DEBUG4;0.0
ATTITUDE;ANGX;-8.0;ANGY;2.0;HEAD;-141.0
STATUS;CYCLETIME;3196;I2CERR;0;PRESENT;23;MODE;2
RAW_IMU;AX;9.0;AY;-5.0;AZ;258.0;GX;-3.0;GY;0.0;GZ;1.0;MAGX;46.0;MAGY;-114.0;MAGZ;155.0
MOT;0;1000.0;1;1000.0;2;1000.0;3;1000.0;4;0.0;5;0.0;6;0.0;7;0.0;
RC;ROLL;1496.0;PITCH;1498.0;YAW;1519.0;THROTTLE;1057.0;AUX1;1529.0;AUX2;1500.0;AUX3;1500.0;AUX4;1500.0
ALTITUDE;20.0
DEBUG;DEBUG10.0;DEBUG2;0.0;DEBUG3;20.0;DEBUG4;0.0
ATTITUDE;ANGX;-8.0;ANGY;2.0;HEAD;-141.0
STATUS;CYCLETIME;2924;I2CERR;0;PRESENT;23;MODE;2
RAW_IMU;AX;8.0;AY;-5.0;AZ;260.0;GX;-1.0;GY;1.0;GZ;1.0;MAGX;46.0;MAGY;-114.0;MAGZ;155.0
MOT;0;1000.0;1;1000.0;2;1000.0;3;1000.0;4;0.0;5;0.0;6;0.0;7;0.0;
RC;ROLL;1496.0;PITCH;1498.0;YAW;1519.0;THROTTLE;1057.0;AUX1;1532.0;AUX2;1500.0;AUX3;1500.0;AUX4;1500.0
ALTITUDE;20.0
DEBUG;DEBUG10.0;DEBUG2;0.0;DEBUG3;20.0;DEBUG4;0.0
ATTITUDE;ANGX;-8.0;ANGY;2.0;HEAD;-141.0
STATUS;CYCLETIME;2900;I2CERR;0;PRESENT;23;MODE;2
RAW_IMU;AX;8.0;AY;-4.0;AZ;258.0;GX;-2.0;GY;0.0;GZ;1.0;MAGX;46.0;MAGY;-114.0;MAGZ;155.0
MOT;0;1000.0;1;1000.0;2;1000.0;3;1000.0;4;0.0;5;0.0;6;0.0;7;0.0;
RC;ROLL;1496.0;PITCH;1503.0;YAW;1527.0;THROTTLE;1051.0;AUX1;1535.0;AUX2;1500.0;AUX3;1500.0;AUX4;1500.0
ALTITUDE;20.0
DEBUG;DEBUG10.0;DEBUG2;0.0;DEBUG3;20.0;DEBUG4;0.0
ATTITUDE;ANGX;-8.0;ANGY;2.0;HEAD;-141.0
STATUS;CYCLETIME;2896;I2CERR;0;PRESENT;23;MODE;2
RAW_IMU;AX;9.0;AY;-5.0;AZ;257.0;GX;-2.0;GY;0.0;GZ;1.0;MAGX;46.0;MAGY;-114.0;MAGZ;155.0
MOT;0;1000.0;1;1000.0;2;1000.0;3;1000.0;4;0.0;5;0.0;6;0.0;7;0.0;
RC;ROLL;1486.0;PITCH;1503.0;YAW;1527.0;THROTTLE;1051.0;AUX1;1535.0;AUX2;1500.0;AUX3;1500.0;AUX4;1500.0
ALTITUDE;20.0
DEBUG;DEBUG10.0;DEBUG2;0.0;DEBUG3;20.0;DEBUG4;0.0
ATTITUDE;ANGX;-8.0;ANGY;2.0;HEAD;-141.0
STATUS;CYCLETIME;2896;I2CERR;0;PRESENT;23;MODE;2
RAW_IMU;AX;8.0;AY;-1.0;AZ;257.0;GX;-2.0;GY;0.0;GZ;0.0;MAGX;46.0;MAGY;-114.0;MAGZ;155.0
MOT;0;1000.0;1;1000.0;2;1000.0;3;1000.0;4;0.0;5;0.0;6;0.0;7;0.0;
RC;ROLL;1490.0;PITCH;1503.0;YAW;1525.0;THROTTLE;1057.0;AUX1;1532.0;AUX2;1500.0;AUX3;1500.0;AUX4;1500.0
ALTITUDE;20.0
DEBUG;DEBUG10.0;DEBUG2;0.0;DEBUG3;20.0;DEBUG4;0.0
ATTITUDE;ANGX;-8.0;ANGY;2.0;HEAD;-141.0
STATUS;CYCLETIME;3048;I2CERR;0;PRESENT;23;MODE;2
RAW_IMU;AX;8.0;AY;-5.0;AZ;256.0;GX;-2.0;GY;1.0;GZ;1.0;MAGX;46.0;MAGY;-114.0;MAGZ;156.0
MOT;0;1000.0;1;1000.0;2;1000.0;3;1000.0;4;0.0;5;0.0;6;0.0;7;0.0;
RC;ROLL;1490.0;PITCH;1505.0;YAW;1525.0;THROTTLE;1057.0;AUX1;1529.0;AUX2;1500.0;AUX3;1500.0;AUX4;1500.0
ALTITUDE;20.0
DEBUG;DEBUG10.0;DEBUG2;0.0;DEBUG3;20.0;DEBUG4;0.0
ATTITUDE;ANGX;-8.0;ANGY;2.0;HEAD;-141.0
STATUS;CYCLETIME;2928;I2CERR;0;PRESENT;23;MODE;2
RAW_IMU;AX;8.0;AY;-5.0;AZ;258.0;GX;-2.0;GY;0.0;GZ;1.0;MAGX;46.0;MAGY;-114.0;MAGZ;156.0
MOT;0;1000.0;1;1000.0;2;1000.0;3;1000.0;4;0.0;5;0.0;6;0.0;7;0.0;
RC;ROLL;1496.0;PITCH;1505.0;YAW;1517.0;THROTTLE;1061.0;AUX1;1529.0;AUX2;1500.0;AUX3;1500.0;AUX4;1500.0
ALTITUDE;20.0
DEBUG;DEBUG10.0;DEBUG2;0.0;DEBUG3;20.0;DEBUG4;0.0
ATTITUDE;ANGX;-8.0;ANGY;2.0;HEAD;-141.0
STATUS;CYCLETIME;3036;I2CERR;0;PRESENT;23;MODE;2
RAW_IMU;AX;7.0;AY;-4.0;AZ;258.0;GX;-2.0;GY;0.0;GZ;0.0;MAGX;46.0;MAGY;-114.0;MAGZ;155.0
MOT;0;1000.0;1;1000.0;2;1000.0;3;1000.0;4;0.0;5;0.0;6;0.0;7;0.0;
RC;ROLL;1495.0;PITCH;1501.0;YAW;1517.0;THROTTLE;1063.0;AUX1;1529.0;AUX2;1500.0;AUX3;1500.0;AUX4;1500.0
ALTITUDE;20.0
DEBUG;DEBUG10.0;DEBUG2;0.0;DEBUG3;20.0;DEBUG4;0.0
ATTITUDE;ANGX;-8.0;ANGY;2.0;HEAD;-141.0
STATUS;CYCLETIME;2952;I2CERR;0;PRESENT;23;MODE;2
RAW_IMU;AX;6.0;AY;-4.0;AZ;256.0;GX;-2.0;GY;0.0;GZ;0.0;MAGX;46.0;MAGY;-114.0;MAGZ;155.0
MOT;0;1000.0;1;1000.0;2;1000.0;3;1000.0;4;0.0;5;0.0;6;0.0;7;0.0;
RC;ROLL;1495.0;PITCH;1501.0;YAW;1517.0;THROTTLE;1059.0;AUX1;1529.0;AUX2;1500.0;AUX3;1500.0;AUX4;1500.0
ALTITUDE;20.0
DEBUG;DEBUG10.0;DEBUG2;0.0;DEBUG3;20.0;DEBUG4;0.0
ATTITUDE;ANGX;-8.0;ANGY;2.0;HEAD;-141.0
STATUS;CYCLETIME;3008;I2CERR;0;PRESENT;23;MODE;2
RAW_IMU;AX;7.0;AY;-4.0;AZ;255.0;GX;-2.0;GY;1.0;GZ;1.0;MAGX;46.0;MAGY;-115.0;MAGZ;154.0
MOT;0;1000.0;1;1000.0;2;1000.0;3;1000.0;4;0.0;5;0.0;6;0.0;7;0.0;
RC;ROLL;1496.0;PITCH;1497.0;YAW;1515.0;THROTTLE;1057.0;AUX1;1533.0;AUX2;1500.0;AUX3;1500.0;AUX4;1500.0
ALTITUDE;20.0
DEBUG;DEBUG10.0;DEBUG2;0.0;DEBUG3;20.0;DEBUG4;0.0
ATTITUDE;ANGX;-8.0;ANGY;2.0;HEAD;-141.0
STATUS;CYCLETIME;2972;I2CERR;0;PRESENT;23;MODE;2
RAW_IMU;AX;6.0;AY;-5.0;AZ;256.0;GX;-2.0;GY;0.0;GZ;0.0;MAGX;46.0;MAGY;-115.0;MAGZ;154.0
MOT;0;1000.0;1;1000.0;2;1000.0;3;1000.0;4;0.0;5;0.0;6;0.0;7;0.0;
RC;ROLL;1500.0;PITCH;1497.0;YAW;1521.0;THROTTLE;1057.0;AUX1;1522.0;AUX2;1500.0;AUX3;1500.0;AUX4;1500.0
ALTITUDE;20.0
DEBUG;DEBUG10.0;DEBUG2;0.0;DEBUG3;20.0;DEBUG4;0.0
ATTITUDE;ANGX;-8.0;ANGY;2.0;HEAD;-141.0
STATUS;CYCLETIME;2928;I2CERR;0;PRESENT;23;MODE;2
RAW_IMU;AX;8.0;AY;-4.0;AZ;257.0;GX;-2.0;GY;1.0;GZ;1.0;MAGX;46.0;MAGY;-113.0;MAGZ;155.0
MOT;0;1000.0;1;1000.0;2;1000.0;3;1000.0;4;0.0;5;0.0;6;0.0;7;0.0;
RC;ROLL;1500.0;PITCH;1497.0;YAW;1521.0;THROTTLE;1059.0;AUX1;1528.0;AUX2;1500.0;AUX3;1500.0;AUX4;1500.0
ALTITUDE;20.0
DEBUG;DEBUG10.0;DEBUG2;0.0;DEBUG3;20.0;DEBUG4;0.0
ATTITUDE;ANGX;-8.0;ANGY;2.0;HEAD;-141.0
STATUS;CYCLETIME;2908;I2CERR;0;PRESENT;23;MODE;2
RAW_IMU;AX;5.0;AY;-4.0;AZ;257.0;GX;-2.0;GY;0.0;GZ;1.0;MAGX;46.0;MAGY;-113.0;MAGZ;155.0
MOT;0;1000.0;1;1000.0;2;1000.0;3;1000.0;4;0.0;5;0.0;6;0.0;7;0.0;
RC;ROLL;1495.0;PITCH;1497.0;YAW;1519.0;THROTTLE;1054.0;AUX1;1533.0;AUX2;1500.0;AUX3;1500.0;AUX4;1500.0
ALTITUDE;20.0
DEBUG;DEBUG10.0;DEBUG2;0.0;DEBUG3;20.0;DEBUG4;0.0
ATTITUDE;ANGX;-8.0;ANGY;2.0;HEAD;-141.0
STATUS;CYCLETIME;2904;I2CERR;0;PRESENT;23;MODE;2
RAW_IMU;AX;4.0;AY;-5.0;AZ;258.0;GX;-2.0;GY;0.0;GZ;1.0;MAGX;46.0;MAGY;-114.0;MAGZ;155.0
MOT;0;1000.0;1;1000.0;2;1000.0;3;1000.0;4;0.0;5;0.0;6;0.0;7;0.0;
RC;ROLL;1493.0;PITCH;1504.0;YAW;1517.0;THROTTLE;1052.0;AUX1;1533.0;AUX2;1500.0;AUX3;1500.0;AUX4;1500.0
ALTITUDE;20.0
DEBUG;DEBUG10.0;DEBUG2;0.0;DEBUG3;20.0;DEBUG4;0.0
ATTITUDE;ANGX;-8.0;ANGY;2.0;HEAD;-141.0
STATUS;CYCLETIME;2916;I2CERR;0;PRESENT;23;MODE;2
RAW_IMU;AX;2.0;AY;-2.0;AZ;257.0;GX;-2.0;GY;0.0;GZ;1.0;MAGX;46.0;MAGY;-114.0;MAGZ;155.0
MOT;0;1000.0;1;1000.0;2;1000.0;3;1000.0;4;0.0;5;0.0;6;0.0;7;0.0;
RC;ROLL;1495.0;PITCH;1502.0;YAW;1517.0;THROTTLE;1055.0;AUX1;1533.0;AUX2;1500.0;AUX3;1500.0;AUX4;1500.0
ALTITUDE;20.0
DEBUG;DEBUG10.0;DEBUG2;0.0;DEBUG3;20.0;DEBUG4;0.0
ATTITUDE;ANGX;-8.0;ANGY;2.0;HEAD;-141.0
STATUS;CYCLETIME;2928;I2CERR;0;PRESENT;23;MODE;2
RAW_IMU;AX;5.0;AY;-3.0;AZ;257.0;GX;-2.0;GY;1.0;GZ;1.0;MAGX;46.0;MAGY;-114.0;MAGZ;155.0
MOT;0;1000.0;1;1000.0;2;1000.0;3;1000.0;4;0.0;5;0.0;6;0.0;7;0.0;
RC;ROLL;1497.0;PITCH;1500.0;YAW;1520.0;THROTTLE;1057.0;AUX1;1529.0;AUX2;1500.0;AUX3;1500.0;AUX4;1500.0
ALTITUDE;20.0
DEBUG;DEBUG10.0;DEBUG2;0.0;DEBUG3;20.0;DEBUG4;0.0
ATTITUDE;ANGX;-8.0;ANGY;2.0;HEAD;-141.0
STATUS;CYCLETIME;2920;I2CERR;0;PRESENT;23;MODE;2
RAW_IMU;AX;6.0;AY;-5.0;AZ;256.0;GX;-2.0;GY;1.0;GZ;1.0;MAGX;45.0;MAGY;-114.0;MAGZ;154.0
MOT;0;1000.0;1;1000.0;2;1000.0;3;1000.0;4;0.0;5;0.0;6;0.0;7;0.0;
RC;ROLL;1497.0;PITCH;1494.0;YAW;1522.0;THROTTLE;1054.0;AUX1;1527.0;AUX2;1500.0;AUX3;1500.0;AUX4;1500.0
ALTITUDE;20.0
DEBUG;DEBUG10.0;DEBUG2;0.0;DEBUG3;20.0;DEBUG4;0.0
ATTITUDE;ANGX;-8.0;ANGY;2.0;HEAD;-141.0
STATUS;CYCLETIME;2896;I2CERR;0;PRESENT;23;MODE;2
RAW_IMU;AX;7.0;AY;-6.0;AZ;257.0;GX;-2.0;GY;1.0;GZ;1.0;MAGX;45.0;MAGY;-114.0;MAGZ;154.0
MOT;0;1000.0;1;1000.0;2;1000.0;3;1000.0;4;0.0;5;0.0;6;0.0;7;0.0;
RC;ROLL;1497.0;PITCH;1497.0;YAW;1524.0;THROTTLE;1055.0;AUX1;1527.0;AUX2;1500.0;AUX3;1500.0;AUX4;1500.0
ALTITUDE;20.0
DEBUG;DEBUG10.0;DEBUG2;0.0;DEBUG3;20.0;DEBUG4;0.0
ATTITUDE;ANGX;-8.0;ANGY;2.0;HEAD;-141.0
STATUS;CYCLETIME;2904;I2CERR;0;PRESENT;23;MODE;2
RAW_IMU;AX;8.0;AY;-6.0;AZ;257.0;GX;-2.0;GY;0.0;GZ;0.0;MAGX;46.0;MAGY;-114.0;MAGZ;154.0
MOT;0;1000.0;1;1000.0;2;1000.0;3;1000.0;4;0.0;5;0.0;6;0.0;7;0.0;
RC;ROLL;1493.0;PITCH;1505.0;YAW;1524.0;THROTTLE;1058.0;AUX1;1527.0;AUX2;1500.0;AUX3;1500.0;AUX4;1500.0
ALTITUDE;20.0
DEBUG;DEBUG10.0;DEBUG2;0.0;DEBUG3;20.0;DEBUG4;0.0
ATTITUDE;ANGX;-8.0;ANGY;2.0;HEAD;-141.0
STATUS;CYCLETIME;2912;I2CERR;0;PRESENT;23;MODE;2
RAW_IMU;AX;7.0;AY;-5.0;AZ;258.0;GX;-2.0;GY;0.0;GZ;1.0;MAGX;46.0;MAGY;-114.0;MAGZ;154.0
MOT;0;1000.0;1;1000.0;2;1000.0;3;1000.0;4;0.0;5;0.0;6;0.0;7;0.0;
RC;ROLL;1493.0;PITCH;1507.0;YAW;1524.0;THROTTLE;1060.0;AUX1;1531.0;AUX2;1500.0;AUX3;1500.0;AUX4;1500.0
ALTITUDE;20.0
DEBUG;DEBUG10.0;DEBUG2;0.0;DEBUG3;20.0;DEBUG4;0.0
ATTITUDE;ANGX;-8.0;ANGY;2.0;HEAD;-141.0
STATUS;CYCLETIME;3056;I2CERR;0;PRESENT;23;MODE;2
RAW_IMU;AX;8.0;AY;-5.0;AZ;256.0;GX;-2.0;GY;0.0;GZ;1.0;MAGX;46.0;MAGY;-114.0;MAGZ;155.0
MOT;0;1000.0;1;1000.0;2;1000.0;3;1000.0;4;0.0;5;0.0;6;0.0;7;0.0;
RC;ROLL;1491.0;PITCH;1507.0;YAW;1520.0;THROTTLE;1060.0;AUX1;1528.0;AUX2;1500.0;AUX3;1500.0;AUX4;1500.0
ALTITUDE;20.0
DEBUG;DEBUG10.0;DEBUG2;0.0;DEBUG3;20.0;DEBUG4;0.0
ATTITUDE;ANGX;-8.0;ANGY;2.0;HEAD;-141.0
STATUS;CYCLETIME;2888;I2CERR;0;PRESENT;23;MODE;2
RAW_IMU;AX;7.0;AY;-5.0;AZ;255.0;GX;-2.0;GY;1.0;GZ;0.0;MAGX;46.0;MAGY;-114.0;MAGZ;155.0
MOT;0;1000.0;1;1000.0;2;1000.0;3;1000.0;4;0.0;5;0.0;6;0.0;7;0.0;
RC;ROLL;1496.0;PITCH;1499.0;YAW;1520.0;THROTTLE;1060.0;AUX1;1526.0;AUX2;1500.0;AUX3;1500.0;AUX4;1500.0
ALTITUDE;20.0
DEBUG;DEBUG10.0;DEBUG2;0.0;DEBUG3;20.0;DEBUG4;0.0
ATTITUDE;ANGX;-8.0;ANGY;2.0;HEAD;-141.0
STATUS;CYCLETIME;2904;I2CERR;0;PRESENT;23;MODE;2
RAW_IMU;AX;7.0;AY;-5.0;AZ;258.0;GX;-3.0;GY;0.0;GZ;0.0;MAGX;46.0;MAGY;-113.0;MAGZ;155.0
MOT;0;1000.0;1;1000.0;2;1000.0;3;1000.0;4;0.0;5;0.0;6;0.0;7;0.0;
RC;ROLL;1490.0;PITCH;1498.0;YAW;1537.0;THROTTLE;1045.0;AUX1;1535.0;AUX2;1500.0;AUX3;1500.0;AUX4;1500.0
ALTITUDE;20.0
DEBUG;DEBUG10.0;DEBUG2;0.0;DEBUG3;20.0;DEBUG4;0.0
ATTITUDE;ANGX;-8.0;ANGY;2.0;HEAD;-141.0
STATUS;CYCLETIME;2900;I2CERR;0;PRESENT;23;MODE;2
RAW_IMU;AX;7.0;AY;-5.0;AZ;254.0;GX;-2.0;GY;1.0;GZ;1.0;MAGX;46.0;MAGY;-113.0;MAGZ;155.0
MOT;0;1000.0;1;1000.0;2;1000.0;3;1000.0;4;0.0;5;0.0;6;0.0;7;0.0;
RC;ROLL;1490.0;PITCH;1508.0;YAW;1537.0;THROTTLE;1048.0;AUX1;1530.0;AUX2;1500.0;AUX3;1500.0;AUX4;1500.0
ALTITUDE;20.0
DEBUG;DEBUG10.0;DEBUG2;0.0;DEBUG3;20.0;DEBUG4;0.0
ATTITUDE;ANGX;-8.0;ANGY;2.0;HEAD;-141.0
STATUS;CYCLETIME;2896;I2CERR;0;PRESENT;23;MODE;2
RAW_IMU;AX;7.0;AY;-6.0;AZ;258.0;GX;-4.0;GY;0.0;GZ;0.0;MAGX;46.0;MAGY;-115.0;MAGZ;155.0
MOT;0;1000.0;1;1000.0;2;1000.0;3;1000.0;4;0.0;5;0.0;6;0.0;7;0.0;
RC;ROLL;1488.0;PITCH;1511.0;YAW;1531.0;THROTTLE;1063.0;AUX1;1517.0;AUX2;1500.0;AUX3;1500.0;AUX4;1500.0
ALTITUDE;20.0
DEBUG;DEBUG10.0;DEBUG2;0.0;DEBUG3;20.0;DEBUG4;0.0
ATTITUDE;ANGX;-8.0;ANGY;1.0;HEAD;-141.0
STATUS;CYCLETIME;2960;I2CERR;0;PRESENT;23;MODE;2
RAW_IMU;AX;7.0;AY;-7.0;AZ;257.0;GX;-2.0;GY;1.0;GZ;1.0;MAGX;46.0;MAGY;-115.0;MAGZ;155.0
MOT;0;1000.0;1;1000.0;2;1000.0;3;1000.0;4;0.0;5;0.0;6;0.0;7;0.0;
RC;ROLL;1475.0;PITCH;1511.0;YAW;1531.0;THROTTLE;1067.0;AUX1;1515.0;AUX2;1500.0;AUX3;1500.0;AUX4;1500.0
ALTITUDE;20.0
DEBUG;DEBUG10.0;DEBUG2;0.0;DEBUG3;20.0;DEBUG4;0.0
ATTITUDE;ANGX;-8.0;ANGY;1.0;HEAD;-141.0
STATUS;CYCLETIME;2916;I2CERR;0;PRESENT;23;MODE;2
RAW_IMU;AX;6.0;AY;-6.0;AZ;257.0;GX;-2.0;GY;1.0;GZ;0.0;MAGX;46.0;MAGY;-114.0;MAGZ;154.0
MOT;0;1000.0;1;1000.0;2;1000.0;3;1000.0;4;0.0;5;0.0;6;0.0;7;0.0;
RC;ROLL;1487.0;PITCH;1505.0;YAW;1522.0;THROTTLE;1067.0;AUX1;1524.0;AUX2;1500.0;AUX3;1500.0;AUX4;1500.0
ALTITUDE;20.0
DEBUG;DEBUG10.0;DEBUG2;0.0;DEBUG3;20.0;DEBUG4;0.0
ATTITUDE;ANGX;-8.0;ANGY;1.0;HEAD;-141.0
STATUS;CYCLETIME;2904;I2CERR;0;PRESENT;23;MODE;2
RAW_IMU;AX;5.0;AY;-3.0;AZ;258.0;GX;-2.0;GY;0.0;GZ;0.0;MAGX;46.0;MAGY;-114.0;MAGZ;154.0
MOT;0;1000.0;1;1000.0;2;1000.0;3;1000.0;4;0.0;5;0.0;6;0.0;7;0.0;
RC;ROLL;1496.0;PITCH;1502.0;YAW;1510.0;THROTTLE;1067.0;AUX1;1529.0;AUX2;1500.0;AUX3;1500.0;AUX4;1500.0
ALTITUDE;20.0
DEBUG;DEBUG10.0;DEBUG2;0.0;DEBUG3;20.0;DEBUG4;0.0
ATTITUDE;ANGX;-8.0;ANGY;1.0;HEAD;-141.0
STATUS;CYCLETIME;2892;I2CERR;0;PRESENT;23;MODE;2
RAW_IMU;AX;5.0;AY;-4.0;AZ;256.0;GX;-2.0;GY;0.0;GZ;1.0;MAGX;46.0;MAGY;-114.0;MAGZ;154.0
MOT;0;1000.0;1;1000.0;2;1000.0;3;1000.0;4;0.0;5;0.0;6;0.0;7;0.0;
RC;ROLL;1496.0;PITCH;1500.0;YAW;1508.0;THROTTLE;1067.0;AUX1;1529.0;AUX2;1500.0;AUX3;1500.0;AUX4;1500.0
ALTITUDE;20.0
DEBUG;DEBUG10.0;DEBUG2;0.0;DEBUG3;20.0;DEBUG4;0.0
ATTITUDE;ANGX;-8.0;ANGY;1.0;HEAD;-141.0
STATUS;CYCLETIME;2952;I2CERR;0;PRESENT;23;MODE;2
RAW_IMU;AX;5.0;AY;-6.0;AZ;256.0;GX;-2.0;GY;1.0;GZ;1.0;MAGX;46.0;MAGY;-114.0;MAGZ;154.0
MOT;0;1000.0;1;1000.0;2;1000.0;3;1000.0;4;0.0;5;0.0;6;0.0;7;0.0;
RC;ROLL;1496.0;PITCH;1500.0;YAW;1508.0;THROTTLE;1067.0;AUX1;1529.0;AUX2;1500.0;AUX3;1500.0;AUX4;1500.0
ALTITUDE;20.0
DEBUG;DEBUG10.0;DEBUG2;0.0;DEBUG3;20.0;DEBUG4;0.0
ATTITUDE;ANGX;-8.0;ANGY;1.0;HEAD;-141.0
STATUS;CYCLETIME;2948;I2CERR;0;PRESENT;23;MODE;2
RAW_IMU;AX;5.0;AY;-3.0;AZ;255.0;GX;-2.0;GY;0.0;GZ;1.0;MAGX;46.0;MAGY;-114.0;MAGZ;154.0
MOT;0;1000.0;1;1000.0;2;1000.0;3;1000.0;4;0.0;5;0.0;6;0.0;7;0.0;
RC;ROLL;1496.0;PITCH;1500.0;YAW;1508.0;THROTTLE;1067.0;AUX1;1529.0;AUX2;1500.0;AUX3;1500.0;AUX4;1500.0
ALTITUDE;20.0
DEBUG;DEBUG10.0;DEBUG2;0.0;DEBUG3;20.0;DEBUG4;0.0
ATTITUDE;ANGX;-8.0;ANGY;1.0;HEAD;-141.0
STATUS;CYCLETIME;2920;I2CERR;0;PRESENT;23;MODE;2
RAW_IMU;AX;6.0;AY;-5.0;AZ;256.0;GX;-2.0;GY;0.0;GZ;1.0;MAGX;46.0;MAGY;-114.0;MAGZ;155.0
MOT;0;1000.0;1;1000.0;2;1000.0;3;1000.0;4;0.0;5;0.0;6;0.0;7;0.0;
RC;ROLL;1492.0;PITCH;1500.0;YAW;1508.0;THROTTLE;1067.0;AUX1;1529.0;AUX2;1500.0;AUX3;1500.0;AUX4;1500.0
ALTITUDE;20.0
DEBUG;DEBUG10.0;DEBUG2;0.0;DEBUG3;20.0;DEBUG4;0.0
ATTITUDE;ANGX;-8.0;ANGY;1.0;HEAD;-141.0
STATUS;CYCLETIME;2908;I2CERR;0;PRESENT;23;MODE;2
RAW_IMU;AX;7.0;AY;-5.0;AZ;256.0;GX;-2.0;GY;0.0;GZ;1.0;MAGX;46.0;MAGY;-114.0;MAGZ;155.0
MOT;0;1000.0;1;1000.0;2;1000.0;3;1000.0;4;0.0;5;0.0;6;0.0;7;0.0;
RC;ROLL;1492.0;PITCH;1500.0;YAW;1508.0;THROTTLE;1067.0;AUX1;1532.0;AUX2;1500.0;AUX3;1500.0;AUX4;1500.0
ALTITUDE;20.0
DEBUG;DEBUG10.0;DEBUG2;0.0;DEBUG3;20.0;DEBUG4;0.0
ATTITUDE;ANGX;-8.0;ANGY;1.0;HEAD;-140.0
STATUS;CYCLETIME;2908;I2CERR;0;PRESENT;23;MODE;2
RAW_IMU;AX;8.0;AY;-6.0;AZ;257.0;GX;-2.0;GY;0.0;GZ;1.0;MAGX;46.0;MAGY;-116.0;MAGZ;155.0
MOT;0;1000.0;1;1000.0;2;1000.0;3;1000.0;4;0.0;5;0.0;6;0.0;7;0.0;
RC;ROLL;1494.0;PITCH;1500.0;YAW;1508.0;THROTTLE;1067.0;AUX1;1532.0;AUX2;1500.0;AUX3;1500.0;AUX4;1500.0
ALTITUDE;20.0
DEBUG;DEBUG10.0;DEBUG2;0.0;DEBUG3;20.0;DEBUG4;0.0
ATTITUDE;ANGX;-8.0;ANGY;1.0;HEAD;-140.0
STATUS;CYCLETIME;3064;I2CERR;0;PRESENT;23;MODE;2
RAW_IMU;AX;5.0;AY;-4.0;AZ;259.0;GX;-2.0;GY;0.0;GZ;1.0;MAGX;46.0;MAGY;-116.0;MAGZ;155.0
MOT;0;1000.0;1;1000.0;2;1000.0;3;1000.0;4;0.0;5;0.0;6;0.0;7;0.0;
RC;ROLL;1494.0;PITCH;1500.0;YAW;1508.0;THROTTLE;1067.0;AUX1;1532.0;AUX2;1500.0;AUX3;1500.0;AUX4;1500.0
ALTITUDE;20.0
DEBUG;DEBUG10.0;DEBUG2;0.0;DEBUG3;20.0;DEBUG4;0.0
ATTITUDE;ANGX;-8.0;ANGY;1.0;HEAD;-140.0
STATUS;CYCLETIME;2916;I2CERR;0;PRESENT;23;MODE;2
RAW_IMU;AX;5.0;AY;-2.0;AZ;255.0;GX;-2.0;GY;1.0;GZ;1.0;MAGX;46.0;MAGY;-114.0;MAGZ;155.0
MOT;0;1000.0;1;1000.0;2;1000.0;3;1000.0;4;0.0;5;0.0;6;0.0;7;0.0;
RC;ROLL;1494.0;PITCH;1498.0;YAW;1508.0;THROTTLE;1067.0;AUX1;1532.0;AUX2;1500.0;AUX3;1500.0;AUX4;1500.0
ALTITUDE;20.0
DEBUG;DEBUG10.0;DEBUG2;0.0;DEBUG3;20.0;DEBUG4;0.0
ATTITUDE;ANGX;-8.0;ANGY;1.0;HEAD;-140.0
STATUS;CYCLETIME;2888;I2CERR;0;PRESENT;23;MODE;2
RAW_IMU;AX;7.0;AY;-5.0;AZ;255.0;GX;-2.0;GY;0.0;GZ;1.0;MAGX;46.0;MAGY;-114.0;MAGZ;155.0
MOT;0;1000.0;1;1000.0;2;1000.0;3;1000.0;4;0.0;5;0.0;6;0.0;7;0.0;
RC;ROLL;1496.0;PITCH;1498.0;YAW;1508.0;THROTTLE;1067.0;AUX1;1532.0;AUX2;1500.0;AUX3;1500.0;AUX4;1500.0
ALTITUDE;20.0
DEBUG;DEBUG10.0;DEBUG2;0.0;DEBUG3;20.0;DEBUG4;0.0
ATTITUDE;ANGX;-8.0;ANGY;1.0;HEAD;-140.0
STATUS;CYCLETIME;2896;I2CERR;0;PRESENT;23;MODE;2
RAW_IMU;AX;6.0;AY;-6.0;AZ;258.0;GX;-2.0;GY;0.0;GZ;1.0;MAGX;46.0;MAGY;-115.0;MAGZ;154.0
MOT;0;1000.0;1;1000.0;2;1000.0;3;1000.0;4;0.0;5;0.0;6;0.0;7;0.0;
RC;ROLL;1496.0;PITCH;1498.0;YAW;1508.0;THROTTLE;1067.0;AUX1;1532.0;AUX2;1500.0;AUX3;1500.0;AUX4;1500.0
ALTITUDE;20.0
DEBUG;DEBUG10.0;DEBUG2;0.0;DEBUG3;20.0;DEBUG4;0.0
ATTITUDE;ANGX;-8.0;ANGY;1.0;HEAD;-140.0
STATUS;CYCLETIME;2936;I2CERR;0;PRESENT;23;MODE;2
RAW_IMU;AX;5.0;AY;-6.0;AZ;257.0;GX;-2.0;GY;0.0;GZ;1.0;MAGX;46.0;MAGY;-115.0;MAGZ;154.0
MOT;0;1000.0;1;1000.0;2;1000.0;3;1000.0;4;0.0;5;0.0;6;0.0;7;0.0;
RC;ROLL;1496.0;PITCH;1498.0;YAW;1508.0;THROTTLE;1067.0;AUX1;1532.0;AUX2;1500.0;AUX3;1500.0;AUX4;1500.0
ALTITUDE;20.0
DEBUG;DEBUG10.0;DEBUG2;0.0;DEBUG3;20.0;DEBUG4;0.0
ATTITUDE;ANGX;-8.0;ANGY;1.0;HEAD;-140.0
STATUS;CYCLETIME;2976;I2CERR;0;PRESENT;23;MODE;2
RAW_IMU;AX;8.0;AY;-4.0;AZ;257.0;GX;-2.0;GY;0.0;GZ;1.0;MAGX;46.0;MAGY;-114.0;MAGZ;155.0
MOT;0;1000.0;1;1000.0;2;1000.0;3;1000.0;4;0.0;5;0.0;6;0.0;7;0.0;
RC;ROLL;1496.0;PITCH;1498.0;YAW;1508.0;THROTTLE;1067.0;AUX1;1532.0;AUX2;1500.0;AUX3;1500.0;AUX4;1500.0
ALTITUDE;20.0
DEBUG;DEBUG10.0;DEBUG2;0.0;DEBUG3;20.0;DEBUG4;0.0
ATTITUDE;ANGX;-8.0;ANGY;1.0;HEAD;-140.0
STATUS;CYCLETIME;2904;I2CERR;0;PRESENT;23;MODE;2
RAW_IMU;AX;5.0;AY;-7.0;AZ;258.0;GX;-2.0;GY;1.0;GZ;1.0;MAGX;46.0;MAGY;-114.0;MAGZ;155.0
MOT;0;1000.0;1;1000.0;2;1000.0;3;1000.0;4;0.0;5;0.0;6;0.0;7;0.0;
RC;ROLL;1496.0;PITCH;1500.0;YAW;1508.0;THROTTLE;1067.0;AUX1;1535.0;AUX2;1500.0;AUX3;1500.0;AUX4;1500.0
ALTITUDE;20.0
DEBUG;DEBUG10.0;DEBUG2;0.0;DEBUG3;20.0;DEBUG4;0.0
ATTITUDE;ANGX;-8.0;ANGY;1.0;HEAD;-140.0
STATUS;CYCLETIME;2888;I2CERR;0;PRESENT;23;MODE;2
RAW_IMU;AX;7.0;AY;-4.0;AZ;257.0;GX;-2.0;GY;1.0;GZ;1.0;MAGX;47.0;MAGY;-114.0;MAGZ;154.0
MOT;0;1000.0;1;1000.0;2;1000.0;3;1000.0;4;0.0;5;0.0;6;0.0;7;0.0;
RC;ROLL;1496.0;PITCH;1500.0;YAW;1508.0;THROTTLE;1067.0;AUX1;1535.0;AUX2;1500.0;AUX3;1500.0;AUX4;1500.0
ALTITUDE;20.0
DEBUG;DEBUG10.0;DEBUG2;0.0;DEBUG3;20.0;DEBUG4;0.0
ATTITUDE;ANGX;-8.0;ANGY;1.0;HEAD;-140.0
STATUS;CYCLETIME;2892;I2CERR;0;PRESENT;23;MODE;2
RAW_IMU;AX;5.0;AY;-5.0;AZ;256.0;GX;-2.0;GY;0.0;GZ;1.0;MAGX;47.0;MAGY;-114.0;MAGZ;154.0
MOT;0;1000.0;1;1000.0;2;1000.0;3;1000.0;4;0.0;5;0.0;6;0.0;7;0.0;
RC;ROLL;1496.0;PITCH;1500.0;YAW;1508.0;THROTTLE;1067.0;AUX1;1535.0;AUX2;1500.0;AUX3;1500.0;AUX4;1500.0
ALTITUDE;20.0
DEBUG;DEBUG10.0;DEBUG2;0.0;DEBUG3;20.0;DEBUG4;0.0
ATTITUDE;ANGX;-8.0;ANGY;1.0;HEAD;-140.0
STATUS;CYCLETIME;2932;I2CERR;0;PRESENT;23;MODE;2
RAW_IMU;AX;6.0;AY;-4.0;AZ;258.0;GX;-2.0;GY;0.0;GZ;1.0;MAGX;47.0;MAGY;-114.0;MAGZ;154.0
MOT;0;1000.0;1;1000.0;2;1000.0;3;1000.0;4;0.0;5;0.0;6;0.0;7;0.0;
RC;ROLL;1496.0;PITCH;1500.0;YAW;1508.0;THROTTLE;1067.0;AUX1;1535.0;AUX2;1500.0;AUX3;1500.0;AUX4;1500.0
ALTITUDE;20.0
DEBUG;DEBUG10.0;DEBUG2;0.0;DEBUG3;20.0;DEBUG4;0.0
ATTITUDE;ANGX;-8.0;ANGY;1.0;HEAD;-140.0
STATUS;CYCLETIME;2904;I2CERR;0;PRESENT;23;MODE;2
RAW_IMU;AX;7.0;AY;-4.0;AZ;256.0;GX;-2.0;GY;0.0;GZ;1.0;MAGX;46.0;MAGY;-113.0;MAGZ;154.0
MOT;0;1000.0;1;1000.0;2;1000.0;3;1000.0;4;0.0;5;0.0;6;0.0;7;0.0;
RC;ROLL;1496.0;PITCH;1500.0;YAW;1508.0;THROTTLE;1067.0;AUX1;1533.0;AUX2;1500.0;AUX3;1500.0;AUX4;1500.0
ALTITUDE;20.0
DEBUG;DEBUG10.0;DEBUG2;0.0;DEBUG3;20.0;DEBUG4;0.0
ATTITUDE;ANGX;-8.0;ANGY;1.0;HEAD;-140.0
STATUS;CYCLETIME;2904;I2CERR;0;PRESENT;23;MODE;2
RAW_IMU;AX;7.0;AY;-6.0;AZ;258.0;GX;-2.0;GY;0.0;GZ;0.0;MAGX;46.0;MAGY;-113.0;MAGZ;154.0
MOT;0;1000.0;1;1000.0;2;1000.0;3;1000.0;4;0.0;5;0.0;6;0.0;7;0.0;
RC;ROLL;1496.0;PITCH;1500.0;YAW;1508.0;THROTTLE;1067.0;AUX1;1533.0;AUX2;1500.0;AUX3;1500.0;AUX4;1500.0
ALTITUDE;20.0
DEBUG;DEBUG10.0;DEBUG2;0.0;DEBUG3;20.0;DEBUG4;0.0
ATTITUDE;ANGX;-8.0;ANGY;1.0;HEAD;-140.0
STATUS;CYCLETIME;2904;I2CERR;0;PRESENT;23;MODE;2
RAW_IMU;AX;7.0;AY;-5.0;AZ;257.0;GX;-2.0;GY;0.0;GZ;1.0;MAGX;47.0;MAGY;-114.0;MAGZ;155.0
MOT;0;1000.0;1;1000.0;2;1000.0;3;1000.0;4;0.0;5;0.0;6;0.0;7;0.0;
RC;ROLL;1496.0;PITCH;1500.0;YAW;1508.0;THROTTLE;1067.0;AUX1;1533.0;AUX2;1500.0;AUX3;1500.0;AUX4;1500.0
ALTITUDE;20.0
DEBUG;DEBUG10.0;DEBUG2;0.0;DEBUG3;20.0;DEBUG4;0.0
ATTITUDE;ANGX;-8.0;ANGY;1.0;HEAD;-140.0
STATUS;CYCLETIME;2904;I2CERR;0;PRESENT;23;MODE;2
RAW_IMU;AX;8.0;AY;-7.0;AZ;258.0;GX;-3.0;GY;0.0;GZ;0.0;MAGX;47.0;MAGY;-114.0;MAGZ;155.0
MOT;0;1000.0;1;1000.0;2;1000.0;3;1000.0;4;0.0;5;0.0;6;0.0;7;0.0;
RC;ROLL;1496.0;PITCH;1500.0;YAW;1508.0;THROTTLE;1067.0;AUX1;1533.0;AUX2;1500.0;AUX3;1500.0;AUX4;1500.0
ALTITUDE;20.0
DEBUG;DEBUG10.0;DEBUG2;0.0;DEBUG3;20.0;DEBUG4;0.0
ATTITUDE;ANGX;-8.0;ANGY;1.0;HEAD;-140.0
STATUS;CYCLETIME;3056;I2CERR;0;PRESENT;23;MODE;2
RAW_IMU;AX;6.0;AY;-7.0;AZ;255.0;GX;-2.0;GY;0.0;GZ;0.0;MAGX;47.0;MAGY;-114.0;MAGZ;155.0
MOT;0;1000.0;1;1000.0;2;1000.0;3;1000.0;4;0.0;5;0.0;6;0.0;7;0.0;
RC;ROLL;1496.0;PITCH;1500.0;YAW;1508.0;THROTTLE;1067.0;AUX1;1533.0;AUX2;1500.0;AUX3;1500.0;AUX4;1500.0
ALTITUDE;20.0
DEBUG;DEBUG10.0;DEBUG2;0.0;DEBUG3;20.0;DEBUG4;0.0
ATTITUDE;ANGX;-8.0;ANGY;1.0;HEAD;-140.0
STATUS;CYCLETIME;2888;I2CERR;0;PRESENT;23;MODE;2
RAW_IMU;AX;6.0;AY;-7.0;AZ;253.0;GX;-2.0;GY;0.0;GZ;1.0;MAGX;47.0;MAGY;-114.0;MAGZ;155.0
MOT;0;1000.0;1;1000.0;2;1000.0;3;1000.0;4;0.0;5;0.0;6;0.0;7;0.0;
RC;ROLL;1496.0;PITCH;1500.0;YAW;1508.0;THROTTLE;1067.0;AUX1;1533.0;AUX2;1500.0;AUX3;1500.0;AUX4;1500.0
ALTITUDE;20.0
DEBUG;DEBUG10.0;DEBUG2;0.0;DEBUG3;20.0;DEBUG4;0.0
ATTITUDE;ANGX;-8.0;ANGY;1.0;HEAD;-140.0
STATUS;CYCLETIME;2912;I2CERR;0;PRESENT;23;MODE;2
RAW_IMU;AX;5.0;AY;-7.0;AZ;256.0;GX;-1.0;GY;2.0;GZ;0.0;MAGX;46.0;MAGY;-114.0;MAGZ;154.0
MOT;0;1000.0;1;1000.0;2;1000.0;3;1000.0;4;0.0;5;0.0;6;0.0;7;0.0;
RC;ROLL;1496.0;PITCH;1500.0;YAW;1508.0;THROTTLE;1067.0;AUX1;1533.0;AUX2;1500.0;AUX3;1500.0;AUX4;1500.0
ALTITUDE;20.0
DEBUG;DEBUG10.0;DEBUG2;0.0;DEBUG3;20.0;DEBUG4;0.0
ATTITUDE;ANGX;-8.0;ANGY;1.0;HEAD;-140.0
STATUS;CYCLETIME;2948;I2CERR;0;PRESENT;23;MODE;2
RAW_IMU;AX;5.0;AY;-6.0;AZ;255.0;GX;-2.0;GY;0.0;GZ;1.0;MAGX;46.0;MAGY;-114.0;MAGZ;154.0
MOT;0;1000.0;1;1000.0;2;1000.0;3;1000.0;4;0.0;5;0.0;6;0.0;7;0.0;
RC;ROLL;1496.0;PITCH;1500.0;YAW;1508.0;THROTTLE;1067.0;AUX1;1533.0;AUX2;1500.0;AUX3;1500.0;AUX4;1500.0
ALTITUDE;20.0
DEBUG;DEBUG10.0;DEBUG2;0.0;DEBUG3;20.0;DEBUG4;0.0
ATTITUDE;ANGX;-8.0;ANGY;1.0;HEAD;-140.0
STATUS;CYCLETIME;2944;I2CERR;0;PRESENT;23;MODE;2
RAW_IMU;AX;4.0;AY;-5.0;AZ;257.0;GX;-3.0;GY;0.0;GZ;1.0;MAGX;47.0;MAGY;-115.0;MAGZ;153.0
MOT;0;1000.0;1;1000.0;2;1000.0;3;1000.0;4;0.0;5;0.0;6;0.0;7;0.0;
RC;ROLL;1496.0;PITCH;1500.0;YAW;1508.0;THROTTLE;1067.0;AUX1;1533.0;AUX2;1500.0;AUX3;1500.0;AUX4;1500.0
ALTITUDE;20.0
DEBUG;DEBUG10.0;DEBUG2;0.0;DEBUG3;20.0;DEBUG4;0.0
ATTITUDE;ANGX;-8.0;ANGY;1.0;HEAD;-140.0
STATUS;CYCLETIME;2936;I2CERR;0;PRESENT;23;MODE;2
RAW_IMU;AX;3.0;AY;-6.0;AZ;254.0;GX;-2.0;GY;1.0;GZ;1.0;MAGX;47.0;MAGY;-115.0;MAGZ;153.0
MOT;0;1000.0;1;1000.0;2;1000.0;3;1000.0;4;0.0;5;0.0;6;0.0;7;0.0;
RC;ROLL;1496.0;PITCH;1497.0;YAW;1506.0;THROTTLE;1072.0;AUX1;1533.0;AUX2;1500.0;AUX3;1500.0;AUX4;1500.0
ALTITUDE;20.0
DEBUG;DEBUG10.0;DEBUG2;0.0;DEBUG3;20.0;DEBUG4;0.0
ATTITUDE;ANGX;-8.0;ANGY;1.0;HEAD;-140.0
STATUS;CYCLETIME;2892;I2CERR;0;PRESENT;23;MODE;2
RAW_IMU;AX;5.0;AY;-6.0;AZ;257.0;GX;-1.0;GY;1.0;GZ;0.0;MAGX;46.0;MAGY;-113.0;MAGZ;154.0
MOT;0;1000.0;1;1000.0;2;1000.0;3;1000.0;4;0.0;5;0.0;6;0.0;7;0.0;
RC;ROLL;1496.0;PITCH;1497.0;YAW;1509.0;THROTTLE;1068.0;AUX1;1533.0;AUX2;1500.0;AUX3;1500.0;AUX4;1500.0
ALTITUDE;20.0
DEBUG;DEBUG10.0;DEBUG2;0.0;DEBUG3;20.0;DEBUG4;0.0
ATTITUDE;ANGX;-8.0;ANGY;1.0;HEAD;-140.0
STATUS;CYCLETIME;2908;I2CERR;0;PRESENT;23;MODE;2
RAW_IMU;AX;6.0;AY;-6.0;AZ;257.0;GX;-2.0;GY;0.0;GZ;0.0;MAGX;46.0;MAGY;-113.0;MAGZ;154.0
MOT;0;1000.0;1;1000.0;2;1000.0;3;1000.0;4;0.0;5;0.0;6;0.0;7;0.0;
RC;ROLL;1496.0;PITCH;1497.0;YAW;1509.0;THROTTLE;1068.0;AUX1;1533.0;AUX2;1500.0;AUX3;1500.0;AUX4;1500.0
ALTITUDE;20.0
DEBUG;DEBUG10.0;DEBUG2;0.0;DEBUG3;20.0;DEBUG4;0.0
ATTITUDE;ANGX;-8.0;ANGY;1.0;HEAD;-140.0
STATUS;CYCLETIME;2904;I2CERR;0;PRESENT;23;MODE;2
RAW_IMU;AX;6.0;AY;-5.0;AZ;255.0;GX;-2.0;GY;0.0;GZ;0.0;MAGX;47.0;MAGY;-115.0;MAGZ;153.0
MOT;0;1000.0;1;1000.0;2;1000.0;3;1000.0;4;0.0;5;0.0;6;0.0;7;0.0;
RC;ROLL;1496.0;PITCH;1497.0;YAW;1509.0;THROTTLE;1068.0;AUX1;1533.0;AUX2;1500.0;AUX3;1500.0;AUX4;1500.0
ALTITUDE;20.0
DEBUG;DEBUG10.0;DEBUG2;0.0;DEBUG3;20.0;DEBUG4;0.0
ATTITUDE;ANGX;-8.0;ANGY;1.0;HEAD;-140.0
STATUS;CYCLETIME;2904;I2CERR;0;PRESENT;23;MODE;2
RAW_IMU;AX;7.0;AY;-5.0;AZ;255.0;GX;-2.0;GY;1.0;GZ;1.0;MAGX;47.0;MAGY;-115.0;MAGZ;153.0
MOT;0;1000.0;1;1000.0;2;1000.0;3;1000.0;4;0.0;5;0.0;6;0.0;7;0.0;
RC;ROLL;1496.0;PITCH;1497.0;YAW;1509.0;THROTTLE;1068.0;AUX1;1533.0;AUX2;1500.0;AUX3;1500.0;AUX4;1500.0
ALTITUDE;20.0
DEBUG;DEBUG10.0;DEBUG2;0.0;DEBUG3;20.0;DEBUG4;0.0
ATTITUDE;ANGX;-8.0;ANGY;1.0;HEAD;-140.0
STATUS;CYCLETIME;3232;I2CERR;0;PRESENT;23;MODE;2
RAW_IMU;AX;7.0;AY;-5.0;AZ;255.0;GX;-2.0;GY;1.0;GZ;0.0;MAGX;46.0;MAGY;-114.0;MAGZ;154.0
MOT;0;1000.0;1;1000.0;2;1000.0;3;1000.0;4;0.0;5;0.0;6;0.0;7;0.0;
RC;ROLL;1496.0;PITCH;1497.0;YAW;1509.0;THROTTLE;1068.0;AUX1;1533.0;AUX2;1500.0;AUX3;1500.0;AUX4;1500.0
ALTITUDE;20.0
DEBUG;DEBUG10.0;DEBUG2;0.0;DEBUG3;20.0;DEBUG4;0.0
ATTITUDE;ANGX;-8.0;ANGY;1.0;HEAD;-140.0
STATUS;CYCLETIME;3008;I2CERR;0;PRESENT;23;MODE;2
RAW_IMU;AX;7.0;AY;-6.0;AZ;254.0;GX;-2.0;GY;0.0;GZ;1.0;MAGX;46.0;MAGY;-114.0;MAGZ;154.0
MOT;0;1000.0;1;1000.0;2;1000.0;3;1000.0;4;0.0;5;0.0;6;0.0;7;0.0;
RC;ROLL;1496.0;PITCH;1497.0;YAW;1509.0;THROTTLE;1068.0;AUX1;1533.0;AUX2;1500.0;AUX3;1500.0;AUX4;1500.0
ALTITUDE;20.0
DEBUG;DEBUG10.0;DEBUG2;0.0;DEBUG3;20.0;DEBUG4;0.0
ATTITUDE;ANGX;-8.0;ANGY;1.0;HEAD;-140.0
STATUS;CYCLETIME;3188;I2CERR;0;PRESENT;23;MODE;2
RAW_IMU;AX;7.0;AY;-5.0;AZ;254.0;GX;-2.0;GY;0.0;GZ;1.0;MAGX;47.0;MAGY;-114.0;MAGZ;153.0
MOT;0;1000.0;1;1000.0;2;1000.0;3;1000.0;4;0.0;5;0.0;6;0.0;7;0.0;
RC;ROLL;1496.0;PITCH;1497.0;YAW;1509.0;THROTTLE;1068.0;AUX1;1533.0;AUX2;1500.0;AUX3;1500.0;AUX4;1500.0
ALTITUDE;20.0
DEBUG;DEBUG10.0;DEBUG2;0.0;DEBUG3;20.0;DEBUG4;0.0
ATTITUDE;ANGX;-8.0;ANGY;1.0;HEAD;-140.0
STATUS;CYCLETIME;2912;I2CERR;0;PRESENT;23;MODE;2
RAW_IMU;AX;7.0;AY;-5.0;AZ;255.0;GX;-2.0;GY;0.0;GZ;0.0;MAGX;47.0;MAGY;-114.0;MAGZ;153.0
MOT;0;1000.0;1;1000.0;2;1000.0;3;1000.0;4;0.0;5;0.0;6;0.0;7;0.0;
RC;ROLL;1496.0;PITCH;1497.0;YAW;1509.0;THROTTLE;1068.0;AUX1;1531.0;AUX2;1500.0;AUX3;1500.0;AUX4;1500.0
ALTITUDE;20.0
DEBUG;DEBUG10.0;DEBUG2;0.0;DEBUG3;20.0;DEBUG4;0.0
ATTITUDE;ANGX;-8.0;ANGY;1.0;HEAD;-140.0
STATUS;CYCLETIME;2936;I2CERR;0;PRESENT;23;MODE;2
RAW_IMU;AX;5.0;AY;-7.0;AZ;260.0;GX;-2.0;GY;0.0;GZ;0.0;MAGX;47.0;MAGY;-114.0;MAGZ;153.0
MOT;0;1000.0;1;1000.0;2;1000.0;3;1000.0;4;0.0;5;0.0;6;0.0;7;0.0;
RC;ROLL;1496.0;PITCH;1497.0;YAW;1509.0;THROTTLE;1068.0;AUX1;1531.0;AUX2;1500.0;AUX3;1500.0;AUX4;1500.0
ALTITUDE;20.0
DEBUG;DEBUG10.0;DEBUG2;0.0;DEBUG3;20.0;DEBUG4;0.0
ATTITUDE;ANGX;-8.0;ANGY;1.0;HEAD;-140.0
STATUS;CYCLETIME;2908;I2CERR;0;PRESENT;23;MODE;2
RAW_IMU;AX;7.0;AY;-10.0;AZ;259.0;GX;-2.0;GY;1.0;GZ;0.0;MAGX;47.0;MAGY;-114.0;MAGZ;154.0
MOT;0;1000.0;1;1000.0;2;1000.0;3;1000.0;4;0.0;5;0.0;6;0.0;7;0.0;
RC;ROLL;1496.0;PITCH;1497.0;YAW;1509.0;THROTTLE;1068.0;AUX1;1531.0;AUX2;1500.0;AUX3;1500.0;AUX4;1500.0
ALTITUDE;20.0
DEBUG;DEBUG10.0;DEBUG2;0.0;DEBUG3;20.0;DEBUG4;0.0
ATTITUDE;ANGX;-8.0;ANGY;1.0;HEAD;-140.0
STATUS;CYCLETIME;2908;I2CERR;0;PRESENT;23;MODE;2
RAW_IMU;AX;5.0;AY;-2.0;AZ;261.0;GX;-2.0;GY;1.0;GZ;1.0;MAGX;47.0;MAGY;-114.0;MAGZ;154.0
MOT;0;1000.0;1;1000.0;2;1000.0;3;1000.0;4;0.0;5;0.0;6;0.0;7;0.0;
RC;ROLL;1496.0;PITCH;1497.0;YAW;1509.0;THROTTLE;1068.0;AUX1;1531.0;AUX2;1500.0;AUX3;1500.0;AUX4;1500.0
ALTITUDE;20.0
DEBUG;DEBUG10.0;DEBUG2;0.0;DEBUG3;20.0;DEBUG4;0.0
ATTITUDE;ANGX;-8.0;ANGY;1.0;HEAD;-140.0
STATUS;CYCLETIME;2904;I2CERR;0;PRESENT;23;MODE;2
RAW_IMU;AX;7.0;AY;-4.0;AZ;258.0;GX;-2.0;GY;0.0;GZ;0.0;MAGX;46.0;MAGY;-114.0;MAGZ;153.0
MOT;0;1000.0;1;1000.0;2;1000.0;3;1000.0;4;0.0;5;0.0;6;0.0;7;0.0;
RC;ROLL;1496.0;PITCH;1497.0;YAW;1509.0;THROTTLE;1068.0;AUX1;1531.0;AUX2;1500.0;AUX3;1500.0;AUX4;1500.0
ALTITUDE;20.0
DEBUG;DEBUG10.0;DEBUG2;0.0;DEBUG3;20.0;DEBUG4;0.0
ATTITUDE;ANGX;-8.0;ANGY;1.0;HEAD;-140.0
STATUS;CYCLETIME;2900;I2CERR;0;PRESENT;23;MODE;2
RAW_IMU;AX;6.0;AY;-6.0;AZ;256.0;GX;-2.0;GY;1.0;GZ;1.0;MAGX;46.0;MAGY;-114.0;MAGZ;153.0
MOT;0;1000.0;1;1000.0;2;1000.0;3;1000.0;4;0.0;5;0.0;6;0.0;7;0.0;
RC;ROLL;1496.0;PITCH;1497.0;YAW;1509.0;THROTTLE;1068.0;AUX1;1531.0;AUX2;1500.0;AUX3;1500.0;AUX4;1500.0
ALTITUDE;20.0
DEBUG;DEBUG10.0;DEBUG2;0.0;DEBUG3;20.0;DEBUG4;0.0
ATTITUDE;ANGX;-8.0;ANGY;1.0;HEAD;-140.0
STATUS;CYCLETIME;3068;I2CERR;0;PRESENT;23;MODE;2
RAW_IMU;AX;6.0;AY;-2.0;AZ;253.0;GX;-2.0;GY;0.0;GZ;0.0;MAGX;48.0;MAGY;-114.0;MAGZ;151.0
MOT;0;1000.0;1;1000.0;2;1000.0;3;1000.0;4;0.0;5;0.0;6;0.0;7;0.0;
RC;ROLL;1496.0;PITCH;1497.0;YAW;1509.0;THROTTLE;1068.0;AUX1;1531.0;AUX2;1500.0;AUX3;1500.0;AUX4;1500.0
ALTITUDE;20.0
DEBUG;DEBUG10.0;DEBUG2;0.0;DEBUG3;20.0;DEBUG4;0.0
ATTITUDE;ANGX;-8.0;ANGY;1.0;HEAD;-140.0
STATUS;CYCLETIME;2912;I2CERR;0;PRESENT;23;MODE;2
RAW_IMU;AX;7.0;AY;-3.0;AZ;256.0;GX;-2.0;GY;0.0;GZ;1.0;MAGX;48.0;MAGY;-114.0;MAGZ;151.0
MOT;0;1000.0;1;1000.0;2;1000.0;3;1000.0;4;0.0;5;0.0;6;0.0;7;0.0;
RC;ROLL;1496.0;PITCH;1497.0;YAW;1509.0;THROTTLE;1068.0;AUX1;1531.0;AUX2;1500.0;AUX3;1500.0;AUX4;1500.0
ALTITUDE;20.0
DEBUG;DEBUG10.0;DEBUG2;0.0;DEBUG3;20.0;DEBUG4;0.0
ATTITUDE;ANGX;-8.0;ANGY;1.0;HEAD;-140.0
STATUS;CYCLETIME;3032;I2CERR;0;PRESENT;23;MODE;2
RAW_IMU;AX;7.0;AY;-5.0;AZ;255.0;GX;-2.0;GY;1.0;GZ;0.0;MAGX;48.0;MAGY;-114.0;MAGZ;152.0
MOT;0;1000.0;1;1000.0;2;1000.0;3;1000.0;4;0.0;5;0.0;6;0.0;7;0.0;
RC;ROLL;1496.0;PITCH;1497.0;YAW;1509.0;THROTTLE;1068.0;AUX1;1531.0;AUX2;1500.0;AUX3;1500.0;AUX4;1500.0
ALTITUDE;20.0
DEBUG;DEBUG10.0;DEBUG2;0.0;DEBUG3;20.0;DEBUG4;0.0
ATTITUDE;ANGX;-8.0;ANGY;1.0;HEAD;-140.0
STATUS;CYCLETIME;2904;I2CERR;0;PRESENT;23;MODE;2
RAW_IMU;AX;5.0;AY;-4.0;AZ;256.0;GX;-2.0;GY;0.0;GZ;1.0;MAGX;48.0;MAGY;-114.0;MAGZ;152.0
MOT;0;1000.0;1;1000.0;2;1000.0;3;1000.0;4;0.0;5;0.0;6;0.0;7;0.0;
RC;ROLL;1496.0;PITCH;1497.0;YAW;1509.0;THROTTLE;1068.0;AUX1;1531.0;AUX2;1500.0;AUX3;1500.0;AUX4;1500.0
ALTITUDE;20.0
DEBUG;DEBUG10.0;DEBUG2;0.0;DEBUG3;20.0;DEBUG4;0.0
ATTITUDE;ANGX;-8.0;ANGY;1.0;HEAD;-140.0
STATUS;CYCLETIME;2928;I2CERR;0;PRESENT;23;MODE;2
RAW_IMU;AX;6.0;AY;-7.0;AZ;255.0;GX;-2.0;GY;1.0;GZ;1.0;MAGX;48.0;MAGY;-113.0;MAGZ;152.0
MOT;0;1000.0;1;1000.0;2;1000.0;3;1000.0;4;0.0;5;0.0;6;0.0;7;0.0;
RC;ROLL;1496.0;PITCH;1497.0;YAW;1509.0;THROTTLE;1068.0;AUX1;1531.0;AUX2;1500.0;AUX3;1500.0;AUX4;1500.0
ALTITUDE;20.0
DEBUG;DEBUG10.0;DEBUG2;0.0;DEBUG3;20.0;DEBUG4;0.0
ATTITUDE;ANGX;-8.0;ANGY;1.0;HEAD;-140.0
STATUS;CYCLETIME;2980;I2CERR;0;PRESENT;23;MODE;2
RAW_IMU;AX;6.0;AY;-7.0;AZ;255.0;GX;-1.0;GY;1.0;GZ;1.0;MAGX;48.0;MAGY;-113.0;MAGZ;152.0
MOT;0;1000.0;1;1000.0;2;1000.0;3;1000.0;4;0.0;5;0.0;6;0.0;7;0.0;
RC;ROLL;1496.0;PITCH;1497.0;YAW;1509.0;THROTTLE;1068.0;AUX1;1531.0;AUX2;1500.0;AUX3;1500.0;AUX4;1500.0
ALTITUDE;20.0
DEBUG;DEBUG10.0;DEBUG2;0.0;DEBUG3;20.0;DEBUG4;0.0
ATTITUDE;ANGX;-8.0;ANGY;1.0;HEAD;-140.0
STATUS;CYCLETIME;3008;I2CERR;0;PRESENT;23;MODE;2
RAW_IMU;AX;8.0;AY;-2.0;AZ;254.0;GX;-1.0;GY;1.0;GZ;2.0;MAGX;47.0;MAGY;-114.0;MAGZ;155.0
MOT;0;1000.0;1;1000.0;2;1000.0;3;1000.0;4;0.0;5;0.0;6;0.0;7;0.0;
RC;ROLL;1496.0;PITCH;1497.0;YAW;1509.0;THROTTLE;1068.0;AUX1;1531.0;AUX2;1500.0;AUX3;1500.0;AUX4;1500.0
ALTITUDE;20.0
DEBUG;DEBUG10.0;DEBUG2;0.0;DEBUG3;20.0;DEBUG4;0.0
ATTITUDE;ANGX;-8.0;ANGY;2.0;HEAD;-140.0
STATUS;CYCLETIME;2908;I2CERR;0;PRESENT;23;MODE;2
RAW_IMU;AX;6.0;AY;-4.0;AZ;257.0;GX;-2.0;GY;0.0;GZ;2.0;MAGX;47.0;MAGY;-114.0;MAGZ;155.0
MOT;0;1000.0;1;1000.0;2;1000.0;3;1000.0;4;0.0;5;0.0;6;0.0;7;0.0;
RC;ROLL;1496.0;PITCH;1497.0;YAW;1509.0;THROTTLE;1068.0;AUX1;1531.0;AUX2;1500.0;AUX3;1500.0;AUX4;1500.0
ALTITUDE;20.0
DEBUG;DEBUG10.0;DEBUG2;0.0;DEBUG3;20.0;DEBUG4;0.0
ATTITUDE;ANGX;-8.0;ANGY;1.0;HEAD;-140.0
STATUS;CYCLETIME;2908;I2CERR;0;PRESENT;23;MODE;2
RAW_IMU;AX;7.0;AY;0.0;AZ;250.0;GX;-3.0;GY;0.0;GZ;0.0;MAGX;45.0;MAGY;-114.0;MAGZ;154.0
MOT;0;1000.0;1;1000.0;2;1000.0;3;1000.0;4;0.0;5;0.0;6;0.0;7;0.0;
RC;ROLL;1496.0;PITCH;1497.0;YAW;1509.0;THROTTLE;1068.0;AUX1;1531.0;AUX2;1500.0;AUX3;1500.0;AUX4;1500.0
ALTITUDE;20.0
DEBUG;DEBUG10.0;DEBUG2;0.0;DEBUG3;20.0;DEBUG4;0.0
ATTITUDE;ANGX;-8.0;ANGY;1.0;HEAD;-140.0
STATUS;CYCLETIME;2936;I2CERR;0;PRESENT;23;MODE;2
RAW_IMU;AX;5.0;AY;-4.0;AZ;252.0;GX;-2.0;GY;1.0;GZ;1.0;MAGX;45.0;MAGY;-114.0;MAGZ;154.0
MOT;0;1000.0;1;1000.0;2;1000.0;3;1000.0;4;0.0;5;0.0;6;0.0;7;0.0;
RC;ROLL;1496.0;PITCH;1497.0;YAW;1509.0;THROTTLE;1068.0;AUX1;1531.0;AUX2;1500.0;AUX3;1500.0;AUX4;1500.0
ALTITUDE;20.0
DEBUG;DEBUG10.0;DEBUG2;0.0;DEBUG3;20.0;DEBUG4;0.0
ATTITUDE;ANGX;-8.0;ANGY;1.0;HEAD;-140.0
STATUS;CYCLETIME;2952;I2CERR;0;PRESENT;23;MODE;2
RAW_IMU;AX;4.0;AY;-4.0;AZ;252.0;GX;-2.0;GY;0.0;GZ;0.0;MAGX;47.0;MAGY;-114.0;MAGZ;154.0
MOT;0;1000.0;1;1000.0;2;1000.0;3;1000.0;4;0.0;5;0.0;6;0.0;7;0.0;
RC;ROLL;1496.0;PITCH;1497.0;YAW;1509.0;THROTTLE;1068.0;AUX1;1531.0;AUX2;1500.0;AUX3;1500.0;AUX4;1500.0
ALTITUDE;20.0
DEBUG;DEBUG10.0;DEBUG2;0.0;DEBUG3;20.0;DEBUG4;0.0
ATTITUDE;ANGX;-8.0;ANGY;1.0;HEAD;-140.0
STATUS;CYCLETIME;2908;I2CERR;0;PRESENT;23;MODE;2
RAW_IMU;AX;6.0;AY;-6.0;AZ;254.0;GX;-2.0;GY;1.0;GZ;1.0;MAGX;47.0;MAGY;-114.0;MAGZ;154.0
MOT;0;1000.0;1;1000.0;2;1000.0;3;1000.0;4;0.0;5;0.0;6;0.0;7;0.0;
RC;ROLL;1496.0;PITCH;1497.0;YAW;1509.0;THROTTLE;1068.0;AUX1;1531.0;AUX2;1500.0;AUX3;1500.0;AUX4;1500.0
ALTITUDE;20.0
DEBUG;DEBUG10.0;DEBUG2;0.0;DEBUG3;20.0;DEBUG4;0.0
ATTITUDE;ANGX;-8.0;ANGY;1.0;HEAD;-140.0
STATUS;CYCLETIME;2908;I2CERR;0;PRESENT;23;MODE;2
RAW_IMU;AX;7.0;AY;-7.0;AZ;256.0;GX;-2.0;GY;1.0;GZ;1.0;MAGX;47.0;MAGY;-114.0;MAGZ;154.0
MOT;0;1000.0;1;1000.0;2;1000.0;3;1000.0;4;0.0;5;0.0;6;0.0;7;0.0;
RC;ROLL;1496.0;PITCH;1497.0;YAW;1509.0;THROTTLE;1068.0;AUX1;1531.0;AUX2;1500.0;AUX3;1500.0;AUX4;1500.0
ALTITUDE;20.0
DEBUG;DEBUG10.0;DEBUG2;0.0;DEBUG3;20.0;DEBUG4;0.0
ATTITUDE;ANGX;-8.0;ANGY;1.0;HEAD;-140.0
STATUS;CYCLETIME;2912;I2CERR;0;PRESENT;23;MODE;2
RAW_IMU;AX;5.0;AY;-7.0;AZ;255.0;GX;-2.0;GY;1.0;GZ;1.0;MAGX;47.0;MAGY;-115.0;MAGZ;154.0
MOT;0;1000.0;1;1000.0;2;1000.0;3;1000.0;4;0.0;5;0.0;6;0.0;7;0.0;
RC;ROLL;1496.0;PITCH;1497.0;YAW;1509.0;THROTTLE;1068.0;AUX1;1531.0;AUX2;1500.0;AUX3;1500.0;AUX4;1500.0
ALTITUDE;20.0
DEBUG;DEBUG10.0;DEBUG2;0.0;DEBUG3;20.0;DEBUG4;0.0
ATTITUDE;ANGX;-8.0;ANGY;1.0;HEAD;-140.0
STATUS;CYCLETIME;3036;I2CERR;0;PRESENT;23;MODE;2
RAW_IMU;AX;5.0;AY;-3.0;AZ;255.0;GX;-2.0;GY;1.0;GZ;1.0;MAGX;47.0;MAGY;-115.0;MAGZ;154.0
MOT;0;1000.0;1;1000.0;2;1000.0;3;1000.0;4;0.0;5;0.0;6;0.0;7;0.0;
RC;ROLL;1496.0;PITCH;1497.0;YAW;1509.0;THROTTLE;1068.0;AUX1;1531.0;AUX2;1500.0;AUX3;1500.0;AUX4;1500.0
ALTITUDE;20.0
DEBUG;DEBUG10.0;DEBUG2;0.0;DEBUG3;20.0;DEBUG4;0.0
ATTITUDE;ANGX;-8.0;ANGY;1.0;HEAD;-140.0
STATUS;CYCLETIME;2900;I2CERR;0;PRESENT;23;MODE;2
RAW_IMU;AX;5.0;AY;-3.0;AZ;253.0;GX;-2.0;GY;0.0;GZ;0.0;MAGX;47.0;MAGY;-114.0;MAGZ;155.0
MOT;0;1000.0;1;1000.0;2;1000.0;3;1000.0;4;0.0;5;0.0;6;0.0;7;0.0;
RC;ROLL;1496.0;PITCH;1499.0;YAW;1509.0;THROTTLE;1068.0;AUX1;1531.0;AUX2;1500.0;AUX3;1500.0;AUX4;1500.0
ALTITUDE;20.0
DEBUG;DEBUG10.0;DEBUG2;0.0;DEBUG3;20.0;DEBUG4;0.0
ATTITUDE;ANGX;-8.0;ANGY;1.0;HEAD;-140.0
STATUS;CYCLETIME;2896;I2CERR;0;PRESENT;23;MODE;2
RAW_IMU;AX;10.0;AY;-8.0;AZ;253.0;GX;-1.0;GY;1.0;GZ;1.0;MAGX;47.0;MAGY;-114.0;MAGZ;155.0
MOT;0;1000.0;1;1000.0;2;1000.0;3;1000.0;4;0.0;5;0.0;6;0.0;7;0.0;
RC;ROLL;1496.0;PITCH;1499.0;YAW;1509.0;THROTTLE;1068.0;AUX1;1531.0;AUX2;1500.0;AUX3;1500.0;AUX4;1500.0
ALTITUDE;20.0
DEBUG;DEBUG10.0;DEBUG2;0.0;DEBUG3;20.0;DEBUG4;0.0
ATTITUDE;ANGX;-8.0;ANGY;1.0;HEAD;-140.0
STATUS;CYCLETIME;3004;I2CERR;0;PRESENT;23;MODE;2
RAW_IMU;AX;9.0;AY;-7.0;AZ;254.0;GX;-2.0;GY;0.0;GZ;1.0;MAGX;49.0;MAGY;-116.0;MAGZ;157.0
MOT;0;1000.0;1;1000.0;2;1000.0;3;1000.0;4;0.0;5;0.0;6;0.0;7;0.0;
RC;ROLL;1496.0;PITCH;1499.0;YAW;1509.0;THROTTLE;1068.0;AUX1;1531.0;AUX2;1500.0;AUX3;1500.0;AUX4;1500.0
ALTITUDE;20.0
DEBUG;DEBUG10.0;DEBUG2;0.0;DEBUG3;20.0;DEBUG4;0.0
ATTITUDE;ANGX;-8.0;ANGY;1.0;HEAD;-140.0
STATUS;CYCLETIME;2912;I2CERR;0;PRESENT;23;MODE;2
RAW_IMU;AX;6.0;AY;-5.0;AZ;259.0;GX;-3.0;GY;0.0;GZ;0.0;MAGX;49.0;MAGY;-116.0;MAGZ;157.0
MOT;0;1000.0;1;1000.0;2;1000.0;3;1000.0;4;0.0;5;0.0;6;0.0;7;0.0;
RC;ROLL;1496.0;PITCH;1499.0;YAW;1509.0;THROTTLE;1068.0;AUX1;1531.0;AUX2;1500.0;AUX3;1500.0;AUX4;1500.0
ALTITUDE;20.0
DEBUG;DEBUG10.0;DEBUG2;0.0;DEBUG3;20.0;DEBUG4;0.0
ATTITUDE;ANGX;-8.0;ANGY;1.0;HEAD;-140.0
STATUS;CYCLETIME;2960;I2CERR;0;PRESENT;23;MODE;2
RAW_IMU;AX;7.0;AY;-5.0;AZ;260.0;GX;-2.0;GY;1.0;GZ;1.0;MAGX;51.0;MAGY;-120.0;MAGZ;165.0
MOT;0;1000.0;1;1000.0;2;1000.0;3;1000.0;4;0.0;5;0.0;6;0.0;7;0.0;
RC;ROLL;1496.0;PITCH;1499.0;YAW;1509.0;THROTTLE;1068.0;AUX1;1531.0;AUX2;1500.0;AUX3;1500.0;AUX4;1500.0
ALTITUDE;20.0
DEBUG;DEBUG10.0;DEBUG2;0.0;DEBUG3;20.0;DEBUG4;0.0
ATTITUDE;ANGX;-8.0;ANGY;1.0;HEAD;-140.0
STATUS;CYCLETIME;2924;I2CERR;0;PRESENT;23;MODE;2
RAW_IMU;AX;4.0;AY;-2.0;AZ;260.0;GX;-2.0;GY;0.0;GZ;0.0;MAGX;51.0;MAGY;-120.0;MAGZ;165.0
MOT;0;1000.0;1;1000.0;2;1000.0;3;1000.0;4;0.0;5;0.0;6;0.0;7;0.0;
RC;ROLL;1496.0;PITCH;1499.0;YAW;1509.0;THROTTLE;1068.0;AUX1;1531.0;AUX2;1500.0;AUX3;1500.0;AUX4;1500.0
ALTITUDE;20.0
DEBUG;DEBUG10.0;DEBUG2;0.0;DEBUG3;20.0;DEBUG4;0.0
ATTITUDE;ANGX;-8.0;ANGY;1.0;HEAD;-140.0
STATUS;CYCLETIME;2904;I2CERR;0;PRESENT;23;MODE;2
RAW_IMU;AX;2.0;AY;-3.0;AZ;256.0;GX;-2.0;GY;1.0;GZ;1.0;MAGX;52.0;MAGY;-119.0;MAGZ;166.0
MOT;0;1000.0;1;1000.0;2;1000.0;3;1000.0;4;0.0;5;0.0;6;0.0;7;0.0;
RC;ROLL;1494.0;PITCH;1499.0;YAW;1509.0;THROTTLE;1066.0;AUX1;1531.0;AUX2;1500.0;AUX3;1500.0;AUX4;1500.0
ALTITUDE;20.0
DEBUG;DEBUG10.0;DEBUG2;0.0;DEBUG3;20.0;DEBUG4;0.0
ATTITUDE;ANGX;-8.0;ANGY;1.0;HEAD;-140.0
STATUS;CYCLETIME;2896;I2CERR;0;PRESENT;23;MODE;2
RAW_IMU;AX;2.0;AY;-8.0;AZ;258.0;GX;-2.0;GY;0.0;GZ;1.0;MAGX;52.0;MAGY;-119.0;MAGZ;166.0
MOT;0;1000.0;1;1000.0;2;1000.0;3;1000.0;4;0.0;5;0.0;6;0.0;7;0.0;
RC;ROLL;1494.0;PITCH;1499.0;YAW;1509.0;THROTTLE;1066.0;AUX1;1531.0;AUX2;1500.0;AUX3;1500.0;AUX4;1500.0
ALTITUDE;20.0
DEBUG;DEBUG10.0;DEBUG2;0.0;DEBUG3;20.0;DEBUG4;0.0
ATTITUDE;ANGX;-8.0;ANGY;1.0;HEAD;-140.0
STATUS;CYCLETIME;2952;I2CERR;0;PRESENT;23;MODE;2
RAW_IMU;AX;5.0;AY;-7.0;AZ;262.0;GX;-2.0;GY;0.0;GZ;0.0;MAGX;52.0;MAGY;-119.0;MAGZ;166.0
MOT;0;1000.0;1;1000.0;2;1000.0;3;1000.0;4;0.0;5;0.0;6;0.0;7;0.0;
RC;ROLL;1494.0;PITCH;1499.0;YAW;1509.0;THROTTLE;1066.0;AUX1;1531.0;AUX2;1500.0;AUX3;1500.0;AUX4;1500.0
ALTITUDE;20.0
DEBUG;DEBUG10.0;DEBUG2;0.0;DEBUG3;20.0;DEBUG4;0.0
ATTITUDE;ANGX;-8.0;ANGY;1.0;HEAD;-140.0
STATUS;CYCLETIME;2896;I2CERR;0;PRESENT;23;MODE;2
RAW_IMU;AX;8.0;AY;-7.0;AZ;256.0;GX;-2.0;GY;0.0;GZ;0.0;MAGX;51.0;MAGY;-114.0;MAGZ;153.0
MOT;0;1000.0;1;1000.0;2;1000.0;3;1000.0;4;0.0;5;0.0;6;0.0;7;0.0;
RC;ROLL;1494.0;PITCH;1499.0;YAW;1509.0;THROTTLE;1066.0;AUX1;1531.0;AUX2;1500.0;AUX3;1500.0;AUX4;1500.0
ALTITUDE;20.0
DEBUG;DEBUG10.0;DEBUG2;0.0;DEBUG3;20.0;DEBUG4;0.0
ATTITUDE;ANGX;-8.0;ANGY;1.0;HEAD;-140.0
STATUS;CYCLETIME;2900;I2CERR;0;PRESENT;23;MODE;2
RAW_IMU;AX;6.0;AY;-6.0;AZ;258.0;GX;-2.0;GY;0.0;GZ;1.0;MAGX;51.0;MAGY;-114.0;MAGZ;153.0
MOT;0;1000.0;1;1000.0;2;1000.0;3;1000.0;4;0.0;5;0.0;6;0.0;7;0.0;
RC;ROLL;1494.0;PITCH;1499.0;YAW;1509.0;THROTTLE;1066.0;AUX1;1531.0;AUX2;1500.0;AUX3;1500.0;AUX4;1500.0
ALTITUDE;20.0
DEBUG;DEBUG10.0;DEBUG2;0.0;DEBUG3;20.0;DEBUG4;0.0
ATTITUDE;ANGX;-8.0;ANGY;1.0;HEAD;-139.0
STATUS;CYCLETIME;2896;I2CERR;0;PRESENT;23;MODE;2
RAW_IMU;AX;9.0;AY;-6.0;AZ;254.0;GX;-2.0;GY;0.0;GZ;0.0;MAGX;50.0;MAGY;-116.0;MAGZ;155.0
MOT;0;1000.0;1;1000.0;2;1000.0;3;1000.0;4;0.0;5;0.0;6;0.0;7;0.0;
RC;ROLL;1494.0;PITCH;1499.0;YAW;1509.0;THROTTLE;1066.0;AUX1;1531.0;AUX2;1500.0;AUX3;1500.0;AUX4;1500.0
ALTITUDE;20.0
DEBUG;DEBUG10.0;DEBUG2;0.0;DEBUG3;20.0;DEBUG4;0.0
ATTITUDE;ANGX;-8.0;ANGY;1.0;HEAD;-139.0
STATUS;CYCLETIME;2920;I2CERR;0;PRESENT;23;MODE;2
RAW_IMU;AX;6.0;AY;-5.0;AZ;256.0;GX;-2.0;GY;0.0;GZ;0.0;MAGX;50.0;MAGY;-116.0;MAGZ;155.0
MOT;0;1000.0;1;1000.0;2;1000.0;3;1000.0;4;0.0;5;0.0;6;0.0;7;0.0;
RC;ROLL;1494.0;PITCH;1499.0;YAW;1509.0;THROTTLE;1066.0;AUX1;1531.0;AUX2;1500.0;AUX3;1500.0;AUX4;1500.0
ALTITUDE;20.0
DEBUG;DEBUG10.0;DEBUG2;0.0;DEBUG3;20.0;DEBUG4;0.0
ATTITUDE;ANGX;-8.0;ANGY;1.0;HEAD;-140.0
STATUS;CYCLETIME;3076;I2CERR;0;PRESENT;23;MODE;2
RAW_IMU;AX;6.0;AY;-6.0;AZ;255.0;GX;-2.0;GY;0.0;GZ;1.0;MAGX;52.0;MAGY;-114.0;MAGZ;154.0
MOT;0;1000.0;1;1000.0;2;1000.0;3;1000.0;4;0.0;5;0.0;6;0.0;7;0.0;
RC;ROLL;1494.0;PITCH;1499.0;YAW;1509.0;THROTTLE;1066.0;AUX1;1531.0;AUX2;1500.0;AUX3;1500.0;AUX4;1500.0
ALTITUDE;20.0
DEBUG;DEBUG10.0;DEBUG2;0.0;DEBUG3;20.0;DEBUG4;0.0
ATTITUDE;ANGX;-8.0;ANGY;1.0;HEAD;-139.0
STATUS;CYCLETIME;2892;I2CERR;0;PRESENT;23;MODE;2
RAW_IMU;AX;7.0;AY;-5.0;AZ;254.0;GX;-2.0;GY;1.0;GZ;1.0;MAGX;52.0;MAGY;-114.0;MAGZ;154.0
MOT;0;1000.0;1;1000.0;2;1000.0;3;1000.0;4;0.0;5;0.0;6;0.0;7;0.0;
RC;ROLL;1494.0;PITCH;1499.0;YAW;1509.0;THROTTLE;1066.0;AUX1;1531.0;AUX2;1500.0;AUX3;1500.0;AUX4;1500.0
ALTITUDE;20.0
DEBUG;DEBUG10.0;DEBUG2;0.0;DEBUG3;20.0;DEBUG4;0.0
ATTITUDE;ANGX;-8.0;ANGY;1.0;HEAD;-139.0
STATUS;CYCLETIME;2900;I2CERR;0;PRESENT;23;MODE;2
RAW_IMU;AX;7.0;AY;0.0;AZ;260.0;GX;-3.0;GY;0.0;GZ;0.0;MAGX;52.0;MAGY;-115.0;MAGZ;153.0
MOT;0;1000.0;1;1000.0;2;1000.0;3;1000.0;4;0.0;5;0.0;6;0.0;7;0.0;
RC;ROLL;1494.0;PITCH;1499.0;YAW;1509.0;THROTTLE;1066.0;AUX1;1531.0;AUX2;1500.0;AUX3;1500.0;AUX4;1500.0
ALTITUDE;20.0
DEBUG;DEBUG10.0;DEBUG2;0.0;DEBUG3;20.0;DEBUG4;0.0
ATTITUDE;ANGX;-8.0;ANGY;1.0;HEAD;-139.0
STATUS;CYCLETIME;3000;I2CERR;0;PRESENT;23;MODE;2
RAW_IMU;AX;6.0;AY;-1.0;AZ;259.0;GX;-1.0;GY;2.0;GZ;0.0;MAGX;52.0;MAGY;-115.0;MAGZ;153.0
MOT;0;1000.0;1;1000.0;2;1000.0;3;1000.0;4;0.0;5;0.0;6;0.0;7;0.0;
RC;ROLL;1494.0;PITCH;1499.0;YAW;1509.0;THROTTLE;1066.0;AUX1;1531.0;AUX2;1500.0;AUX3;1500.0;AUX4;1500.0
ALTITUDE;20.0
DEBUG;DEBUG10.0;DEBUG2;0.0;DEBUG3;20.0;DEBUG4;0.0
ATTITUDE;ANGX;-8.0;ANGY;1.0;HEAD;-139.0
STATUS;CYCLETIME;2912;I2CERR;0;PRESENT;23;MODE;2
RAW_IMU;AX;6.0;AY;-4.0;AZ;255.0;GX;-2.0;GY;0.0;GZ;0.0;MAGX;52.0;MAGY;-116.0;MAGZ;154.0
MOT;0;1000.0;1;1000.0;2;1000.0;3;1000.0;4;0.0;5;0.0;6;0.0;7;0.0;
RC;ROLL;1494.0;PITCH;1499.0;YAW;1509.0;THROTTLE;1066.0;AUX1;1531.0;AUX2;1500.0;AUX3;1500.0;AUX4;1500.0
ALTITUDE;20.0
DEBUG;DEBUG10.0;DEBUG2;0.0;DEBUG3;20.0;DEBUG4;0.0
ATTITUDE;ANGX;-8.0;ANGY;1.0;HEAD;-139.0
STATUS;CYCLETIME;2896;I2CERR;0;PRESENT;23;MODE;2
RAW_IMU;AX;6.0;AY;-6.0;AZ;257.0;GX;-2.0;GY;1.0;GZ;1.0;MAGX;52.0;MAGY;-116.0;MAGZ;154.0
MOT;0;1000.0;1;1000.0;2;1000.0;3;1000.0;4;0.0;5;0.0;6;0.0;7;0.0;
RC;ROLL;1494.0;PITCH;1499.0;YAW;1509.0;THROTTLE;1066.0;AUX1;1531.0;AUX2;1500.0;AUX3;1500.0;AUX4;1500.0
ALTITUDE;20.0
DEBUG;DEBUG10.0;DEBUG2;0.0;DEBUG3;20.0;DEBUG4;0.0
ATTITUDE;ANGX;-8.0;ANGY;1.0;HEAD;-139.0
STATUS;CYCLETIME;2900;I2CERR;0;PRESENT;23;MODE;2
RAW_IMU;AX;6.0;AY;7.0;AZ;256.0;GX;-2.0;GY;0.0;GZ;1.0;MAGX;49.0;MAGY;-115.0;MAGZ;154.0
MOT;0;1000.0;1;1000.0;2;1000.0;3;1000.0;4;0.0;5;0.0;6;0.0;7;0.0;
RC;ROLL;1494.0;PITCH;1499.0;YAW;1509.0;THROTTLE;1066.0;AUX1;1531.0;AUX2;1500.0;AUX3;1500.0;AUX4;1500.0
ALTITUDE;20.0
DEBUG;DEBUG10.0;DEBUG2;0.0;DEBUG3;20.0;DEBUG4;0.0
ATTITUDE;ANGX;-8.0;ANGY;1.0;HEAD;-139.0
STATUS;CYCLETIME;2896;I2CERR;0;PRESENT;23;MODE;2
RAW_IMU;AX;7.0;AY;9.0;AZ;258.0;GX;-1.0;GY;1.0;GZ;2.0;MAGX;49.0;MAGY;-115.0;MAGZ;154.0
MOT;0;1000.0;1;1000.0;2;1000.0;3;1000.0;4;0.0;5;0.0;6;0.0;7;0.0;
RC;ROLL;1494.0;PITCH;1499.0;YAW;1509.0;THROTTLE;1066.0;AUX1;1531.0;AUX2;1500.0;AUX3;1500.0;AUX4;1500.0
ALTITUDE;20.0
DEBUG;DEBUG10.0;DEBUG2;0.0;DEBUG3;20.0;DEBUG4;0.0
ATTITUDE;ANGX;-8.0;ANGY;1.0;HEAD;-139.0
STATUS;CYCLETIME;2892;I2CERR;0;PRESENT;23;MODE;2
RAW_IMU;AX;1.0;AY;0.0;AZ;256.0;GX;-2.0;GY;0.0;GZ;1.0;MAGX;51.0;MAGY;-115.0;MAGZ;153.0
MOT;0;1000.0;1;1000.0;2;1000.0;3;1000.0;4;0.0;5;0.0;6;0.0;7;0.0;
RC;ROLL;1494.0;PITCH;1499.0;YAW;1509.0;THROTTLE;1066.0;AUX1;1531.0;AUX2;1500.0;AUX3;1500.0;AUX4;1500.0
ALTITUDE;20.0
DEBUG;DEBUG10.0;DEBUG2;0.0;DEBUG3;20.0;DEBUG4;0.0
ATTITUDE;ANGX;-8.0;ANGY;2.0;HEAD;-139.0
STATUS;CYCLETIME;2944;I2CERR;0;PRESENT;23;MODE;2
RAW_IMU;AX;4.0;AY;-4.0;AZ;254.0;GX;-2.0;GY;1.0;GZ;0.0;MAGX;51.0;MAGY;-115.0;MAGZ;153.0
MOT;0;1000.0;1;1000.0;2;1000.0;3;1000.0;4;0.0;5;0.0;6;0.0;7;0.0;
RC;ROLL;1494.0;PITCH;1499.0;YAW;1509.0;THROTTLE;1068.0;AUX1;1531.0;AUX2;1500.0;AUX3;1500.0;AUX4;1500.0
ALTITUDE;20.0
DEBUG;DEBUG10.0;DEBUG2;0.0;DEBUG3;20.0;DEBUG4;0.0
ATTITUDE;ANGX;-8.0;ANGY;2.0;HEAD;-139.0
STATUS;CYCLETIME;2904;I2CERR;0;PRESENT;23;MODE;2
RAW_IMU;AX;8.0;AY;-2.0;AZ;254.0;GX;-2.0;GY;0.0;GZ;1.0;MAGX;51.0;MAGY;-115.0;MAGZ;153.0
MOT;0;1000.0;1;1000.0;2;1000.0;3;1000.0;4;0.0;5;0.0;6;0.0;7;0.0;
RC;ROLL;1494.0;PITCH;1499.0;YAW;1509.0;THROTTLE;1068.0;AUX1;1531.0;AUX2;1500.0;AUX3;1500.0;AUX4;1500.0
ALTITUDE;20.0
DEBUG;DEBUG10.0;DEBUG2;0.0;DEBUG3;20.0;DEBUG4;0.0
