IDENT;V;220;TYPE;3
MSP_MOTOR_PINS
STATUS;CYCLETIME;2992;I2CERR;0;PRESENT;23;MODE;2
RAW_IMU;AX;-44.0;AY;-5.0;AZ;248.0;GX;-1.0;GY;0.0;GZ;1.0;MAGX;79.0;MAGY;-84.0;MAGZ;30.0
MOT;0;1000.0;1;1000.0;2;1000.0;3;1000.0;4;0.0;5;0.0;6;0.0;7;0.0;
RC;ROLL;1495.0;PITCH;1501.0;YAW;1516.0;THROTTLE;1059.0;AUX1;1534.0;AUX2;1500.0;AUX3;1500.0;AUX4;1500.0
ALTITUDE;49.0
DEBUG;DEBUG10.0;DEBUG2;0.0;DEBUG3;49.0;DEBUG4;0.0
ATTITUDE;ANGX;-20.0;ANGY;1.0;HEAD;-122.0
STATUS;CYCLETIME;2892;I2CERR;0;PRESENT;23;MODE;2
RAW_IMU;AX;-42.0;AY;-7.0;AZ;249.0;GX;2.0;GY;-2.0;GZ;1.0;MAGX;78.0;MAGY;-82.0;MAGZ;29.0
MOT;0;1000.0;1;1000.0;2;1000.0;3;1000.0;4;0.0;5;0.0;6;0.0;7;0.0;
RC;ROLL;1495.0;PITCH;1499.0;YAW;1516.0;THROTTLE;1059.0;AUX1;1534.0;AUX2;1500.0;AUX3;1500.0;AUX4;1500.0
ALTITUDE;49.0
DEBUG;DEBUG10.0;DEBUG2;0.0;DEBUG3;49.0;DEBUG4;0.0
ATTITUDE;ANGX;-20.0;ANGY;0.0;HEAD;-122.0
ATTITUDE;ANGX;-20.0;ANGY;0.0;HEAD;-122.0
STATUS;CYCLETIME;3008;I2CERR;0;PRESENT;23;MODE;2
RAW_IMU;AX;-42.0;AY;-7.0;AZ;254.0;GX;1.0;GY;0.0;GZ;1.0;MAGX;81.0;MAGY;-83.0;MAGZ;31.0
MOT;0;1000.0;1;1000.0;2;1000.0;3;1000.0;4;0.0;5;0.0;6;0.0;7;0.0;
RC;ROLL;1495.0;PITCH;1499.0;YAW;1516.0;THROTTLE;1064.0;AUX1;1534.0;AUX2;1500.0;AUX3;1500.0;AUX4;1500.0
ALTITUDE;49.0
DEBUG;DEBUG10.0;DEBUG2;0.0;DEBUG3;49.0;DEBUG4;0.0
ATTITUDE;ANGX;-19.0;ANGY;0.0;HEAD;-122.0
STATUS;CYCLETIME;2892;I2CERR;0;PRESENT;23;MODE;2
RAW_IMU;AX;-38.0;AY;-10.0;AZ;255.0;GX;-1.0;GY;0.0;GZ;1.0;MAGX;81.0;MAGY;-83.0;MAGZ;31.0
MOT;0;1000.0;1;1000.0;2;1000.0;3;1000.0;4;0.0;5;0.0;6;0.0;7;0.0;
RC;ROLL;1499.0;PITCH;1499.0;YAW;1516.0;THROTTLE;1064.0;AUX1;1534.0;AUX2;1500.0;AUX3;1500.0;AUX4;1500.0
ALTITUDE;49.0
DEBUG;DEBUG10.0;DEBUG2;0.0;DEBUG3;49.0;DEBUG4;0.0
ATTITUDE;ANGX;-19.0;ANGY;0.0;HEAD;-122.0
STATUS;CYCLETIME;2800;I2CERR;0;PRESENT;23;MODE;2
RAW_IMU;AX;-38.0;AY;-10.0;AZ;255.0;GX;-3.0;GY;0.0;GZ;1.0;MAGX;81.0;MAGY;-83.0;MAGZ;32.0
MOT;0;1000.0;1;1000.0;2;1000.0;3;1000.0;4;0.0;5;0.0;6;0.0;7;0.0;
RC;ROLL;1499.0;PITCH;1499.0;YAW;1518.0;THROTTLE;1062.0;AUX1;1534.0;AUX2;1500.0;AUX3;1500.0;AUX4;1500.0
ALTITUDE;49.0
DEBUG;DEBUG10.0;DEBUG2;0.0;DEBUG3;49.0;DEBUG4;0.0
ATTITUDE;ANGX;-19.0;ANGY;0.0;HEAD;-122.0
STATUS;CYCLETIME;2812;I2CERR;0;PRESENT;23;MODE;2
RAW_IMU;AX;-42.0;AY;-6.0;AZ;260.0;GX;-4.0;GY;0.0;GZ;2.0;MAGX;81.0;MAGY;-83.0;MAGZ;32.0
MOT;0;1000.0;1;1000.0;2;1000.0;3;1000.0;4;0.0;5;0.0;6;0.0;7;0.0;
RC;ROLL;1499.0;PITCH;1499.0;YAW;1518.0;THROTTLE;1062.0;AUX1;1534.0;AUX2;1500.0;AUX3;1500.0;AUX4;1500.0
ALTITUDE;49.0
DEBUG;DEBUG10.0;DEBUG2;0.0;DEBUG3;49.0;DEBUG4;0.0
ATTITUDE;ANGX;-19.0;ANGY;0.0;HEAD;-122.0
STATUS;CYCLETIME;2804;I2CERR;0;PRESENT;23;MODE;2
RAW_IMU;AX;-41.0;AY;-7.0;AZ;260.0;GX;-3.0;GY;0.0;GZ;1.0;MAGX;83.0;MAGY;-83.0;MAGZ;33.0
MOT;0;1000.0;1;1000.0;2;1000.0;3;1000.0;4;0.0;5;0.0;6;0.0;7;0.0;
RC;ROLL;1499.0;PITCH;1499.0;YAW;1518.0;THROTTLE;1062.0;AUX1;1534.0;AUX2;1500.0;AUX3;1500.0;AUX4;1500.0
ALTITUDE;48.0
DEBUG;DEBUG10.0;DEBUG2;0.0;DEBUG3;48.0;DEBUG4;0.0
ATTITUDE;ANGX;-19.0;ANGY;0.0;HEAD;-122.0
STATUS;CYCLETIME;2760;I2CERR;0;PRESENT;23;MODE;2
RAW_IMU;AX;-44.0;AY;-8.0;AZ;257.0;GX;-1.0;GY;0.0;GZ;0.0;MAGX;83.0;MAGY;-83.0;MAGZ;33.0
MOT;0;1000.0;1;1000.0;2;1000.0;3;1000.0;4;0.0;5;0.0;6;0.0;7;0.0;
RC;ROLL;1499.0;PITCH;1499.0;YAW;1518.0;THROTTLE;1062.0;AUX1;1534.0;AUX2;1500.0;AUX3;1500.0;AUX4;1500.0
ALTITUDE;48.0
DEBUG;DEBUG10.0;DEBUG2;0.0;DEBUG3;48.0;DEBUG4;0.0
ATTITUDE;ANGX;-19.0;ANGY;0.0;HEAD;-122.0
STATUS;CYCLETIME;2920;I2CERR;0;PRESENT;23;MODE;2
RAW_IMU;AX;-44.0;AY;-9.0;AZ;254.0;GX;3.0;GY;0.0;GZ;-1.0;MAGX;83.0;MAGY;-83.0;MAGZ;32.0
MOT;0;1000.0;1;1000.0;2;1000.0;3;1000.0;4;0.0;5;0.0;6;0.0;7;0.0;
RC;ROLL;1494.0;PITCH;1499.0;YAW;1518.0;THROTTLE;1062.0;AUX1;1534.0;AUX2;1500.0;AUX3;1500.0;AUX4;1500.0
ALTITUDE;48.0
DEBUG;DEBUG10.0;DEBUG2;0.0;DEBUG3;48.0;DEBUG4;0.0
ATTITUDE;ANGX;-18.0;ANGY;0.0;HEAD;-122.0
STATUS;CYCLETIME;2796;I2CERR;0;PRESENT;23;MODE;2
RAW_IMU;AX;-45.0;AY;-10.0;AZ;252.0;GX;8.0;GY;0.0;GZ;0.0;MAGX;83.0;MAGY;-83.0;MAGZ;32.0
MOT;0;1000.0;1;1000.0;2;1000.0;3;1000.0;4;0.0;5;0.0;6;0.0;7;0.0;
RC;ROLL;1494.0;PITCH;1502.0;YAW;1516.0;THROTTLE;1062.0;AUX1;1534.0;AUX2;1500.0;AUX3;1500.0;AUX4;1500.0
ALTITUDE;48.0
DEBUG;DEBUG10.0;DEBUG2;0.0;DEBUG3;48.0;DEBUG4;0.0
ATTITUDE;ANGX;-17.0;ANGY;0.0;HEAD;-122.0
STATUS;CYCLETIME;2884;I2CERR;0;PRESENT;23;MODE;2
RAW_IMU;AX;-45.0;AY;-10.0;AZ;252.0;GX;11.0;GY;-3.0;GZ;0.0;MAGX;83.0;MAGY;-82.0;MAGZ;36.0
MOT;0;1000.0;1;1000.0;2;1000.0;3;1000.0;4;0.0;5;0.0;6;0.0;7;0.0;
RC;ROLL;1496.0;PITCH;1500.0;YAW;1516.0;THROTTLE;1062.0;AUX1;1534.0;AUX2;1500.0;AUX3;1500.0;AUX4;1500.0
ALTITUDE;48.0
DEBUG;DEBUG10.0;DEBUG2;0.0;DEBUG3;48.0;DEBUG4;0.0
ATTITUDE;ANGX;-16.0;ANGY;0.0;HEAD;-122.0
STATUS;CYCLETIME;2924;I2CERR;0;PRESENT;23;MODE;2
RAW_IMU;AX;-42.0;AY;-10.0;AZ;246.0;GX;10.0;GY;-5.0;GZ;1.0;MAGX;83.0;MAGY;-82.0;MAGZ;36.0
MOT;0;1000.0;1;1000.0;2;1000.0;3;1000.0;4;0.0;5;0.0;6;0.0;7;0.0;
RC;ROLL;1496.0;PITCH;1500.0;YAW;1516.0;THROTTLE;1062.0;AUX1;1534.0;AUX2;1500.0;AUX3;1500.0;AUX4;1500.0
ALTITUDE;48.0
DEBUG;DEBUG10.0;DEBUG2;0.0;DEBUG3;48.0;DEBUG4;0.0
ATTITUDE;ANGX;-14.0;ANGY;0.0;HEAD;-122.0
STATUS;CYCLETIME;3140;I2CERR;0;PRESENT;23;MODE;2
RAW_IMU;AX;-37.0;AY;-10.0;AZ;244.0;GX;5.0;GY;-7.0;GZ;0.0;MAGX;87.0;MAGY;-82.0;MAGZ;45.0
MOT;0;1000.0;1;1000.0;2;1000.0;3;1000.0;4;0.0;5;0.0;6;0.0;7;0.0;
RC;ROLL;1496.0;PITCH;1500.0;YAW;1516.0;THROTTLE;1062.0;AUX1;1536.0;AUX2;1500.0;AUX3;1500.0;AUX4;1500.0
ALTITUDE;48.0
DEBUG;DEBUG10.0;DEBUG2;0.0;DEBUG3;48.0;DEBUG4;0.0
ATTITUDE;ANGX;-13.0;ANGY;-1.0;HEAD;-122.0
STATUS;CYCLETIME;2888;I2CERR;0;PRESENT;23;MODE;2
RAW_IMU;AX;-34.0;AY;-12.0;AZ;243.0;GX;-2.0;GY;-7.0;GZ;0.0;MAGX;87.0;MAGY;-82.0;MAGZ;45.0
MOT;0;1000.0;1;1000.0;2;1000.0;3;1000.0;4;0.0;5;0.0;6;0.0;7;0.0;
RC;ROLL;1496.0;PITCH;1500.0;YAW;1514.0;THROTTLE;1062.0;AUX1;1536.0;AUX2;1500.0;AUX3;1500.0;AUX4;1500.0
ALTITUDE;48.0
DEBUG;DEBUG10.0;DEBUG2;0.0;DEBUG3;48.0;DEBUG4;0.0
ATTITUDE;ANGX;-13.0;ANGY;-2.0;HEAD;-122.0
STATUS;CYCLETIME;2888;I2CERR;0;PRESENT;23;MODE;2
RAW_IMU;AX;-36.0;AY;-16.0;AZ;247.0;GX;-11.0;GY;-3.0;GZ;0.0;MAGX;87.0;MAGY;-82.0;MAGZ;45.0
MOT;0;1000.0;1;1000.0;2;1000.0;3;1000.0;4;0.0;5;0.0;6;0.0;7;0.0;
RC;ROLL;1496.0;PITCH;1502.0;YAW;1514.0;THROTTLE;1062.0;AUX1;1536.0;AUX2;1500.0;AUX3;1500.0;AUX4;1500.0
ALTITUDE;48.0
DEBUG;DEBUG10.0;DEBUG2;0.0;DEBUG3;48.0;DEBUG4;0.0
ATTITUDE;ANGX;-14.0;ANGY;-2.0;HEAD;-122.0
STATUS;CYCLETIME;2892;I2CERR;0;PRESENT;23;MODE;2
RAW_IMU;AX;-37.0;AY;-19.0;AZ;250.0;GX;-17.0;GY;0.0;GZ;0.0;MAGX;91.0;MAGY;-80.0;MAGZ;47.0
MOT;0;1000.0;1;1000.0;2;1000.0;3;1000.0;4;0.0;5;0.0;6;0.0;7;0.0;
RC;ROLL;1496.0;PITCH;1505.0;YAW;1514.0;THROTTLE;1062.0;AUX1;1536.0;AUX2;1500.0;AUX3;1500.0;AUX4;1500.0
ALTITUDE;48.0
DEBUG;DEBUG10.0;DEBUG2;0.0;DEBUG3;46.0;DEBUG4;0.0
ATTITUDE;ANGX;-16.0;ANGY;-3.0;HEAD;-122.0
STATUS;CYCLETIME;3024;I2CERR;0;PRESENT;23;MODE;2
RAW_IMU;AX;-41.0;AY;-16.0;AZ;256.0;GX;-17.0;GY;1.0;GZ;0.0;MAGX;91.0;MAGY;-80.0;MAGZ;47.0
MOT;0;1000.0;1;1000.0;2;1000.0;3;1000.0;4;0.0;5;0.0;6;0.0;7;0.0;
RC;ROLL;1496.0;PITCH;1503.0;YAW;1516.0;THROTTLE;1060.0;AUX1;1536.0;AUX2;1500.0;AUX3;1500.0;AUX4;1500.0
ALTITUDE;46.0
DEBUG;DEBUG10.0;DEBUG2;0.0;DEBUG3;46.0;DEBUG4;0.0
ATTITUDE;ANGX;-18.0;ANGY;-2.0;HEAD;-121.0
STATUS;CYCLETIME;2892;I2CERR;0;PRESENT;23;MODE;2
RAW_IMU;AX;-48.0;AY;-12.0;AZ;263.0;GX;-12.0;GY;2.0;GZ;0.0;MAGX;92.0;MAGY;-81.0;MAGZ;40.0
MOT;0;1000.0;1;1000.0;2;1000.0;3;1000.0;4;0.0;5;0.0;6;0.0;7;0.0;
RC;ROLL;1496.0;PITCH;1501.0;YAW;1516.0;THROTTLE;1060.0;AUX1;1536.0;AUX2;1500.0;AUX3;1500.0;AUX4;1500.0
ALTITUDE;46.0
DEBUG;DEBUG10.0;DEBUG2;0.0;DEBUG3;46.0;DEBUG4;0.0
ATTITUDE;ANGX;-19.0;ANGY;-2.0;HEAD;-121.0
STATUS;CYCLETIME;2904;I2CERR;0;PRESENT;23;MODE;2
RAW_IMU;AX;-52.0;AY;-13.0;AZ;270.0;GX;-4.0;GY;-2.0;GZ;0.0;MAGX;92.0;MAGY;-81.0;MAGZ;40.0
MOT;0;1000.0;1;1000.0;2;1000.0;3;1000.0;4;0.0;5;0.0;6;0.0;7;0.0;
RC;ROLL;1496.0;PITCH;1499.0;YAW;1516.0;THROTTLE;1060.0;AUX1;1536.0;AUX2;1500.0;AUX3;1500.0;AUX4;1500.0
ALTITUDE;46.0
DEBUG;DEBUG10.0;DEBUG2;0.0;DEBUG3;46.0;DEBUG4;0.0
ATTITUDE;ANGX;-19.0;ANGY;-2.0;HEAD;-121.0
STATUS;CYCLETIME;2888;I2CERR;0;PRESENT;23;MODE;2
RAW_IMU;AX;-51.0;AY;-12.0;AZ;271.0;GX;1.0;GY;-8.0;GZ;0.0;MAGX;92.0;MAGY;-82.0;MAGZ;33.0
MOT;0;1000.0;1;1000.0;2;1000.0;3;1000.0;4;0.0;5;0.0;6;0.0;7;0.0;
RC;ROLL;1496.0;PITCH;1499.0;YAW;1514.0;THROTTLE;1063.0;AUX1;1536.0;AUX2;1500.0;AUX3;1500.0;AUX4;1500.0
ALTITUDE;46.0
DEBUG;DEBUG10.0;DEBUG2;0.0;DEBUG3;46.0;DEBUG4;0.0
ATTITUDE;ANGX;-19.0;ANGY;-3.0;HEAD;-121.0
STATUS;CYCLETIME;3052;I2CERR;0;PRESENT;23;MODE;2
RAW_IMU;AX;-49.0;AY;-15.0;AZ;264.0;GX;4.0;GY;-10.0;GZ;1.0;MAGX;92.0;MAGY;-82.0;MAGZ;33.0
MOT;0;1000.0;1;1000.0;2;1000.0;3;1000.0;4;0.0;5;0.0;6;0.0;7;0.0;
RC;ROLL;1496.0;PITCH;1499.0;YAW;1514.0;THROTTLE;1065.0;AUX1;1536.0;AUX2;1500.0;AUX3;1500.0;AUX4;1500.0
ALTITUDE;46.0
DEBUG;DEBUG10.0;DEBUG2;0.0;DEBUG3;46.0;DEBUG4;0.0
ATTITUDE;ANGX;-19.0;ANGY;-4.0;HEAD;-121.0
STATUS;CYCLETIME;3024;I2CERR;0;PRESENT;23;MODE;2
RAW_IMU;AX;-44.0;AY;-20.0;AZ;259.0;GX;0.0;GY;-3.0;GZ;2.0;MAGX;98.0;MAGY;-80.0;MAGZ;36.0
MOT;0;1000.0;1;1000.0;2;1000.0;3;1000.0;4;0.0;5;0.0;6;0.0;7;0.0;
RC;ROLL;1496.0;PITCH;1499.0;YAW;1514.0;THROTTLE;1065.0;AUX1;1536.0;AUX2;1500.0;AUX3;1500.0;AUX4;1500.0
ALTITUDE;46.0
DEBUG;DEBUG10.0;DEBUG2;0.0;DEBUG3;46.0;DEBUG4;0.0
ATTITUDE;ANGX;-18.0;ANGY;-5.0;HEAD;-121.0
STATUS;CYCLETIME;2880;I2CERR;0;PRESENT;23;MODE;2
RAW_IMU;AX;-37.0;AY;-20.0;AZ;255.0;GX;-7.0;GY;2.0;GZ;1.0;MAGX;98.0;MAGY;-80.0;MAGZ;36.0
MOT;0;1000.0;1;1000.0;2;1000.0;3;1000.0;4;0.0;5;0.0;6;0.0;7;0.0;
RC;ROLL;1496.0;PITCH;1501.0;YAW;1514.0;THROTTLE;1065.0;AUX1;1533.0;AUX2;1500.0;AUX3;1500.0;AUX4;1500.0
ALTITUDE;46.0
DEBUG;DEBUG10.0;DEBUG2;0.0;DEBUG3;46.0;DEBUG4;0.0
ATTITUDE;ANGX;-18.0;ANGY;-5.0;HEAD;-120.0
STATUS;CYCLETIME;2888;I2CERR;0;PRESENT;23;MODE;2
RAW_IMU;AX;-37.0;AY;-20.0;AZ;256.0;GX;-17.0;GY;1.0;GZ;0.0;MAGX;98.0;MAGY;-79.0;MAGZ;36.0
MOT;0;1000.0;1;1000.0;2;1000.0;3;1000.0;4;0.0;5;0.0;6;0.0;7;0.0;
RC;ROLL;1498.0;PITCH;1499.0;YAW;1516.0;THROTTLE;1065.0;AUX1;1533.0;AUX2;1500.0;AUX3;1500.0;AUX4;1500.0
ALTITUDE;46.0
DEBUG;DEBUG10.0;DEBUG2;0.0;DEBUG3;46.0;DEBUG4;0.0
ATTITUDE;ANGX;-20.0;ANGY;-4.0;HEAD;-120.0
STATUS;CYCLETIME;2992;I2CERR;0;PRESENT;23;MODE;2
RAW_IMU;AX;-38.0;AY;-21.0;AZ;252.0;GX;-24.0;GY;-1.0;GZ;0.0;MAGX;98.0;MAGY;-79.0;MAGZ;36.0
MOT;0;1000.0;1;1000.0;2;1000.0;3;1000.0;4;0.0;5;0.0;6;0.0;7;0.0;
RC;ROLL;1498.0;PITCH;1499.0;YAW;1516.0;THROTTLE;1065.0;AUX1;1533.0;AUX2;1500.0;AUX3;1500.0;AUX4;1500.0
ALTITUDE;46.0
DEBUG;DEBUG10.0;DEBUG2;0.0;DEBUG3;46.0;DEBUG4;0.0
ATTITUDE;ANGX;-22.0;ANGY;-5.0;HEAD;-120.0
STATUS;CYCLETIME;3164;I2CERR;0;PRESENT;23;MODE;2
RAW_IMU;AX;-42.0;AY;-22.0;AZ;247.0;GX;-25.0;GY;-6.0;GZ;1.0;MAGX;99.0;MAGY;-80.0;MAGZ;23.0
MOT;0;1000.0;1;1000.0;2;1000.0;3;1000.0;4;0.0;5;0.0;6;0.0;7;0.0;
RC;ROLL;1496.0;PITCH;1499.0;YAW;1516.0;THROTTLE;1065.0;AUX1;1533.0;AUX2;1500.0;AUX3;1500.0;AUX4;1500.0
ALTITUDE;47.0
DEBUG;DEBUG10.0;DEBUG2;0.0;DEBUG3;47.0;DEBUG4;0.0
ATTITUDE;ANGX;-24.0;ANGY;-5.0;HEAD;-120.0
STATUS;CYCLETIME;2876;I2CERR;0;PRESENT;23;MODE;2
RAW_IMU;AX;-48.0;AY;-24.0;AZ;245.0;GX;-22.0;GY;-5.0;GZ;1.0;MAGX;99.0;MAGY;-80.0;MAGZ;23.0
MOT;0;1000.0;1;1000.0;2;1000.0;3;1000.0;4;0.0;5;0.0;6;0.0;7;0.0;
RC;ROLL;1496.0;PITCH;1502.0;YAW;1516.0;THROTTLE;1065.0;AUX1;1533.0;AUX2;1500.0;AUX3;1500.0;AUX4;1500.0
ALTITUDE;47.0
DEBUG;DEBUG10.0;DEBUG2;0.0;DEBUG3;47.0;DEBUG4;0.0
ATTITUDE;ANGX;-26.0;ANGY;-6.0;HEAD;-120.0
STATUS;CYCLETIME;2888;I2CERR;0;PRESENT;23;MODE;2
RAW_IMU;AX;-53.0;AY;-28.0;AZ;247.0;GX;-13.0;GY;0.0;GZ;0.0;MAGX;99.0;MAGY;-80.0;MAGZ;23.0
MOT;0;1000.0;1;1000.0;2;1000.0;3;1000.0;4;0.0;5;0.0;6;0.0;7;0.0;
RC;ROLL;1494.0;PITCH;1502.0;YAW;1516.0;THROTTLE;1062.0;AUX1;1533.0;AUX2;1500.0;AUX3;1500.0;AUX4;1500.0
ALTITUDE;47.0
DEBUG;DEBUG10.0;DEBUG2;0.0;DEBUG3;47.0;DEBUG4;0.0
ATTITUDE;ANGX;-28.0;ANGY;-6.0;HEAD;-120.0
STATUS;CYCLETIME;2876;I2CERR;0;PRESENT;23;MODE;2
RAW_IMU;AX;-59.0;AY;-30.0;AZ;249.0;GX;-2.0;GY;2.0;GZ;-1.0;MAGX;102.0;MAGY;-79.0;MAGZ;10.0
MOT;0;1000.0;1;1000.0;2;1000.0;3;1000.0;4;0.0;5;0.0;6;0.0;7;0.0;
RC;ROLL;1494.0;PITCH;1502.0;YAW;1516.0;THROTTLE;1060.0;AUX1;1533.0;AUX2;1500.0;AUX3;1500.0;AUX4;1500.0
ALTITUDE;47.0
DEBUG;DEBUG10.0;DEBUG2;0.0;DEBUG3;47.0;DEBUG4;0.0
ATTITUDE;ANGX;-28.0;ANGY;-6.0;HEAD;-120.0
STATUS;CYCLETIME;3000;I2CERR;0;PRESENT;23;MODE;2
RAW_IMU;AX;-60.0;AY;-28.0;AZ;249.0;GX;7.0;GY;2.0;GZ;0.0;MAGX;102.0;MAGY;-79.0;MAGZ;10.0
MOT;0;1000.0;1;1000.0;2;1000.0;3;1000.0;4;0.0;5;0.0;6;0.0;7;0.0;
RC;ROLL;1494.0;PITCH;1502.0;YAW;1516.0;THROTTLE;1060.0;AUX1;1533.0;AUX2;1500.0;AUX3;1500.0;AUX4;1500.0
ALTITUDE;47.0
DEBUG;DEBUG10.0;DEBUG2;0.0;DEBUG3;47.0;DEBUG4;0.0
ATTITUDE;ANGX;-27.0;ANGY;-5.0;HEAD;-120.0
STATUS;CYCLETIME;2916;I2CERR;0;PRESENT;23;MODE;2
RAW_IMU;AX;-58.0;AY;-26.0;AZ;245.0;GX;14.0;GY;0.0;GZ;1.0;MAGX;102.0;MAGY;-79.0;MAGZ;7.0
MOT;0;1000.0;1;1000.0;2;1000.0;3;1000.0;4;0.0;5;0.0;6;0.0;7;0.0;
RC;ROLL;1494.0;PITCH;1502.0;YAW;1516.0;THROTTLE;1063.0;AUX1;1533.0;AUX2;1500.0;AUX3;1500.0;AUX4;1500.0
ALTITUDE;48.0
DEBUG;DEBUG10.0;DEBUG2;0.0;DEBUG3;48.0;DEBUG4;0.0
ATTITUDE;ANGX;-25.0;ANGY;-5.0;HEAD;-120.0
STATUS;CYCLETIME;2872;I2CERR;0;PRESENT;23;MODE;2
RAW_IMU;AX;-53.0;AY;-29.0;AZ;240.0;GX;18.0;GY;-1.0;GZ;0.0;MAGX;102.0;MAGY;-79.0;MAGZ;7.0
MOT;0;1000.0;1;1000.0;2;1000.0;3;1000.0;4;0.0;5;0.0;6;0.0;7;0.0;
RC;ROLL;1494.0;PITCH;1502.0;YAW;1513.0;THROTTLE;1063.0;AUX1;1533.0;AUX2;1500.0;AUX3;1500.0;AUX4;1500.0
ALTITUDE;48.0
DEBUG;DEBUG10.0;DEBUG2;0.0;DEBUG3;48.0;DEBUG4;0.0
ATTITUDE;ANGX;-23.0;ANGY;-6.0;HEAD;-120.0
STATUS;CYCLETIME;2880;I2CERR;0;PRESENT;23;MODE;2
RAW_IMU;AX;-47.0;AY;-30.0;AZ;241.0;GX;16.0;GY;0.0;GZ;-1.0;MAGX;103.0;MAGY;-78.0;MAGZ;21.0
MOT;0;1000.0;1;1000.0;2;1000.0;3;1000.0;4;0.0;5;0.0;6;0.0;7;0.0;
RC;ROLL;1494.0;PITCH;1502.0;YAW;1513.0;THROTTLE;1063.0;AUX1;1533.0;AUX2;1500.0;AUX3;1500.0;AUX4;1500.0
ALTITUDE;48.0
DEBUG;DEBUG10.0;DEBUG2;0.0;DEBUG3;48.0;DEBUG4;0.0
ATTITUDE;ANGX;-21.0;ANGY;-6.0;HEAD;-120.0
STATUS;CYCLETIME;2876;I2CERR;0;PRESENT;23;MODE;2
RAW_IMU;AX;-48.0;AY;-31.0;AZ;244.0;GX;12.0;GY;4.0;GZ;-1.0;MAGX;103.0;MAGY;-78.0;MAGZ;21.0
MOT;0;1000.0;1;1000.0;2;1000.0;3;1000.0;4;0.0;5;0.0;6;0.0;7;0.0;
RC;ROLL;1494.0;PITCH;1502.0;YAW;1513.0;THROTTLE;1063.0;AUX1;1537.0;AUX2;1500.0;AUX3;1500.0;AUX4;1500.0
ALTITUDE;48.0
DEBUG;DEBUG10.0;DEBUG2;0.0;DEBUG3;48.0;DEBUG4;0.0
ATTITUDE;ANGX;-19.0;ANGY;-5.0;HEAD;-119.0
STATUS;CYCLETIME;2896;I2CERR;0;PRESENT;23;MODE;2
RAW_IMU;AX;-45.0;AY;-29.0;AZ;248.0;GX;5.0;GY;5.0;GZ;0.0;MAGX;99.0;MAGY;-79.0;MAGZ;32.0
MOT;0;1000.0;1;1000.0;2;1000.0;3;1000.0;4;0.0;5;0.0;6;0.0;7;0.0;
RC;ROLL;1494.0;PITCH;1502.0;YAW;1513.0;THROTTLE;1063.0;AUX1;1537.0;AUX2;1500.0;AUX3;1500.0;AUX4;1500.0
ALTITUDE;48.0
DEBUG;DEBUG10.0;DEBUG2;0.0;DEBUG3;48.0;DEBUG4;0.0
ATTITUDE;ANGX;-18.0;ANGY;-5.0;HEAD;-119.0
STATUS;CYCLETIME;2940;I2CERR;0;PRESENT;23;MODE;2
RAW_IMU;AX;-45.0;AY;-23.0;AZ;256.0;GX;-1.0;GY;3.0;GZ;0.0;MAGX;99.0;MAGY;-79.0;MAGZ;32.0
MOT;0;1000.0;1;1000.0;2;1000.0;3;1000.0;4;0.0;5;0.0;6;0.0;7;0.0;
RC;ROLL;1494.0;PITCH;1502.0;YAW;1513.0;THROTTLE;1063.0;AUX1;1537.0;AUX2;1500.0;AUX3;1500.0;AUX4;1500.0
ALTITUDE;48.0
DEBUG;DEBUG10.0;DEBUG2;0.0;DEBUG3;48.0;DEBUG4;0.0
ATTITUDE;ANGX;-18.0;ANGY;-4.0;HEAD;-119.0
STATUS;CYCLETIME;2856;I2CERR;0;PRESENT;23;MODE;2
RAW_IMU;AX;-48.0;AY;-20.0;AZ;264.0;GX;-6.0;GY;2.0;GZ;0.0;MAGX;99.0;MAGY;-81.0;MAGZ;33.0
MOT;0;1000.0;1;1000.0;2;1000.0;3;1000.0;4;0.0;5;0.0;6;0.0;7;0.0;
RC;ROLL;1494.0;PITCH;1502.0;YAW;1513.0;THROTTLE;1063.0;AUX1;1537.0;AUX2;1500.0;AUX3;1500.0;AUX4;1500.0
ALTITUDE;48.0
DEBUG;DEBUG10.0;DEBUG2;0.0;DEBUG3;48.0;DEBUG4;0.0
ATTITUDE;ANGX;-18.0;ANGY;-4.0;HEAD;-118.0
STATUS;CYCLETIME;2980;I2CERR;0;PRESENT;23;MODE;2
RAW_IMU;AX;-51.0;AY;-20.0;AZ;269.0;GX;-9.0;GY;-1.0;GZ;0.0;MAGX;99.0;MAGY;-81.0;MAGZ;33.0
MOT;0;1000.0;1;1000.0;2;1000.0;3;1000.0;4;0.0;5;0.0;6;0.0;7;0.0;
RC;ROLL;1494.0;PITCH;1502.0;YAW;1515.0;THROTTLE;1063.0;AUX1;1535.0;AUX2;1500.0;AUX3;1500.0;AUX4;1500.0
ALTITUDE;48.0
DEBUG;DEBUG10.0;DEBUG2;0.0;DEBUG3;48.0;DEBUG4;0.0
ATTITUDE;ANGX;-19.0;ANGY;-4.0;HEAD;-118.0
STATUS;CYCLETIME;3160;I2CERR;0;PRESENT;23;MODE;2
RAW_IMU;AX;-55.0;AY;-23.0;AZ;269.0;GX;-10.0;GY;-1.0;GZ;1.0;MAGX;99.0;MAGY;-79.0;MAGZ;29.0
MOT;0;1000.0;1;1000.0;2;1000.0;3;1000.0;4;0.0;5;0.0;6;0.0;7;0.0;
RC;ROLL;1494.0;PITCH;1502.0;YAW;1515.0;THROTTLE;1063.0;AUX1;1535.0;AUX2;1500.0;AUX3;1500.0;AUX4;1500.0
ALTITUDE;48.0
DEBUG;DEBUG10.0;DEBUG2;0.0;DEBUG3;48.0;DEBUG4;0.0
ATTITUDE;ANGX;-20.0;ANGY;-4.0;HEAD;-118.0
STATUS;CYCLETIME;2928;I2CERR;0;PRESENT;23;MODE;2
RAW_IMU;AX;-54.0;AY;-25.0;AZ;263.0;GX;-10.0;GY;-3.0;GZ;1.0;MAGX;99.0;MAGY;-79.0;MAGZ;29.0
MOT;0;1000.0;1;1000.0;2;1000.0;3;1000.0;4;0.0;5;0.0;6;0.0;7;0.0;
RC;ROLL;1494.0;PITCH;1502.0;YAW;1515.0;THROTTLE;1063.0;AUX1;1535.0;AUX2;1500.0;AUX3;1500.0;AUX4;1500.0
ALTITUDE;48.0
DEBUG;DEBUG10.0;DEBUG2;0.0;DEBUG3;48.0;DEBUG4;0.0
ATTITUDE;ANGX;-20.0;ANGY;-5.0;HEAD;-118.0
STATUS;CYCLETIME;2884;I2CERR;0;PRESENT;23;MODE;2
RAW_IMU;AX;-54.0;AY;-28.0;AZ;257.0;GX;-7.0;GY;-3.0;GZ;0.0;MAGX;99.0;MAGY;-79.0;MAGZ;29.0
MOT;0;1000.0;1;1000.0;2;1000.0;3;1000.0;4;0.0;5;0.0;6;0.0;7;0.0;
RC;ROLL;1494.0;PITCH;1502.0;YAW;1515.0;THROTTLE;1063.0;AUX1;1532.0;AUX2;1500.0;AUX3;1500.0;AUX4;1500.0
ALTITUDE;48.0
DEBUG;DEBUG10.0;DEBUG2;0.0;DEBUG3;48.0;DEBUG4;0.0
ATTITUDE;ANGX;-21.0;ANGY;-5.0;HEAD;-118.0
STATUS;CYCLETIME;2884;I2CERR;0;PRESENT;23;MODE;2
RAW_IMU;AX;-54.0;AY;-31.0;AZ;246.0;GX;-4.0;GY;0.0;GZ;0.0;MAGX;103.0;MAGY;-80.0;MAGZ;23.0
MOT;0;1000.0;1;1000.0;2;1000.0;3;1000.0;4;0.0;5;0.0;6;0.0;7;0.0;
RC;ROLL;1494.0;PITCH;1502.0;YAW;1515.0;THROTTLE;1063.0;AUX1;1532.0;AUX2;1500.0;AUX3;1500.0;AUX4;1500.0
ALTITUDE;48.0
DEBUG;DEBUG10.0;DEBUG2;0.0;DEBUG3;48.0;DEBUG4;0.0
ATTITUDE;ANGX;-22.0;ANGY;-5.0;HEAD;-118.0
STATUS;CYCLETIME;2876;I2CERR;0;PRESENT;23;MODE;2
RAW_IMU;AX;-50.0;AY;-36.0;AZ;241.0;GX;-2.0;GY;0.0;GZ;0.0;MAGX;103.0;MAGY;-80.0;MAGZ;23.0
MOT;0;1000.0;1;1000.0;2;1000.0;3;1000.0;4;0.0;5;0.0;6;0.0;7;0.0;
RC;ROLL;1494.0;PITCH;1502.0;YAW;1515.0;THROTTLE;1063.0;AUX1;1532.0;AUX2;1500.0;AUX3;1500.0;AUX4;1500.0
ALTITUDE;48.0
DEBUG;DEBUG10.0;DEBUG2;0.0;DEBUG3;48.0;DEBUG4;0.0
ATTITUDE;ANGX;-22.0;ANGY;-5.0;HEAD;-118.0
STATUS;CYCLETIME;2896;I2CERR;0;PRESENT;23;MODE;2
RAW_IMU;AX;-53.0;AY;-37.0;AZ;237.0;GX;-1.0;GY;0.0;GZ;1.0;MAGX;103.0;MAGY;-79.0;MAGZ;23.0
MOT;0;1000.0;1;1000.0;2;1000.0;3;1000.0;4;0.0;5;0.0;6;0.0;7;0.0;
RC;ROLL;1494.0;PITCH;1502.0;YAW;1515.0;THROTTLE;1063.0;AUX1;1532.0;AUX2;1500.0;AUX3;1500.0;AUX4;1500.0
ALTITUDE;48.0
DEBUG;DEBUG10.0;DEBUG2;0.0;DEBUG3;48.0;DEBUG4;0.0
ATTITUDE;ANGX;-22.0;ANGY;-5.0;HEAD;-118.0
STATUS;CYCLETIME;2900;I2CERR;0;PRESENT;23;MODE;2
RAW_IMU;AX;-50.0;AY;-35.0;AZ;233.0;GX;-2.0;GY;2.0;GZ;1.0;MAGX;103.0;MAGY;-79.0;MAGZ;23.0
MOT;0;1000.0;1;1000.0;2;1000.0;3;1000.0;4;0.0;5;0.0;6;0.0;7;0.0;
RC;ROLL;1496.0;PITCH;1502.0;YAW;1515.0;THROTTLE;1063.0;AUX1;1532.0;AUX2;1500.0;AUX3;1500.0;AUX4;1500.0
ALTITUDE;49.0
DEBUG;DEBUG10.0;DEBUG2;0.0;DEBUG3;49.0;DEBUG4;0.0
ATTITUDE;ANGX;-21.0;ANGY;-5.0;HEAD;-117.0
STATUS;CYCLETIME;2976;I2CERR;0;PRESENT;23;MODE;2
RAW_IMU;AX;-47.0;AY;-30.0;AZ;240.0;GX;-3.0;GY;3.0;GZ;1.0;MAGX;103.0;MAGY;-78.0;MAGZ;23.0
MOT;0;1000.0;1;1000.0;2;1000.0;3;1000.0;4;0.0;5;0.0;6;0.0;7;0.0;
RC;ROLL;1493.0;PITCH;1502.0;YAW;1515.0;THROTTLE;1063.0;AUX1;1534.0;AUX2;1500.0;AUX3;1500.0;AUX4;1500.0
ALTITUDE;49.0
DEBUG;DEBUG10.0;DEBUG2;0.0;DEBUG3;49.0;DEBUG4;0.0
ATTITUDE;ANGX;-22.0;ANGY;-5.0;HEAD;-117.0
STATUS;CYCLETIME;2876;I2CERR;0;PRESENT;23;MODE;2
RAW_IMU;AX;-48.0;AY;-28.0;AZ;245.0;GX;-5.0;GY;3.0;GZ;1.0;MAGX;103.0;MAGY;-78.0;MAGZ;23.0
MOT;0;1000.0;1;1000.0;2;1000.0;3;1000.0;4;0.0;5;0.0;6;0.0;7;0.0;
RC;ROLL;1493.0;PITCH;1502.0;YAW;1515.0;THROTTLE;1063.0;AUX1;1534.0;AUX2;1500.0;AUX3;1500.0;AUX4;1500.0
ALTITUDE;49.0
DEBUG;DEBUG10.0;DEBUG2;0.0;DEBUG3;49.0;DEBUG4;0.0
ATTITUDE;ANGX;-22.0;ANGY;-5.0;HEAD;-117.0
STATUS;CYCLETIME;2880;I2CERR;0;PRESENT;23;MODE;2
RAW_IMU;AX;-51.0;AY;-24.0;AZ;252.0;GX;-7.0;GY;2.0;GZ;1.0;MAGX;101.0;MAGY;-79.0;MAGZ;20.0
MOT;0;1000.0;1;1000.0;2;1000.0;3;1000.0;4;0.0;5;0.0;6;0.0;7;0.0;
RC;ROLL;1493.0;PITCH;1502.0;YAW;1515.0;THROTTLE;1063.0;AUX1;1534.0;AUX2;1500.0;AUX3;1500.0;AUX4;1500.0
ALTITUDE;49.0
DEBUG;DEBUG10.0;DEBUG2;0.0;DEBUG3;49.0;DEBUG4;0.0
ATTITUDE;ANGX;-22.0;ANGY;-5.0;HEAD;-117.0
STATUS;CYCLETIME;2916;I2CERR;0;PRESENT;23;MODE;2
RAW_IMU;AX;-53.0;AY;-23.0;AZ;254.0;GX;-6.0;GY;0.0;GZ;1.0;MAGX;101.0;MAGY;-79.0;MAGZ;20.0
MOT;0;1000.0;1;1000.0;2;1000.0;3;1000.0;4;0.0;5;0.0;6;0.0;7;0.0;
RC;ROLL;1493.0;PITCH;1502.0;YAW;1515.0;THROTTLE;1063.0;AUX1;1536.0;AUX2;1500.0;AUX3;1500.0;AUX4;1500.0
ALTITUDE;49.0
DEBUG;DEBUG10.0;DEBUG2;0.0;DEBUG3;49.0;DEBUG4;0.0
ATTITUDE;ANGX;-23.0;ANGY;-5.0;HEAD;-116.0
STATUS;CYCLETIME;2944;I2CERR;0;PRESENT;23;MODE;2
RAW_IMU;AX;-53.0;AY;-24.0;AZ;255.0;GX;-3.0;GY;-2.0;GZ;0.0;MAGX;102.0;MAGY;-79.0;MAGZ;19.0
MOT;0;1000.0;1;1000.0;2;1000.0;3;1000.0;4;0.0;5;0.0;6;0.0;7;0.0;
RC;ROLL;1493.0;PITCH;1502.0;YAW;1515.0;THROTTLE;1063.0;AUX1;1536.0;AUX2;1500.0;AUX3;1500.0;AUX4;1500.0
ALTITUDE;49.0
DEBUG;DEBUG10.0;DEBUG2;0.0;DEBUG3;49.0;DEBUG4;0.0
ATTITUDE;ANGX;-23.0;ANGY;-5.0;HEAD;-116.0
STATUS;CYCLETIME;2880;I2CERR;0;PRESENT;23;MODE;2
RAW_IMU;AX;-54.0;AY;-31.0;AZ;254.0;GX;2.0;GY;-1.0;GZ;0.0;MAGX;102.0;MAGY;-79.0;MAGZ;19.0
MOT;0;1000.0;1;1000.0;2;1000.0;3;1000.0;4;0.0;5;0.0;6;0.0;7;0.0;
RC;ROLL;1493.0;PITCH;1502.0;YAW;1513.0;THROTTLE;1063.0;AUX1;1536.0;AUX2;1500.0;AUX3;1500.0;AUX4;1500.0
ALTITUDE;49.0
DEBUG;DEBUG10.0;DEBUG2;0.0;DEBUG3;49.0;DEBUG4;0.0
ATTITUDE;ANGX;-23.0;ANGY;-5.0;HEAD;-117.0
STATUS;CYCLETIME;2880;I2CERR;0;PRESENT;23;MODE;2
RAW_IMU;AX;-54.0;AY;-29.0;AZ;244.0;GX;8.0;GY;3.0;GZ;0.0;MAGX;103.0;MAGY;-79.0;MAGZ;21.0
MOT;0;1000.0;1;1000.0;2;1000.0;3;1000.0;4;0.0;5;0.0;6;0.0;7;0.0;
RC;ROLL;1493.0;PITCH;1502.0;YAW;1513.0;THROTTLE;1063.0;AUX1;1536.0;AUX2;1500.0;AUX3;1500.0;AUX4;1500.0
ALTITUDE;49.0
DEBUG;DEBUG10.0;DEBUG2;0.0;DEBUG3;49.0;DEBUG4;0.0
ATTITUDE;ANGX;-22.0;ANGY;-5.0;HEAD;-117.0
STATUS;CYCLETIME;2880;I2CERR;0;PRESENT;23;MODE;2
RAW_IMU;AX;-51.0;AY;-32.0;AZ;241.0;GX;14.0;GY;7.0;GZ;0.0;MAGX;103.0;MAGY;-79.0;MAGZ;21.0
MOT;0;1000.0;1;1000.0;2;1000.0;3;1000.0;4;0.0;5;0.0;6;0.0;7;0.0;
RC;ROLL;1496.0;PITCH;1502.0;YAW;1513.0;THROTTLE;1063.0;AUX1;1536.0;AUX2;1500.0;AUX3;1500.0;AUX4;1500.0
ALTITUDE;49.0
DEBUG;DEBUG10.0;DEBUG2;0.0;DEBUG3;49.0;DEBUG4;0.0
ATTITUDE;ANGX;-20.0;ANGY;-5.0;HEAD;-116.0
STATUS;CYCLETIME;2900;I2CERR;0;PRESENT;23;MODE;2
RAW_IMU;AX;-48.0;AY;-30.0;AZ;244.0;GX;16.0;GY;7.0;GZ;0.0;MAGX;103.0;MAGY;-79.0;MAGZ;21.0
MOT;0;1000.0;1;1000.0;2;1000.0;3;1000.0;4;0.0;5;0.0;6;0.0;7;0.0;
RC;ROLL;1496.0;PITCH;1502.0;YAW;1513.0;THROTTLE;1063.0;AUX1;1536.0;AUX2;1500.0;AUX3;1500.0;AUX4;1500.0
ALTITUDE;48.0
DEBUG;DEBUG10.0;DEBUG2;0.0;DEBUG3;48.0;DEBUG4;0.0
ATTITUDE;ANGX;-18.0;ANGY;-4.0;HEAD;-116.0
STATUS;CYCLETIME;2844;I2CERR;0;PRESENT;23;MODE;2
RAW_IMU;AX;-43.0;AY;-26.0;AZ;247.0;GX;13.0;GY;7.0;GZ;0.0;MAGX;102.0;MAGY;-80.0;MAGZ;26.0
MOT;0;1000.0;1;1000.0;2;1000.0;3;1000.0;4;0.0;5;0.0;6;0.0;7;0.0;
RC;ROLL;1494.0;PITCH;1502.0;YAW;1513.0;THROTTLE;1063.0;AUX1;1536.0;AUX2;1500.0;AUX3;1500.0;AUX4;1500.0
ALTITUDE;48.0
DEBUG;DEBUG10.0;DEBUG2;0.0;DEBUG3;48.0;DEBUG4;0.0
ATTITUDE;ANGX;-16.0;ANGY;-3.0;HEAD;-116.0
STATUS;CYCLETIME;2888;I2CERR;0;PRESENT;23;MODE;2
RAW_IMU;AX;-39.0;AY;-21.0;AZ;255.0;GX;3.0;GY;5.0;GZ;0.0;MAGX;102.0;MAGY;-80.0;MAGZ;26.0
MOT;0;1000.0;1;1000.0;2;1000.0;3;1000.0;4;0.0;5;0.0;6;0.0;7;0.0;
RC;ROLL;1494.0;PITCH;1502.0;YAW;1513.0;THROTTLE;1063.0;AUX1;1536.0;AUX2;1500.0;AUX3;1500.0;AUX4;1500.0
ALTITUDE;48.0
DEBUG;DEBUG10.0;DEBUG2;0.0;DEBUG3;48.0;DEBUG4;0.0
ATTITUDE;ANGX;-15.0;ANGY;-2.0;HEAD;-116.0
STATUS;CYCLETIME;2892;I2CERR;0;PRESENT;23;MODE;2
RAW_IMU;AX;-35.0;AY;-18.0;AZ;260.0;GX;-8.0;GY;4.0;GZ;1.0;MAGX;97.0;MAGY;-80.0;MAGZ;38.0
MOT;0;1000.0;1;1000.0;2;1000.0;3;1000.0;4;0.0;5;0.0;6;0.0;7;0.0;
RC;ROLL;1494.0;PITCH;1502.0;YAW;1513.0;THROTTLE;1063.0;AUX1;1536.0;AUX2;1500.0;AUX3;1500.0;AUX4;1500.0
ALTITUDE;48.0
DEBUG;DEBUG10.0;DEBUG2;0.0;DEBUG3;48.0;DEBUG4;0.0
ATTITUDE;ANGX;-15.0;ANGY;-2.0;HEAD;-115.0
STATUS;CYCLETIME;2888;I2CERR;0;PRESENT;23;MODE;2
RAW_IMU;AX;-36.0;AY;-18.0;AZ;265.0;GX;-18.0;GY;2.0;GZ;1.0;MAGX;97.0;MAGY;-80.0;MAGZ;38.0
MOT;0;1000.0;1;1000.0;2;1000.0;3;1000.0;4;0.0;5;0.0;6;0.0;7;0.0;
RC;ROLL;1494.0;PITCH;1502.0;YAW;1513.0;THROTTLE;1063.0;AUX1;1536.0;AUX2;1500.0;AUX3;1500.0;AUX4;1500.0
ALTITUDE;48.0
DEBUG;DEBUG10.0;DEBUG2;0.0;DEBUG3;48.0;DEBUG4;0.0
ATTITUDE;ANGX;-17.0;ANGY;-2.0;HEAD;-115.0
STATUS;CYCLETIME;3028;I2CERR;0;PRESENT;23;MODE;2
RAW_IMU;AX;-40.0;AY;-16.0;AZ;264.0;GX;-21.0;GY;0.0;GZ;2.0;MAGX;95.0;MAGY;-81.0;MAGZ;33.0
MOT;0;1000.0;1;1000.0;2;1000.0;3;1000.0;4;0.0;5;0.0;6;0.0;7;0.0;
RC;ROLL;1494.0;PITCH;1502.0;YAW;1510.0;THROTTLE;1063.0;AUX1;1536.0;AUX2;1500.0;AUX3;1500.0;AUX4;1500.0
ALTITUDE;47.0
DEBUG;DEBUG10.0;DEBUG2;0.0;DEBUG3;47.0;DEBUG4;0.0
ATTITUDE;ANGX;-19.0;ANGY;-2.0;HEAD;-115.0
STATUS;CYCLETIME;2888;I2CERR;0;PRESENT;23;MODE;2
RAW_IMU;AX;-48.0;AY;-15.0;AZ;266.0;GX;-17.0;GY;4.0;GZ;3.0;MAGX;95.0;MAGY;-81.0;MAGZ;33.0
MOT;0;1000.0;1;1000.0;2;1000.0;3;1000.0;4;0.0;5;0.0;6;0.0;7;0.0;
RC;ROLL;1494.0;PITCH;1502.0;YAW;1510.0;THROTTLE;1063.0;AUX1;1536.0;AUX2;1500.0;AUX3;1500.0;AUX4;1500.0
ALTITUDE;47.0
DEBUG;DEBUG10.0;DEBUG2;0.0;DEBUG3;47.0;DEBUG4;0.0
ATTITUDE;ANGX;-21.0;ANGY;-2.0;HEAD;-115.0
STATUS;CYCLETIME;2880;I2CERR;0;PRESENT;23;MODE;2
RAW_IMU;AX;-49.0;AY;-17.0;AZ;262.0;GX;-9.0;GY;5.0;GZ;3.0;MAGX;95.0;MAGY;-82.0;MAGZ;26.0
MOT;0;1000.0;1;1000.0;2;1000.0;3;1000.0;4;0.0;5;0.0;6;0.0;7;0.0;
RC;ROLL;1494.0;PITCH;1502.0;YAW;1510.0;THROTTLE;1063.0;AUX1;1536.0;AUX2;1500.0;AUX3;1500.0;AUX4;1500.0
ALTITUDE;47.0
DEBUG;DEBUG10.0;DEBUG2;0.0;DEBUG3;47.0;DEBUG4;0.0
ATTITUDE;ANGX;-22.0;ANGY;-1.0;HEAD;-115.0
STATUS;CYCLETIME;2892;I2CERR;0;PRESENT;23;MODE;2
RAW_IMU;AX;-50.0;AY;-21.0;AZ;258.0;GX;0.0;GY;3.0;GZ;2.0;MAGX;95.0;MAGY;-82.0;MAGZ;26.0
MOT;0;1000.0;1;1000.0;2;1000.0;3;1000.0;4;0.0;5;0.0;6;0.0;7;0.0;
RC;ROLL;1494.0;PITCH;1500.0;YAW;1514.0;THROTTLE;1063.0;AUX1;1536.0;AUX2;1500.0;AUX3;1500.0;AUX4;1500.0
ALTITUDE;47.0
DEBUG;DEBUG10.0;DEBUG2;0.0;DEBUG3;47.0;DEBUG4;0.0
ATTITUDE;ANGX;-22.0;ANGY;-1.0;HEAD;-115.0
STATUS;CYCLETIME;2904;I2CERR;0;PRESENT;23;MODE;2
RAW_IMU;AX;-47.0;AY;-21.0;AZ;251.0;GX;7.0;GY;2.0;GZ;1.0;MAGX;93.0;MAGY;-82.0;MAGZ;22.0
MOT;0;1000.0;1;1000.0;2;1000.0;3;1000.0;4;0.0;5;0.0;6;0.0;7;0.0;
RC;ROLL;1494.0;PITCH;1500.0;YAW;1514.0;THROTTLE;1063.0;AUX1;1536.0;AUX2;1500.0;AUX3;1500.0;AUX4;1500.0
ALTITUDE;47.0
DEBUG;DEBUG10.0;DEBUG2;0.0;DEBUG3;47.0;DEBUG4;0.0
ATTITUDE;ANGX;-20.0;ANGY;-1.0;HEAD;-115.0
STATUS;CYCLETIME;2932;I2CERR;0;PRESENT;23;MODE;2
RAW_IMU;AX;-42.0;AY;-21.0;AZ;245.0;GX;11.0;GY;2.0;GZ;0.0;MAGX;93.0;MAGY;-82.0;MAGZ;22.0
MOT;0;1000.0;1;1000.0;2;1000.0;3;1000.0;4;0.0;5;0.0;6;0.0;7;0.0;
RC;ROLL;1494.0;PITCH;1500.0;YAW;1514.0;THROTTLE;1063.0;AUX1;1536.0;AUX2;1500.0;AUX3;1500.0;AUX4;1500.0
ALTITUDE;47.0
DEBUG;DEBUG10.0;DEBUG2;0.0;DEBUG3;47.0;DEBUG4;0.0
ATTITUDE;ANGX;-19.0;ANGY;-1.0;HEAD;-115.0
STATUS;CYCLETIME;2876;I2CERR;0;PRESENT;23;MODE;2
RAW_IMU;AX;-39.0;AY;-19.0;AZ;239.0;GX;10.0;GY;5.0;GZ;1.0;MAGX;90.0;MAGY;-81.0;MAGZ;32.0
MOT;0;1000.0;1;1000.0;2;1000.0;3;1000.0;4;0.0;5;0.0;6;0.0;7;0.0;
RC;ROLL;1494.0;PITCH;1500.0;YAW;1514.0;THROTTLE;1063.0;AUX1;1536.0;AUX2;1500.0;AUX3;1500.0;AUX4;1500.0
ALTITUDE;47.0
DEBUG;DEBUG10.0;DEBUG2;0.0;DEBUG3;47.0;DEBUG4;0.0
ATTITUDE;ANGX;-17.0;ANGY;0.0;HEAD;-115.0
STATUS;CYCLETIME;2888;I2CERR;0;PRESENT;23;MODE;2
RAW_IMU;AX;-36.0;AY;-19.0;AZ;239.0;GX;5.0;GY;6.0;GZ;1.0;MAGX;90.0;MAGY;-81.0;MAGZ;32.0
MOT;0;1000.0;1;1000.0;2;1000.0;3;1000.0;4;0.0;5;0.0;6;0.0;7;0.0;
RC;ROLL;1494.0;PITCH;1500.0;YAW;1514.0;THROTTLE;1063.0;AUX1;1536.0;AUX2;1500.0;AUX3;1500.0;AUX4;1500.0
ALTITUDE;47.0
DEBUG;DEBUG10.0;DEBUG2;0.0;DEBUG3;47.0;DEBUG4;0.0
ATTITUDE;ANGX;-16.0;ANGY;0.0;HEAD;-115.0
STATUS;CYCLETIME;2908;I2CERR;0;PRESENT;23;MODE;2
RAW_IMU;AX;-32.0;AY;-16.0;AZ;242.0;GX;0.0;GY;6.0;GZ;0.0;MAGX;90.0;MAGY;-81.0;MAGZ;32.0
MOT;0;1000.0;1;1000.0;2;1000.0;3;1000.0;4;0.0;5;0.0;6;0.0;7;0.0;
RC;ROLL;1494.0;PITCH;1502.0;YAW;1511.0;THROTTLE;1063.0;AUX1;1536.0;AUX2;1500.0;AUX3;1500.0;AUX4;1500.0
ALTITUDE;47.0
DEBUG;DEBUG10.0;DEBUG2;0.0;DEBUG3;47.0;DEBUG4;0.0
ATTITUDE;ANGX;-16.0;ANGY;0.0;HEAD;-115.0
STATUS;CYCLETIME;2924;I2CERR;0;PRESENT;23;MODE;2
RAW_IMU;AX;-37.0;AY;-11.0;AZ;247.0;GX;-7.0;GY;3.0;GZ;3.0;MAGX;90.0;MAGY;-81.0;MAGZ;36.0
MOT;0;1000.0;1;1000.0;2;1000.0;3;1000.0;4;0.0;5;0.0;6;0.0;7;0.0;
RC;ROLL;1494.0;PITCH;1502.0;YAW;1511.0;THROTTLE;1063.0;AUX1;1536.0;AUX2;1500.0;AUX3;1500.0;AUX4;1500.0
ALTITUDE;47.0
DEBUG;DEBUG10.0;DEBUG2;0.0;DEBUG3;47.0;DEBUG4;0.0
ATTITUDE;ANGX;-16.0;ANGY;0.0;HEAD;-115.0
STATUS;CYCLETIME;2880;I2CERR;0;PRESENT;23;MODE;2
RAW_IMU;AX;-39.0;AY;-11.0;AZ;256.0;GX;-9.0;GY;2.0;GZ;2.0;MAGX;90.0;MAGY;-81.0;MAGZ;36.0
MOT;0;1000.0;1;1000.0;2;1000.0;3;1000.0;4;0.0;5;0.0;6;0.0;7;0.0;
RC;ROLL;1494.0;PITCH;1502.0;YAW;1515.0;THROTTLE;1063.0;AUX1;1536.0;AUX2;1500.0;AUX3;1500.0;AUX4;1500.0
ALTITUDE;47.0
DEBUG;DEBUG10.0;DEBUG2;0.0;DEBUG3;47.0;DEBUG4;0.0
ATTITUDE;ANGX;-17.0;ANGY;0.0;HEAD;-115.0
STATUS;CYCLETIME;2980;I2CERR;0;PRESENT;23;MODE;2
RAW_IMU;AX;-42.0;AY;-6.0;AZ;263.0;GX;-8.0;GY;3.0;GZ;1.0;MAGX;86.0;MAGY;-83.0;MAGZ;34.0
MOT;0;1000.0;1;1000.0;2;1000.0;3;1000.0;4;0.0;5;0.0;6;0.0;7;0.0;
RC;ROLL;1494.0;PITCH;1502.0;YAW;1517.0;THROTTLE;1063.0;AUX1;1536.0;AUX2;1500.0;AUX3;1500.0;AUX4;1500.0
ALTITUDE;47.0
DEBUG;DEBUG10.0;DEBUG2;0.0;DEBUG3;47.0;DEBUG4;0.0
ATTITUDE;ANGX;-18.0;ANGY;0.0;HEAD;-115.0
STATUS;CYCLETIME;2856;I2CERR;0;PRESENT;23;MODE;2
RAW_IMU;AX;-46.0;AY;-6.0;AZ;267.0;GX;-1.0;GY;0.0;GZ;0.0;MAGX;86.0;MAGY;-83.0;MAGZ;34.0
MOT;0;1000.0;1;1000.0;2;1000.0;3;1000.0;4;0.0;5;0.0;6;0.0;7;0.0;
RC;ROLL;1494.0;PITCH;1502.0;YAW;1515.0;THROTTLE;1063.0;AUX1;1536.0;AUX2;1500.0;AUX3;1500.0;AUX4;1500.0
ALTITUDE;47.0
DEBUG;DEBUG10.0;DEBUG2;0.0;DEBUG3;47.0;DEBUG4;0.0
ATTITUDE;ANGX;-18.0;ANGY;0.0;HEAD;-115.0
STATUS;CYCLETIME;2896;I2CERR;0;PRESENT;23;MODE;2
RAW_IMU;AX;-44.0;AY;-10.0;AZ;258.0;GX;7.0;GY;-2.0;GZ;-2.0;MAGX;87.0;MAGY;-82.0;MAGZ;32.0
MOT;0;1000.0;1;1000.0;2;1000.0;3;1000.0;4;0.0;5;0.0;6;0.0;7;0.0;
RC;ROLL;1497.0;PITCH;1502.0;YAW;1515.0;THROTTLE;1063.0;AUX1;1536.0;AUX2;1500.0;AUX3;1500.0;AUX4;1500.0
ALTITUDE;47.0
DEBUG;DEBUG10.0;DEBUG2;0.0;DEBUG3;47.0;DEBUG4;0.0
ATTITUDE;ANGX;-17.0;ANGY;0.0;HEAD;-116.0
STATUS;CYCLETIME;2920;I2CERR;0;PRESENT;23;MODE;2
RAW_IMU;AX;-46.0;AY;-17.0;AZ;254.0;GX;16.0;GY;-3.0;GZ;-1.0;MAGX;87.0;MAGY;-82.0;MAGZ;32.0
MOT;0;1000.0;1;1000.0;2;1000.0;3;1000.0;4;0.0;5;0.0;6;0.0;7;0.0;
RC;ROLL;1497.0;PITCH;1500.0;YAW;1515.0;THROTTLE;1063.0;AUX1;1536.0;AUX2;1500.0;AUX3;1500.0;AUX4;1500.0
ALTITUDE;47.0
DEBUG;DEBUG10.0;DEBUG2;0.0;DEBUG3;47.0;DEBUG4;0.0
ATTITUDE;ANGX;-15.0;ANGY;0.0;HEAD;-116.0
STATUS;CYCLETIME;2904;I2CERR;0;PRESENT;23;MODE;2
RAW_IMU;AX;-42.0;AY;-16.0;AZ;245.0;GX;18.0;GY;-4.0;GZ;2.0;MAGX;88.0;MAGY;-83.0;MAGZ;37.0
MOT;0;1000.0;1;1000.0;2;1000.0;3;1000.0;4;0.0;5;0.0;6;0.0;7;0.0;
RC;ROLL;1497.0;PITCH;1500.0;YAW;1515.0;THROTTLE;1063.0;AUX1;1536.0;AUX2;1500.0;AUX3;1500.0;AUX4;1500.0
ALTITUDE;47.0
DEBUG;DEBUG10.0;DEBUG2;0.0;DEBUG3;47.0;DEBUG4;0.0
ATTITUDE;ANGX;-13.0;ANGY;0.0;HEAD;-117.0
STATUS;CYCLETIME;3000;I2CERR;0;PRESENT;23;MODE;2
RAW_IMU;AX;-38.0;AY;-18.0;AZ;251.0;GX;13.0;GY;0.0;GZ;3.0;MAGX;88.0;MAGY;-83.0;MAGZ;37.0
MOT;0;1000.0;1;1000.0;2;1000.0;3;1000.0;4;0.0;5;0.0;6;0.0;7;0.0;
RC;ROLL;1497.0;PITCH;1500.0;YAW;1513.0;THROTTLE;1063.0;AUX1;1536.0;AUX2;1500.0;AUX3;1500.0;AUX4;1500.0
ALTITUDE;47.0
DEBUG;DEBUG10.0;DEBUG2;0.0;DEBUG3;47.0;DEBUG4;0.0
ATTITUDE;ANGX;-11.0;ANGY;0.0;HEAD;-116.0
STATUS;CYCLETIME;2884;I2CERR;0;PRESENT;23;MODE;2
RAW_IMU;AX;-26.0;AY;-18.0;AZ;249.0;GX;2.0;GY;-1.0;GZ;0.0;MAGX;90.0;MAGY;-81.0;MAGZ;50.0
MOT;0;1000.0;1;1000.0;2;1000.0;3;1000.0;4;0.0;5;0.0;6;0.0;7;0.0;
RC;ROLL;1497.0;PITCH;1500.0;YAW;1515.0;THROTTLE;1063.0;AUX1;1536.0;AUX2;1500.0;AUX3;1500.0;AUX4;1500.0
ALTITUDE;47.0
DEBUG;DEBUG10.0;DEBUG2;0.0;DEBUG3;47.0;DEBUG4;0.0
ATTITUDE;ANGX;-10.0;ANGY;0.0;HEAD;-116.0
STATUS;CYCLETIME;2932;I2CERR;0;PRESENT;23;MODE;2
RAW_IMU;AX;-25.0;AY;-24.0;AZ;240.0;GX;-6.0;GY;-6.0;GZ;-2.0;MAGX;90.0;MAGY;-81.0;MAGZ;50.0
MOT;0;1000.0;1;1000.0;2;1000.0;3;1000.0;4;0.0;5;0.0;6;0.0;7;0.0;
RC;ROLL;1495.0;PITCH;1500.0;YAW;1515.0;THROTTLE;1063.0;AUX1;1536.0;AUX2;1500.0;AUX3;1500.0;AUX4;1500.0
ALTITUDE;47.0
DEBUG;DEBUG10.0;DEBUG2;0.0;DEBUG3;47.0;DEBUG4;0.0
ATTITUDE;ANGX;-11.0;ANGY;-1.0;HEAD;-117.0
STATUS;CYCLETIME;2992;I2CERR;0;PRESENT;23;MODE;2
RAW_IMU;AX;-33.0;AY;-23.0;AZ;236.0;GX;-12.0;GY;-5.0;GZ;-1.0;MAGX;95.0;MAGY;-79.0;MAGZ;48.0
MOT;0;1000.0;1;1000.0;2;1000.0;3;1000.0;4;0.0;5;0.0;6;0.0;7;0.0;
RC;ROLL;1495.0;PITCH;1500.0;YAW;1515.0;THROTTLE;1063.0;AUX1;1536.0;AUX2;1500.0;AUX3;1500.0;AUX4;1500.0
ALTITUDE;47.0
DEBUG;DEBUG10.0;DEBUG2;0.0;DEBUG3;47.0;DEBUG4;0.0
ATTITUDE;ANGX;-12.0;ANGY;-2.0;HEAD;-117.0
STATUS;CYCLETIME;2896;I2CERR;0;PRESENT;23;MODE;2
RAW_IMU;AX;-39.0;AY;-21.0;AZ;242.0;GX;-13.0;GY;4.0;GZ;4.0;MAGX;95.0;MAGY;-79.0;MAGZ;48.0
MOT;0;1000.0;1;1000.0;2;1000.0;3;1000.0;4;0.0;5;0.0;6;0.0;7;0.0;
RC;ROLL;1495.0;PITCH;1500.0;YAW;1515.0;THROTTLE;1063.0;AUX1;1536.0;AUX2;1500.0;AUX3;1500.0;AUX4;1500.0
ALTITUDE;47.0
DEBUG;DEBUG10.0;DEBUG2;0.0;DEBUG3;47.0;DEBUG4;0.0
ATTITUDE;ANGX;-13.0;ANGY;-2.0;HEAD;-117.0
STATUS;CYCLETIME;2904;I2CERR;0;PRESENT;23;MODE;2
RAW_IMU;AX;-39.0;AY;-20.0;AZ;256.0;GX;-12.0;GY;12.0;GZ;6.0;MAGX;95.0;MAGY;-79.0;MAGZ;48.0
MOT;0;1000.0;1;1000.0;2;1000.0;3;1000.0;4;0.0;5;0.0;6;0.0;7;0.0;
RC;ROLL;1493.0;PITCH;1500.0;YAW;1515.0;THROTTLE;1063.0;AUX1;1536.0;AUX2;1500.0;AUX3;1500.0;AUX4;1500.0
ALTITUDE;47.0
DEBUG;DEBUG10.0;DEBUG2;0.0;DEBUG3;47.0;DEBUG4;0.0
ATTITUDE;ANGX;-15.0;ANGY;-1.0;HEAD;-116.0
STATUS;CYCLETIME;2888;I2CERR;0;PRESENT;23;MODE;2
RAW_IMU;AX;-38.0;AY;-14.0;AZ;270.0;GX;-8.0;GY;12.0;GZ;0.0;MAGX;94.0;MAGY;-81.0;MAGZ;45.0
MOT;0;1000.0;1;1000.0;2;1000.0;3;1000.0;4;0.0;5;0.0;6;0.0;7;0.0;
RC;ROLL;1495.0;PITCH;1500.0;YAW;1515.0;THROTTLE;1063.0;AUX1;1536.0;AUX2;1500.0;AUX3;1500.0;AUX4;1500.0
ALTITUDE;47.0
DEBUG;DEBUG10.0;DEBUG2;0.0;DEBUG3;47.0;DEBUG4;0.0
ATTITUDE;ANGX;-15.0;ANGY;0.0;HEAD;-115.0
STATUS;CYCLETIME;2836;I2CERR;0;PRESENT;23;MODE;2
RAW_IMU;AX;-39.0;AY;-11.0;AZ;280.0;GX;-4.0;GY;1.0;GZ;-5.0;MAGX;94.0;MAGY;-81.0;MAGZ;45.0
MOT;0;1000.0;1;1000.0;2;1000.0;3;1000.0;4;0.0;5;0.0;6;0.0;7;0.0;
RC;ROLL;1495.0;PITCH;1500.0;YAW;1515.0;THROTTLE;1063.0;AUX1;1536.0;AUX2;1500.0;AUX3;1500.0;AUX4;1500.0
ALTITUDE;47.0
DEBUG;DEBUG10.0;DEBUG2;0.0;DEBUG3;47.0;DEBUG4;0.0
ATTITUDE;ANGX;-16.0;ANGY;0.0;HEAD;-116.0
STATUS;CYCLETIME;2796;I2CERR;0;PRESENT;23;MODE;2
RAW_IMU;AX;-41.0;AY;-10.0;AZ;271.0;GX;0.0;GY;-8.0;GZ;-4.0;MAGX;89.0;MAGY;-83.0;MAGZ;41.0
MOT;0;1000.0;1;1000.0;2;1000.0;3;1000.0;4;0.0;5;0.0;6;0.0;7;0.0;
RC;ROLL;1495.0;PITCH;1500.0;YAW;1515.0;THROTTLE;1063.0;AUX1;1536.0;AUX2;1500.0;AUX3;1500.0;AUX4;1500.0
ALTITUDE;47.0
DEBUG;DEBUG10.0;DEBUG2;0.0;DEBUG3;47.0;DEBUG4;0.0
ATTITUDE;ANGX;-16.0;ANGY;0.0;HEAD;-117.0
STATUS;CYCLETIME;2888;I2CERR;0;PRESENT;23;MODE;2
RAW_IMU;AX;-43.0;AY;-14.0;AZ;256.0;GX;2.0;GY;-16.0;GZ;0.0;MAGX;89.0;MAGY;-83.0;MAGZ;41.0
MOT;0;1000.0;1;1000.0;2;1000.0;3;1000.0;4;0.0;5;0.0;6;0.0;7;0.0;
RC;ROLL;1495.0;PITCH;1500.0;YAW;1515.0;THROTTLE;1063.0;AUX1;1534.0;AUX2;1500.0;AUX3;1500.0;AUX4;1500.0
ALTITUDE;47.0
DEBUG;DEBUG10.0;DEBUG2;0.0;DEBUG3;47.0;DEBUG4;0.0
ATTITUDE;ANGX;-15.0;ANGY;-1.0;HEAD;-118.0
STATUS;CYCLETIME;2888;I2CERR;0;PRESENT;23;MODE;2
RAW_IMU;AX;-38.0;AY;-18.0;AZ;244.0;GX;1.0;GY;-11.0;GZ;4.0;MAGX;96.0;MAGY;-80.0;MAGZ;41.0
MOT;0;1000.0;1;1000.0;2;1000.0;3;1000.0;4;0.0;5;0.0;6;0.0;7;0.0;
RC;ROLL;1495.0;PITCH;1497.0;YAW;1515.0;THROTTLE;1063.0;AUX1;1534.0;AUX2;1500.0;AUX3;1500.0;AUX4;1500.0
ALTITUDE;47.0
DEBUG;DEBUG10.0;DEBUG2;0.0;DEBUG3;47.0;DEBUG4;0.0
ATTITUDE;ANGX;-15.0;ANGY;-3.0;HEAD;-118.0
STATUS;CYCLETIME;2912;I2CERR;0;PRESENT;23;MODE;2
RAW_IMU;AX;-30.0;AY;-24.0;AZ;232.0;GX;-3.0;GY;-1.0;GZ;3.0;MAGX;96.0;MAGY;-80.0;MAGZ;41.0
MOT;0;1000.0;1;1000.0;2;1000.0;3;1000.0;4;0.0;5;0.0;6;0.0;7;0.0;
RC;ROLL;1495.0;PITCH;1497.0;YAW;1515.0;THROTTLE;1063.0;AUX1;1534.0;AUX2;1500.0;AUX3;1500.0;AUX4;1500.0
ALTITUDE;47.0
DEBUG;DEBUG10.0;DEBUG2;0.0;DEBUG3;47.0;DEBUG4;0.0
ATTITUDE;ANGX;-15.0;ANGY;-3.0;HEAD;-117.0
STATUS;CYCLETIME;2896;I2CERR;0;PRESENT;23;MODE;2
RAW_IMU;AX;-27.0;AY;-24.0;AZ;228.0;GX;-9.0;GY;4.0;GZ;0.0;MAGX;99.0;MAGY;-80.0;MAGZ;43.0
MOT;0;1000.0;1;1000.0;2;1000.0;3;1000.0;4;0.0;5;0.0;6;0.0;7;0.0;
RC;ROLL;1495.0;PITCH;1497.0;YAW;1515.0;THROTTLE;1063.0;AUX1;1536.0;AUX2;1500.0;AUX3;1500.0;AUX4;1500.0
ALTITUDE;47.0
DEBUG;DEBUG10.0;DEBUG2;0.0;DEBUG3;45.0;DEBUG4;0.0
ATTITUDE;ANGX;-15.0;ANGY;-3.0;HEAD;-117.0
STATUS;CYCLETIME;2872;I2CERR;0;PRESENT;23;MODE;2
RAW_IMU;AX;-30.0;AY;-33.0;AZ;241.0;GX;-14.0;GY;2.0;GZ;0.0;MAGX;99.0;MAGY;-80.0;MAGZ;43.0
MOT;0;1000.0;1;1000.0;2;1000.0;3;1000.0;4;0.0;5;0.0;6;0.0;7;0.0;
RC;ROLL;1493.0;PITCH;1497.0;YAW;1515.0;THROTTLE;1063.0;AUX1;1538.0;AUX2;1500.0;AUX3;1500.0;AUX4;1500.0
ALTITUDE;45.0
DEBUG;DEBUG10.0;DEBUG2;0.0;DEBUG3;45.0;DEBUG4;0.0
ATTITUDE;ANGX;-17.0;ANGY;-3.0;HEAD;-117.0
STATUS;CYCLETIME;2976;I2CERR;0;PRESENT;23;MODE;2
RAW_IMU;AX;-35.0;AY;-36.0;AZ;254.0;GX;-17.0;GY;-2.0;GZ;3.0;MAGX;99.0;MAGY;-82.0;MAGZ;35.0
MOT;0;1000.0;1;1000.0;2;1000.0;3;1000.0;4;0.0;5;0.0;6;0.0;7;0.0;
RC;ROLL;1493.0;PITCH;1497.0;YAW;1513.0;THROTTLE;1063.0;AUX1;1538.0;AUX2;1500.0;AUX3;1500.0;AUX4;1500.0
ALTITUDE;45.0
DEBUG;DEBUG10.0;DEBUG2;0.0;DEBUG3;45.0;DEBUG4;0.0
ATTITUDE;ANGX;-18.0;ANGY;-3.0;HEAD;-117.0
STATUS;CYCLETIME;2900;I2CERR;0;PRESENT;23;MODE;2
RAW_IMU;AX;-37.0;AY;-34.0;AZ;267.0;GX;-17.0;GY;-3.0;GZ;8.0;MAGX;99.0;MAGY;-82.0;MAGZ;35.0
MOT;0;1000.0;1;1000.0;2;1000.0;3;1000.0;4;0.0;5;0.0;6;0.0;7;0.0;
RC;ROLL;1493.0;PITCH;1497.0;YAW;1513.0;THROTTLE;1063.0;AUX1;1538.0;AUX2;1500.0;AUX3;1500.0;AUX4;1500.0
ALTITUDE;45.0
DEBUG;DEBUG10.0;DEBUG2;0.0;DEBUG3;45.0;DEBUG4;0.0
ATTITUDE;ANGX;-20.0;ANGY;-4.0;HEAD;-116.0
STATUS;CYCLETIME;2900;I2CERR;0;PRESENT;23;MODE;2
RAW_IMU;AX;-37.0;AY;-32.0;AZ;275.0;GX;-13.0;GY;0.0;GZ;8.0;MAGX;100.0;MAGY;-82.0;MAGZ;25.0
MOT;0;1000.0;1;1000.0;2;1000.0;3;1000.0;4;0.0;5;0.0;6;0.0;7;0.0;
RC;ROLL;1495.0;PITCH;1497.0;YAW;1513.0;THROTTLE;1063.0;AUX1;1538.0;AUX2;1500.0;AUX3;1500.0;AUX4;1500.0
ALTITUDE;45.0
DEBUG;DEBUG10.0;DEBUG2;0.0;DEBUG3;45.0;DEBUG4;0.0
ATTITUDE;ANGX;-21.0;ANGY;-5.0;HEAD;-115.0
STATUS;CYCLETIME;2964;I2CERR;0;PRESENT;23;MODE;2
RAW_IMU;AX;-35.0;AY;-31.0;AZ;284.0;GX;-6.0;GY;5.0;GZ;2.0;MAGX;100.0;MAGY;-82.0;MAGZ;25.0
MOT;0;1000.0;1;1000.0;2;1000.0;3;1000.0;4;0.0;5;0.0;6;0.0;7;0.0;
RC;ROLL;1495.0;PITCH;1499.0;YAW;1513.0;THROTTLE;1063.0;AUX1;1536.0;AUX2;1500.0;AUX3;1500.0;AUX4;1500.0
ALTITUDE;45.0
DEBUG;DEBUG10.0;DEBUG2;0.0;DEBUG3;45.0;DEBUG4;0.0
ATTITUDE;ANGX;-22.0;ANGY;-4.0;HEAD;-115.0
STATUS;CYCLETIME;2896;I2CERR;0;PRESENT;23;MODE;2
RAW_IMU;AX;-39.0;AY;-28.0;AZ;283.0;GX;1.0;GY;8.0;GZ;0.0;MAGX;100.0;MAGY;-82.0;MAGZ;25.0
MOT;0;1000.0;1;1000.0;2;1000.0;3;1000.0;4;0.0;5;0.0;6;0.0;7;0.0;
RC;ROLL;1495.0;PITCH;1499.0;YAW;1513.0;THROTTLE;1063.0;AUX1;1536.0;AUX2;1500.0;AUX3;1500.0;AUX4;1500.0
ALTITUDE;45.0
DEBUG;DEBUG10.0;DEBUG2;0.0;DEBUG3;45.0;DEBUG4;0.0
ATTITUDE;ANGX;-21.0;ANGY;-4.0;HEAD;-115.0
STATUS;CYCLETIME;2992;I2CERR;0;PRESENT;23;MODE;2
RAW_IMU;AX;-37.0;AY;-18.0;AZ;268.0;GX;7.0;GY;4.0;GZ;1.0;MAGX;99.0;MAGY;-82.0;MAGZ;24.0
MOT;0;1000.0;1;1000.0;2;1000.0;3;1000.0;4;0.0;5;0.0;6;0.0;7;0.0;
RC;ROLL;1495.0;PITCH;1499.0;YAW;1513.0;THROTTLE;1063.0;AUX1;1536.0;AUX2;1500.0;AUX3;1500.0;AUX4;1500.0
ALTITUDE;45.0
DEBUG;DEBUG10.0;DEBUG2;0.0;DEBUG3;45.0;DEBUG4;0.0
ATTITUDE;ANGX;-20.0;ANGY;-3.0;HEAD;-115.0
STATUS;CYCLETIME;2888;I2CERR;0;PRESENT;23;MODE;2
RAW_IMU;AX;-32.0;AY;-12.0;AZ;258.0;GX;7.0;GY;0.0;GZ;1.0;MAGX;99.0;MAGY;-82.0;MAGZ;24.0
MOT;0;1000.0;1;1000.0;2;1000.0;3;1000.0;4;0.0;5;0.0;6;0.0;7;0.0;
RC;ROLL;1497.0;PITCH;1499.0;YAW;1513.0;THROTTLE;1063.0;AUX1;1536.0;AUX2;1500.0;AUX3;1500.0;AUX4;1500.0
ALTITUDE;45.0
DEBUG;DEBUG10.0;DEBUG2;0.0;DEBUG3;45.0;DEBUG4;0.0
ATTITUDE;ANGX;-19.0;ANGY;-3.0;HEAD;-115.0
STATUS;CYCLETIME;2908;I2CERR;0;PRESENT;23;MODE;2
RAW_IMU;AX;-27.0;AY;-14.0;AZ;257.0;GX;2.0;GY;-9.0;GZ;-1.0;MAGX;95.0;MAGY;-82.0;MAGZ;31.0
MOT;0;1000.0;1;1000.0;2;1000.0;3;1000.0;4;0.0;5;0.0;6;0.0;7;0.0;
RC;ROLL;1497.0;PITCH;1499.0;YAW;1513.0;THROTTLE;1063.0;AUX1;1536.0;AUX2;1500.0;AUX3;1500.0;AUX4;1500.0
ALTITUDE;45.0
DEBUG;DEBUG10.0;DEBUG2;0.0;DEBUG3;45.0;DEBUG4;0.0
ATTITUDE;ANGX;-18.0;ANGY;-3.0;HEAD;-115.0
STATUS;CYCLETIME;2988;I2CERR;0;PRESENT;23;MODE;2
RAW_IMU;AX;-28.0;AY;-28.0;AZ;252.0;GX;-4.0;GY;-21.0;GZ;-4.0;MAGX;95.0;MAGY;-82.0;MAGZ;31.0
MOT;0;1000.0;1;1000.0;2;1000.0;3;1000.0;4;0.0;5;0.0;6;0.0;7;0.0;
RC;ROLL;1497.0;PITCH;1501.0;YAW;1513.0;THROTTLE;1063.0;AUX1;1536.0;AUX2;1500.0;AUX3;1500.0;AUX4;1500.0
ALTITUDE;45.0
DEBUG;DEBUG10.0;DEBUG2;0.0;DEBUG3;45.0;DEBUG4;0.0
ATTITUDE;ANGX;-18.0;ANGY;-5.0;HEAD;-117.0
STATUS;CYCLETIME;2904;I2CERR;0;PRESENT;23;MODE;2
RAW_IMU;AX;-34.0;AY;-40.0;AZ;242.0;GX;-5.0;GY;-24.0;GZ;0.0;MAGX;108.0;MAGY;-78.0;MAGZ;29.0
MOT;0;1000.0;1;1000.0;2;1000.0;3;1000.0;4;0.0;5;0.0;6;0.0;7;0.0;
RC;ROLL;1497.0;PITCH;1501.0;YAW;1513.0;THROTTLE;1063.0;AUX1;1536.0;AUX2;1500.0;AUX3;1500.0;AUX4;1500.0
ALTITUDE;45.0
DEBUG;DEBUG10.0;DEBUG2;0.0;DEBUG3;45.0;DEBUG4;0.0
ATTITUDE;ANGX;-19.0;ANGY;-8.0;HEAD;-118.0
STATUS;CYCLETIME;2880;I2CERR;0;PRESENT;23;MODE;2
RAW_IMU;AX;-36.0;AY;-61.0;AZ;234.0;GX;0.0;GY;-16.0;GZ;3.0;MAGX;108.0;MAGY;-78.0;MAGZ;29.0
MOT;0;1000.0;1;1000.0;2;1000.0;3;1000.0;4;0.0;5;0.0;6;0.0;7;0.0;
RC;ROLL;1497.0;PITCH;1501.0;YAW;1513.0;THROTTLE;1063.0;AUX1;1536.0;AUX2;1500.0;AUX3;1500.0;AUX4;1500.0
ALTITUDE;45.0
DEBUG;DEBUG10.0;DEBUG2;0.0;DEBUG3;45.0;DEBUG4;0.0
ATTITUDE;ANGX;-19.0;ANGY;-10.0;HEAD;-118.0
STATUS;CYCLETIME;2872;I2CERR;0;PRESENT;23;MODE;2
RAW_IMU;AX;-39.0;AY;-76.0;AZ;240.0;GX;9.0;GY;0.0;GZ;3.0;MAGX;115.0;MAGY;-76.0;MAGZ;29.0
MOT;0;1000.0;1;1000.0;2;1000.0;3;1000.0;4;0.0;5;0.0;6;0.0;7;0.0;
RC;ROLL;1497.0;PITCH;1501.0;YAW;1513.0;THROTTLE;1063.0;AUX1;1536.0;AUX2;1500.0;AUX3;1500.0;AUX4;1500.0
ALTITUDE;45.0
DEBUG;DEBUG10.0;DEBUG2;0.0;DEBUG3;45.0;DEBUG4;0.0
ATTITUDE;ANGX;-18.0;ANGY;-11.0;HEAD;-117.0
STATUS;CYCLETIME;2928;I2CERR;0;PRESENT;23;MODE;2
RAW_IMU;AX;-41.0;AY;-76.0;AZ;249.0;GX;18.0;GY;21.0;GZ;0.0;MAGX;115.0;MAGY;-76.0;MAGZ;29.0
MOT;0;1000.0;1;1000.0;2;1000.0;3;1000.0;4;0.0;5;0.0;6;0.0;7;0.0;
RC;ROLL;1497.0;PITCH;1501.0;YAW;1513.0;THROTTLE;1063.0;AUX1;1536.0;AUX2;1500.0;AUX3;1500.0;AUX4;1500.0
ALTITUDE;45.0
DEBUG;DEBUG10.0;DEBUG2;0.0;DEBUG3;45.0;DEBUG4;0.0
ATTITUDE;ANGX;-16.0;ANGY;-9.0;HEAD;-116.0
STATUS;CYCLETIME;3016;I2CERR;0;PRESENT;23;MODE;2
RAW_IMU;AX;-38.0;AY;-59.0;AZ;270.0;GX;21.0;GY;29.0;GZ;-3.0;MAGX;109.0;MAGY;-77.0;MAGZ;41.0
MOT;0;1000.0;1;1000.0;2;1000.0;3;1000.0;4;0.0;5;0.0;6;0.0;7;0.0;
RC;ROLL;1497.0;PITCH;1501.0;YAW;1513.0;THROTTLE;1063.0;AUX1;1536.0;AUX2;1500.0;AUX3;1500.0;AUX4;1500.0
ALTITUDE;45.0
DEBUG;DEBUG10.0;DEBUG2;0.0;DEBUG3;45.0;DEBUG4;0.0
ATTITUDE;ANGX;-13.0;ANGY;-6.0;HEAD;-115.0
STATUS;CYCLETIME;2876;I2CERR;0;PRESENT;23;MODE;2
RAW_IMU;AX;-34.0;AY;-32.0;AZ;268.0;GX;15.0;GY;24.0;GZ;-3.0;MAGX;109.0;MAGY;-77.0;MAGZ;41.0
MOT;0;1000.0;1;1000.0;2;1000.0;3;1000.0;4;0.0;5;0.0;6;0.0;7;0.0;
RC;ROLL;1495.0;PITCH;1501.0;YAW;1513.0;THROTTLE;1063.0;AUX1;1536.0;AUX2;1500.0;AUX3;1500.0;AUX4;1500.0
ALTITUDE;45.0
DEBUG;DEBUG10.0;DEBUG2;0.0;DEBUG3;45.0;DEBUG4;0.0
ATTITUDE;ANGX;-11.0;ANGY;-4.0;HEAD;-115.0
STATUS;CYCLETIME;2888;I2CERR;0;PRESENT;23;MODE;2
RAW_IMU;AX;-28.0;AY;-7.0;AZ;261.0;GX;3.0;GY;11.0;GZ;0.0;MAGX;99.0;MAGY;-78.0;MAGZ;50.0
MOT;0;1000.0;1;1000.0;2;1000.0;3;1000.0;4;0.0;5;0.0;6;0.0;7;0.0;
RC;ROLL;1495.0;PITCH;1501.0;YAW;1513.0;THROTTLE;1063.0;AUX1;1536.0;AUX2;1500.0;AUX3;1500.0;AUX4;1500.0
ALTITUDE;45.0
DEBUG;DEBUG10.0;DEBUG2;0.0;DEBUG3;45.0;DEBUG4;0.0
ATTITUDE;ANGX;-10.0;ANGY;-2.0;HEAD;-115.0
STATUS;CYCLETIME;3004;I2CERR;0;PRESENT;23;MODE;2
RAW_IMU;AX;-29.0;AY;6.0;AZ;254.0;GX;-7.0;GY;-7.0;GZ;1.0;MAGX;99.0;MAGY;-78.0;MAGZ;50.0
MOT;0;1000.0;1;1000.0;2;1000.0;3;1000.0;4;0.0;5;0.0;6;0.0;7;0.0;
RC;ROLL;1495.0;PITCH;1501.0;YAW;1513.0;THROTTLE;1063.0;AUX1;1536.0;AUX2;1500.0;AUX3;1500.0;AUX4;1500.0
ALTITUDE;45.0
DEBUG;DEBUG10.0;DEBUG2;0.0;DEBUG3;45.0;DEBUG4;0.0
ATTITUDE;ANGX;-10.0;ANGY;-2.0;HEAD;-115.0
STATUS;CYCLETIME;3036;I2CERR;0;PRESENT;23;MODE;2
RAW_IMU;AX;-30.0;AY;1.0;AZ;250.0;GX;-14.0;GY;-21.0;GZ;0.0;MAGX;99.0;MAGY;-78.0;MAGZ;50.0
MOT;0;1000.0;1;1000.0;2;1000.0;3;1000.0;4;0.0;5;0.0;6;0.0;7;0.0;
RC;ROLL;1495.0;PITCH;1501.0;YAW;1513.0;THROTTLE;1063.0;AUX1;1536.0;AUX2;1500.0;AUX3;1500.0;AUX4;1500.0
ALTITUDE;45.0
DEBUG;DEBUG10.0;DEBUG2;0.0;DEBUG3;45.0;DEBUG4;0.0
ATTITUDE;ANGX;-12.0;ANGY;-4.0;HEAD;-115.0
STATUS;CYCLETIME;2916;I2CERR;0;PRESENT;23;MODE;2
RAW_IMU;AX;-36.0;AY;-8.0;AZ;231.0;GX;-12.0;GY;-19.0;GZ;0.0;MAGX;98.0;MAGY;-78.0;MAGZ;50.0
MOT;0;1000.0;1;1000.0;2;1000.0;3;1000.0;4;0.0;5;0.0;6;0.0;7;0.0;
RC;ROLL;1497.0;PITCH;1501.0;YAW;1513.0;THROTTLE;1063.0;AUX1;1536.0;AUX2;1500.0;AUX3;1500.0;AUX4;1500.0
ALTITUDE;45.0
DEBUG;DEBUG10.0;DEBUG2;0.0;DEBUG3;45.0;DEBUG4;0.0
ATTITUDE;ANGX;-13.0;ANGY;-6.0;HEAD;-115.0
STATUS;CYCLETIME;3016;I2CERR;0;PRESENT;23;MODE;2
RAW_IMU;AX;-44.0;AY;-18.0;AZ;217.0;GX;-2.0;GY;-7.0;GZ;1.0;MAGX;98.0;MAGY;-78.0;MAGZ;50.0
MOT;0;1000.0;1;1000.0;2;1000.0;3;1000.0;4;0.0;5;0.0;6;0.0;7;0.0;
RC;ROLL;1497.0;PITCH;1501.0;YAW;1513.0;THROTTLE;1063.0;AUX1;1536.0;AUX2;1500.0;AUX3;1500.0;AUX4;1500.0
ALTITUDE;45.0
DEBUG;DEBUG10.0;DEBUG2;0.0;DEBUG3;45.0;DEBUG4;0.0
ATTITUDE;ANGX;-14.0;ANGY;-7.0;HEAD;-115.0
STATUS;CYCLETIME;2864;I2CERR;0;PRESENT;23;MODE;2
RAW_IMU;AX;-48.0;AY;-48.0;AZ;217.0;GX;13.0;GY;-2.0;GZ;5.0;MAGX;110.0;MAGY;-75.0;MAGZ;43.0
MOT;0;1000.0;1;1000.0;2;1000.0;3;1000.0;4;0.0;5;0.0;6;0.0;7;0.0;
RC;ROLL;1497.0;PITCH;1501.0;YAW;1513.0;THROTTLE;1063.0;AUX1;1536.0;AUX2;1500.0;AUX3;1500.0;AUX4;1500.0
ALTITUDE;45.0
DEBUG;DEBUG10.0;DEBUG2;0.0;DEBUG3;45.0;DEBUG4;0.0
ATTITUDE;ANGX;-13.0;ANGY;-8.0;HEAD;-115.0
STATUS;CYCLETIME;3012;I2CERR;0;PRESENT;23;MODE;2
RAW_IMU;AX;-44.0;AY;-59.0;AZ;227.0;GX;23.0;GY;1.0;GZ;3.0;MAGX;110.0;MAGY;-75.0;MAGZ;43.0
MOT;0;1000.0;1;1000.0;2;1000.0;3;1000.0;4;0.0;5;0.0;6;0.0;7;0.0;
RC;ROLL;1497.0;PITCH;1501.0;YAW;1513.0;THROTTLE;1063.0;AUX1;1536.0;AUX2;1500.0;AUX3;1500.0;AUX4;1500.0
ALTITUDE;45.0
DEBUG;DEBUG10.0;DEBUG2;0.0;DEBUG3;45.0;DEBUG4;0.0
ATTITUDE;ANGX;-10.0;ANGY;-8.0;HEAD;-114.0
STATUS;CYCLETIME;2872;I2CERR;0;PRESENT;23;MODE;2
RAW_IMU;AX;-31.0;AY;-51.0;AZ;228.0;GX;17.0;GY;21.0;GZ;-1.0;MAGX;111.0;MAGY;-74.0;MAGZ;50.0
MOT;0;1000.0;1;1000.0;2;1000.0;3;1000.0;4;0.0;5;0.0;6;0.0;7;0.0;
RC;ROLL;1495.0;PITCH;1501.0;YAW;1515.0;THROTTLE;1063.0;AUX1;1536.0;AUX2;1500.0;AUX3;1500.0;AUX4;1500.0
ALTITUDE;45.0
DEBUG;DEBUG10.0;DEBUG2;0.0;DEBUG3;45.0;DEBUG4;0.0
ATTITUDE;ANGX;-8.0;ANGY;-7.0;HEAD;-113.0
STATUS;CYCLETIME;2880;I2CERR;0;PRESENT;23;MODE;2
RAW_IMU;AX;-22.0;AY;-49.0;AZ;250.0;GX;-3.0;GY;21.0;GZ;-1.0;MAGX;111.0;MAGY;-74.0;MAGZ;50.0
MOT;0;1000.0;1;1000.0;2;1000.0;3;1000.0;4;0.0;5;0.0;6;0.0;7;0.0;
RC;ROLL;1493.0;PITCH;1501.0;YAW;1515.0;THROTTLE;1063.0;AUX1;1536.0;AUX2;1500.0;AUX3;1500.0;AUX4;1500.0
ALTITUDE;45.0
DEBUG;DEBUG10.0;DEBUG2;0.0;DEBUG3;45.0;DEBUG4;0.0
ATTITUDE;ANGX;-7.0;ANGY;-4.0;HEAD;-113.0
STATUS;CYCLETIME;2876;I2CERR;0;PRESENT;23;MODE;2
RAW_IMU;AX;-14.0;AY;-41.0;AZ;279.0;GX;-40.0;GY;8.0;GZ;1.0;MAGX;103.0;MAGY;-77.0;MAGZ;61.0
MOT;0;1000.0;1;1000.0;2;1000.0;3;1000.0;4;0.0;5;0.0;6;0.0;7;0.0;
RC;ROLL;1493.0;PITCH;1501.0;YAW;1515.0;THROTTLE;1063.0;AUX1;1534.0;AUX2;1500.0;AUX3;1500.0;AUX4;1500.0
ALTITUDE;45.0
DEBUG;DEBUG10.0;DEBUG2;0.0;DEBUG3;45.0;DEBUG4;0.0
ATTITUDE;ANGX;-11.0;ANGY;-3.0;HEAD;-113.0
STATUS;CYCLETIME;2792;I2CERR;0;PRESENT;23;MODE;2
RAW_IMU;AX;-18.0;AY;-27.0;AZ;306.0;GX;-74.0;GY;-3.0;GZ;3.0;MAGX;103.0;MAGY;-77.0;MAGZ;61.0
MOT;0;1000.0;1;1000.0;2;1000.0;3;1000.0;4;0.0;5;0.0;6;0.0;7;0.0;
RC;ROLL;1493.0;PITCH;1501.0;YAW;1515.0;THROTTLE;1063.0;AUX1;1534.0;AUX2;1500.0;AUX3;1500.0;AUX4;1500.0
ALTITUDE;45.0
DEBUG;DEBUG10.0;DEBUG2;0.0;DEBUG3;45.0;DEBUG4;0.0
ATTITUDE;ANGX;-18.0;ANGY;-3.0;HEAD;-112.0
STATUS;CYCLETIME;2824;I2CERR;0;PRESENT;23;MODE;2
RAW_IMU;AX;-33.0;AY;-22.0;AZ;303.0;GX;-85.0;GY;-5.0;GZ;3.0;MAGX;101.0;MAGY;-79.0;MAGZ;21.0
MOT;0;1000.0;1;1000.0;2;1000.0;3;1000.0;4;0.0;5;0.0;6;0.0;7;0.0;
RC;ROLL;1493.0;PITCH;1501.0;YAW;1515.0;THROTTLE;1063.0;AUX1;1534.0;AUX2;1500.0;AUX3;1500.0;AUX4;1500.0
ALTITUDE;45.0
DEBUG;DEBUG10.0;DEBUG2;0.0;DEBUG3;47.0;DEBUG4;0.0
ATTITUDE;ANGX;-28.0;ANGY;-4.0;HEAD;-112.0
STATUS;CYCLETIME;2800;I2CERR;0;PRESENT;23;MODE;2
RAW_IMU;AX;-53.0;AY;-21.0;AZ;295.0;GX;-68.0;GY;-9.0;GZ;4.0;MAGX;101.0;MAGY;-79.0;MAGZ;21.0
MOT;0;1000.0;1;1000.0;2;1000.0;3;1000.0;4;0.0;5;0.0;6;0.0;7;0.0;
RC;ROLL;1493.0;PITCH;1501.0;YAW;1515.0;THROTTLE;1063.0;AUX1;1534.0;AUX2;1500.0;AUX3;1500.0;AUX4;1500.0
ALTITUDE;47.0
DEBUG;DEBUG10.0;DEBUG2;0.0;DEBUG3;47.0;DEBUG4;0.0
ATTITUDE;ANGX;-36.0;ANGY;-5.0;HEAD;-113.0
STATUS;CYCLETIME;3148;I2CERR;0;PRESENT;23;MODE;2
RAW_IMU;AX;-70.0;AY;-29.0;AZ;280.0;GX;-30.0;GY;-11.0;GZ;5.0;MAGX;104.0;MAGY;-76.0;MAGZ;-6.0
MOT;0;1000.0;1;1000.0;2;1000.0;3;1000.0;4;0.0;5;0.0;6;0.0;7;0.0;
RC;ROLL;1493.0;PITCH;1501.0;YAW;1515.0;THROTTLE;1063.0;AUX1;1534.0;AUX2;1500.0;AUX3;1500.0;AUX4;1500.0
ALTITUDE;47.0
DEBUG;DEBUG10.0;DEBUG2;0.0;DEBUG3;47.0;DEBUG4;0.0
ATTITUDE;ANGX;-40.0;ANGY;-6.0;HEAD;-114.0
STATUS;CYCLETIME;2872;I2CERR;0;PRESENT;23;MODE;2
RAW_IMU;AX;-75.0;AY;-34.0;AZ;265.0;GX;14.0;GY;-13.0;GZ;5.0;MAGX;104.0;MAGY;-76.0;MAGZ;-6.0
MOT;0;1000.0;1;1000.0;2;1000.0;3;1000.0;4;0.0;5;0.0;6;0.0;7;0.0;
RC;ROLL;1495.0;PITCH;1501.0;YAW;1513.0;THROTTLE;1063.0;AUX1;1534.0;AUX2;1500.0;AUX3;1500.0;AUX4;1500.0
ALTITUDE;47.0
DEBUG;DEBUG10.0;DEBUG2;0.0;DEBUG3;47.0;DEBUG4;0.0
ATTITUDE;ANGX;-39.0;ANGY;-8.0;HEAD;-115.0
STATUS;CYCLETIME;2892;I2CERR;0;PRESENT;23;MODE;2
RAW_IMU;AX;-67.0;AY;-40.0;AZ;252.0;GX;52.0;GY;-13.0;GZ;3.0;MAGX;104.0;MAGY;-76.0;MAGZ;-6.0
MOT;0;1000.0;1;1000.0;2;1000.0;3;1000.0;4;0.0;5;0.0;6;0.0;7;0.0;
RC;ROLL;1495.0;PITCH;1501.0;YAW;1513.0;THROTTLE;1063.0;AUX1;1534.0;AUX2;1500.0;AUX3;1500.0;AUX4;1500.0
ALTITUDE;47.0
DEBUG;DEBUG10.0;DEBUG2;0.0;DEBUG3;47.0;DEBUG4;0.0
ATTITUDE;ANGX;-33.0;ANGY;-9.0;HEAD;-116.0
STATUS;CYCLETIME;2980;I2CERR;0;PRESENT;23;MODE;2
RAW_IMU;AX;-55.0;AY;-45.0;AZ;245.0;GX;70.0;GY;-12.0;GZ;1.0;MAGX;114.0;MAGY;-73.0;MAGZ;-8.0
MOT;0;1000.0;1;1000.0;2;1000.0;3;1000.0;4;0.0;5;0.0;6;0.0;7;0.0;
RC;ROLL;1495.0;PITCH;1499.0;YAW;1515.0;THROTTLE;1063.0;AUX1;1534.0;AUX2;1500.0;AUX3;1500.0;AUX4;1500.0
ALTITUDE;47.0
DEBUG;DEBUG10.0;DEBUG2;0.0;DEBUG3;47.0;DEBUG4;0.0
ATTITUDE;ANGX;-26.0;ANGY;-10.0;HEAD;-117.0
STATUS;CYCLETIME;2996;I2CERR;0;PRESENT;23;MODE;2
RAW_IMU;AX;-37.0;AY;-48.0;AZ;230.0;GX;68.0;GY;-8.0;GZ;0.0;MAGX;114.0;MAGY;-73.0;MAGZ;-8.0
MOT;0;1000.0;1;1000.0;2;1000.0;3;1000.0;4;0.0;5;0.0;6;0.0;7;0.0;
RC;ROLL;1495.0;PITCH;1499.0;YAW;1515.0;THROTTLE;1063.0;AUX1;1534.0;AUX2;1500.0;AUX3;1500.0;AUX4;1500.0
ALTITUDE;47.0
DEBUG;DEBUG10.0;DEBUG2;0.0;DEBUG3;47.0;DEBUG4;0.0
ATTITUDE;ANGX;-17.0;ANGY;-12.0;HEAD;-117.0
STATUS;CYCLETIME;2888;I2CERR;0;PRESENT;23;MODE;2
RAW_IMU;AX;-23.0;AY;-47.0;AZ;221.0;GX;53.0;GY;-1.0;GZ;1.0;MAGX;121.0;MAGY;-71.0;MAGZ;40.0
MOT;0;1000.0;1;1000.0;2;1000.0;3;1000.0;4;0.0;5;0.0;6;0.0;7;0.0;
RC;ROLL;1495.0;PITCH;1499.0;YAW;1515.0;THROTTLE;1063.0;AUX1;1534.0;AUX2;1500.0;AUX3;1500.0;AUX4;1500.0
ALTITUDE;47.0
DEBUG;DEBUG10.0;DEBUG2;0.0;DEBUG3;47.0;DEBUG4;0.0
ATTITUDE;ANGX;-11.0;ANGY;-12.0;HEAD;-117.0
STATUS;CYCLETIME;2892;I2CERR;0;PRESENT;23;MODE;2
RAW_IMU;AX;-18.0;AY;-51.0;AZ;217.0;GX;28.0;GY;0.0;GZ;5.0;MAGX;121.0;MAGY;-71.0;MAGZ;40.0
MOT;0;1000.0;1;1000.0;2;1000.0;3;1000.0;4;0.0;5;0.0;6;0.0;7;0.0;
RC;ROLL;1497.0;PITCH;1499.0;YAW;1515.0;THROTTLE;1063.0;AUX1;1534.0;AUX2;1500.0;AUX3;1500.0;AUX4;1500.0
ALTITUDE;47.0
DEBUG;DEBUG10.0;DEBUG2;0.0;DEBUG3;47.0;DEBUG4;0.0
ATTITUDE;ANGX;-7.0;ANGY;-12.0;HEAD;-115.0
STATUS;CYCLETIME;3016;I2CERR;0;PRESENT;23;MODE;2
RAW_IMU;AX;-16.0;AY;-57.0;AZ;219.0;GX;5.0;GY;3.0;GZ;6.0;MAGX;122.0;MAGY;-68.0;MAGZ;58.0
MOT;0;1000.0;1;1000.0;2;1000.0;3;1000.0;4;0.0;5;0.0;6;0.0;7;0.0;
RC;ROLL;1497.0;PITCH;1499.0;YAW;1515.0;THROTTLE;1061.0;AUX1;1534.0;AUX2;1500.0;AUX3;1500.0;AUX4;1500.0
ALTITUDE;47.0
DEBUG;DEBUG10.0;DEBUG2;0.0;DEBUG3;47.0;DEBUG4;0.0
ATTITUDE;ANGX;-5.0;ANGY;-12.0;HEAD;-114.0
STATUS;CYCLETIME;2912;I2CERR;0;PRESENT;23;MODE;2
RAW_IMU;AX;-20.0;AY;-57.0;AZ;225.0;GX;-11.0;GY;7.0;GZ;4.0;MAGX;122.0;MAGY;-68.0;MAGZ;58.0
MOT;0;1000.0;1;1000.0;2;1000.0;3;1000.0;4;0.0;5;0.0;6;0.0;7;0.0;
RC;ROLL;1494.0;PITCH;1499.0;YAW;1515.0;THROTTLE;1061.0;AUX1;1534.0;AUX2;1500.0;AUX3;1500.0;AUX4;1500.0
ALTITUDE;47.0
DEBUG;DEBUG10.0;DEBUG2;0.0;DEBUG3;47.0;DEBUG4;0.0
ATTITUDE;ANGX;-6.0;ANGY;-11.0;HEAD;-112.0
STATUS;CYCLETIME;2904;I2CERR;0;PRESENT;23;MODE;2
RAW_IMU;AX;-27.0;AY;-53.0;AZ;236.0;GX;-20.0;GY;16.0;GZ;0.0;MAGX;119.0;MAGY;-68.0;MAGZ;66.0
MOT;0;1000.0;1;1000.0;2;1000.0;3;1000.0;4;0.0;5;0.0;6;0.0;7;0.0;
RC;ROLL;1494.0;PITCH;1499.0;YAW;1515.0;THROTTLE;1063.0;AUX1;1534.0;AUX2;1500.0;AUX3;1500.0;AUX4;1500.0
ALTITUDE;47.0
DEBUG;DEBUG10.0;DEBUG2;0.0;DEBUG3;47.0;DEBUG4;0.0
ATTITUDE;ANGX;-8.0;ANGY;-10.0;HEAD;-111.0
STATUS;CYCLETIME;2892;I2CERR;0;PRESENT;23;MODE;2
RAW_IMU;AX;-37.0;AY;-46.0;AZ;251.0;GX;-22.0;GY;10.0;GZ;-2.0;MAGX;119.0;MAGY;-68.0;MAGZ;66.0
MOT;0;1000.0;1;1000.0;2;1000.0;3;1000.0;4;0.0;5;0.0;6;0.0;7;0.0;
RC;ROLL;1494.0;PITCH;1499.0;YAW;1515.0;THROTTLE;1063.0;AUX1;1534.0;AUX2;1500.0;AUX3;1500.0;AUX4;1500.0
ALTITUDE;47.0
DEBUG;DEBUG10.0;DEBUG2;0.0;DEBUG3;47.0;DEBUG4;0.0
ATTITUDE;ANGX;-10.0;ANGY;-8.0;HEAD;-111.0
STATUS;CYCLETIME;2888;I2CERR;0;PRESENT;23;MODE;2
RAW_IMU;AX;-41.0;AY;-39.0;AZ;265.0;GX;-20.0;GY;1.0;GZ;-2.0;MAGX;112.0;MAGY;-72.0;MAGZ;53.0
MOT;0;1000.0;1;1000.0;2;1000.0;3;1000.0;4;0.0;5;0.0;6;0.0;7;0.0;
RC;ROLL;1494.0;PITCH;1499.0;YAW;1515.0;THROTTLE;1063.0;AUX1;1534.0;AUX2;1500.0;AUX3;1500.0;AUX4;1500.0
ALTITUDE;47.0
DEBUG;DEBUG10.0;DEBUG2;0.0;DEBUG3;47.0;DEBUG4;0.0
ATTITUDE;ANGX;-12.0;ANGY;-8.0;HEAD;-111.0
STATUS;CYCLETIME;3004;I2CERR;0;PRESENT;23;MODE;2
RAW_IMU;AX;-37.0;AY;-40.0;AZ;272.0;GX;-22.0;GY;-11.0;GZ;-4.0;MAGX;112.0;MAGY;-72.0;MAGZ;53.0
MOT;0;1000.0;1;1000.0;2;1000.0;3;1000.0;4;0.0;5;0.0;6;0.0;7;0.0;
RC;ROLL;1494.0;PITCH;1499.0;YAW;1515.0;THROTTLE;1063.0;AUX1;1534.0;AUX2;1500.0;AUX3;1500.0;AUX4;1500.0
ALTITUDE;47.0
DEBUG;DEBUG10.0;DEBUG2;0.0;DEBUG3;47.0;DEBUG4;0.0
ATTITUDE;ANGX;-15.0;ANGY;-8.0;HEAD;-111.0
STATUS;CYCLETIME;2868;I2CERR;0;PRESENT;23;MODE;2
RAW_IMU;AX;-29.0;AY;-49.0;AZ;289.0;GX;-34.0;GY;-24.0;GZ;-9.0;MAGX;114.0;MAGY;-72.0;MAGZ;44.0
MOT;0;1000.0;1;1000.0;2;1000.0;3;1000.0;4;0.0;5;0.0;6;0.0;7;0.0;
RC;ROLL;1494.0;PITCH;1499.0;YAW;1515.0;THROTTLE;1063.0;AUX1;1534.0;AUX2;1500.0;AUX3;1500.0;AUX4;1500.0
ALTITUDE;54.0
DEBUG;DEBUG10.0;DEBUG2;0.0;DEBUG3;54.0;DEBUG4;0.0
ATTITUDE;ANGX;-18.0;ANGY;-10.0;HEAD;-113.0
STATUS;CYCLETIME;2872;I2CERR;0;PRESENT;23;MODE;2
RAW_IMU;AX;-25.0;AY;-59.0;AZ;287.0;GX;-51.0;GY;-25.0;GZ;-14.0;MAGX;114.0;MAGY;-72.0;MAGZ;44.0
MOT;0;1000.0;1;1000.0;2;1000.0;3;1000.0;4;0.0;5;0.0;6;0.0;7;0.0;
RC;ROLL;1496.0;PITCH;1499.0;YAW;1515.0;THROTTLE;1063.0;AUX1;1534.0;AUX2;1500.0;AUX3;1500.0;AUX4;1500.0
ALTITUDE;54.0
DEBUG;DEBUG10.0;DEBUG2;0.0;DEBUG3;54.0;DEBUG4;0.0
ATTITUDE;ANGX;-24.0;ANGY;-12.0;HEAD;-115.0
STATUS;CYCLETIME;2992;I2CERR;0;PRESENT;23;MODE;2
RAW_IMU;AX;-36.0;AY;-61.0;AZ;265.0;GX;-60.0;GY;-9.0;GZ;-6.0;MAGX;114.0;MAGY;-72.0;MAGZ;44.0
MOT;0;1000.0;1;1000.0;2;1000.0;3;1000.0;4;0.0;5;0.0;6;0.0;7;0.0;
RC;ROLL;1496.0;PITCH;1499.0;YAW;1513.0;THROTTLE;1063.0;AUX1;1534.0;AUX2;1500.0;AUX3;1500.0;AUX4;1500.0
ALTITUDE;54.0
DEBUG;DEBUG10.0;DEBUG2;0.0;DEBUG3;54.0;DEBUG4;0.0
ATTITUDE;ANGX;-30.0;ANGY;-14.0;HEAD;-116.0
STATUS;CYCLETIME;2888;I2CERR;0;PRESENT;23;MODE;2
RAW_IMU;AX;-47.0;AY;-59.0;AZ;238.0;GX;-49.0;GY;8.0;GZ;6.0;MAGX;130.0;MAGY;-66.0;MAGZ;9.0
MOT;0;1000.0;1;1000.0;2;1000.0;3;1000.0;4;0.0;5;0.0;6;0.0;7;0.0;
RC;ROLL;1496.0;PITCH;1501.0;YAW;1513.0;THROTTLE;1063.0;AUX1;1534.0;AUX2;1500.0;AUX3;1500.0;AUX4;1500.0
ALTITUDE;54.0
DEBUG;DEBUG10.0;DEBUG2;0.0;DEBUG3;54.0;DEBUG4;0.0
ATTITUDE;ANGX;-36.0;ANGY;-13.0;HEAD;-115.0
STATUS;CYCLETIME;2932;I2CERR;0;PRESENT;23;MODE;2
RAW_IMU;AX;-50.0;AY;-52.0;AZ;217.0;GX;-23.0;GY;12.0;GZ;11.0;MAGX;130.0;MAGY;-66.0;MAGZ;9.0
MOT;0;1000.0;1;1000.0;2;1000.0;3;1000.0;4;0.0;5;0.0;6;0.0;7;0.0;
RC;ROLL;1496.0;PITCH;1501.0;YAW;1513.0;THROTTLE;1063.0;AUX1;1534.0;AUX2;1500.0;AUX3;1500.0;AUX4;1500.0
ALTITUDE;54.0
DEBUG;DEBUG10.0;DEBUG2;0.0;DEBUG3;54.0;DEBUG4;0.0
ATTITUDE;ANGX;-38.0;ANGY;-13.0;HEAD;-114.0
STATUS;CYCLETIME;2884;I2CERR;0;PRESENT;23;MODE;2
RAW_IMU;AX;-51.0;AY;-54.0;AZ;201.0;GX;9.0;GY;5.0;GZ;7.0;MAGX;126.0;MAGY;-65.0;MAGZ;-13.0
MOT;0;1000.0;1;1000.0;2;1000.0;3;1000.0;4;0.0;5;0.0;6;0.0;7;0.0;
RC;ROLL;1496.0;PITCH;1501.0;YAW;1513.0;THROTTLE;1063.0;AUX1;1534.0;AUX2;1500.0;AUX3;1500.0;AUX4;1500.0
ALTITUDE;54.0
DEBUG;DEBUG10.0;DEBUG2;0.0;DEBUG3;54.0;DEBUG4;0.0
ATTITUDE;ANGX;-37.0;ANGY;-13.0;HEAD;-113.0
STATUS;CYCLETIME;2896;I2CERR;0;PRESENT;23;MODE;2
RAW_IMU;AX;-52.0;AY;-51.0;AZ;189.0;GX;42.0;GY;-2.0;GZ;0.0;MAGX;126.0;MAGY;-65.0;MAGZ;-13.0
MOT;0;1000.0;1;1000.0;2;1000.0;3;1000.0;4;0.0;5;0.0;6;0.0;7;0.0;
RC;ROLL;1496.0;PITCH;1501.0;YAW;1513.0;THROTTLE;1063.0;AUX1;1534.0;AUX2;1500.0;AUX3;1500.0;AUX4;1500.0
ALTITUDE;54.0
DEBUG;DEBUG10.0;DEBUG2;0.0;DEBUG3;54.0;DEBUG4;0.0
ATTITUDE;ANGX;-34.0;ANGY;-13.0;HEAD;-113.0
STATUS;CYCLETIME;2788;I2CERR;0;PRESENT;23;MODE;2
RAW_IMU;AX;-50.0;AY;-53.0;AZ;187.0;GX;69.0;GY;4.0;GZ;-4.0;MAGX;126.0;MAGY;-65.0;MAGZ;-7.0
MOT;0;1000.0;1;1000.0;2;1000.0;3;1000.0;4;0.0;5;0.0;6;0.0;7;0.0;
RC;ROLL;1494.0;PITCH;1501.0;YAW;1513.0;THROTTLE;1063.0;AUX1;1534.0;AUX2;1500.0;AUX3;1500.0;AUX4;1500.0
ALTITUDE;54.0
DEBUG;DEBUG10.0;DEBUG2;0.0;DEBUG3;54.0;DEBUG4;0.0
ATTITUDE;ANGX;-26.0;ANGY;-13.0;HEAD;-113.0
STATUS;CYCLETIME;2808;I2CERR;0;PRESENT;23;MODE;2
RAW_IMU;AX;-43.0;AY;-56.0;AZ;204.0;GX;84.0;GY;16.0;GZ;-3.0;MAGX;126.0;MAGY;-65.0;MAGZ;-7.0
MOT;0;1000.0;1;1000.0;2;1000.0;3;1000.0;4;0.0;5;0.0;6;0.0;7;0.0;
RC;ROLL;1494.0;PITCH;1501.0;YAW;1513.0;THROTTLE;1063.0;AUX1;1534.0;AUX2;1500.0;AUX3;1500.0;AUX4;1500.0
ALTITUDE;54.0
DEBUG;DEBUG10.0;DEBUG2;0.0;DEBUG3;54.0;DEBUG4;0.0
ATTITUDE;ANGX;-17.0;ANGY;-11.0;HEAD;-113.0
STATUS;CYCLETIME;2972;I2CERR;0;PRESENT;23;MODE;2
RAW_IMU;AX;-26.0;AY;-65.0;AZ;231.0;GX;75.0;GY;23.0;GZ;0.0;MAGX;123.0;MAGY;-70.0;MAGZ;44.0
MOT;0;1000.0;1;1000.0;2;1000.0;3;1000.0;4;0.0;5;0.0;6;0.0;7;0.0;
RC;ROLL;1494.0;PITCH;1501.0;YAW;1513.0;THROTTLE;1063.0;AUX1;1534.0;AUX2;1500.0;AUX3;1500.0;AUX4;1500.0
ALTITUDE;56.0
DEBUG;DEBUG10.0;DEBUG2;0.0;DEBUG3;56.0;DEBUG4;0.0
ATTITUDE;ANGX;-8.0;ANGY;-9.0;HEAD;-113.0
STATUS;CYCLETIME;2876;I2CERR;0;PRESENT;23;MODE;2
RAW_IMU;AX;-16.0;AY;-53.0;AZ;263.0;GX;39.0;GY;24.0;GZ;0.0;MAGX;123.0;MAGY;-70.0;MAGZ;44.0
MOT;0;1000.0;1;1000.0;2;1000.0;3;1000.0;4;0.0;5;0.0;6;0.0;7;0.0;
RC;ROLL;1494.0;PITCH;1501.0;YAW;1513.0;THROTTLE;1063.0;AUX1;1534.0;AUX2;1500.0;AUX3;1500.0;AUX4;1500.0
ALTITUDE;56.0
DEBUG;DEBUG10.0;DEBUG2;0.0;DEBUG3;56.0;DEBUG4;0.0
ATTITUDE;ANGX;-3.0;ANGY;-6.0;HEAD;-112.0
STATUS;CYCLETIME;2892;I2CERR;0;PRESENT;23;MODE;2
RAW_IMU;AX;-10.0;AY;-37.0;AZ;274.0;GX;-6.0;GY;22.0;GZ;3.0;MAGX;115.0;MAGY;-70.0;MAGZ;69.0
MOT;0;1000.0;1;1000.0;2;1000.0;3;1000.0;4;0.0;5;0.0;6;0.0;7;0.0;
RC;ROLL;1496.0;PITCH;1501.0;YAW;1513.0;THROTTLE;1063.0;AUX1;1534.0;AUX2;1500.0;AUX3;1500.0;AUX4;1500.0
ALTITUDE;56.0
DEBUG;DEBUG10.0;DEBUG2;0.0;DEBUG3;56.0;DEBUG4;0.0
ATTITUDE;ANGX;-2.0;ANGY;-4.0;HEAD;-111.0
STATUS;CYCLETIME;2892;I2CERR;0;PRESENT;23;MODE;2
RAW_IMU;AX;-16.0;AY;-27.0;AZ;286.0;GX;-44.0;GY;8.0;GZ;5.0;MAGX;115.0;MAGY;-70.0;MAGZ;69.0
MOT;0;1000.0;1;1000.0;2;1000.0;3;1000.0;4;0.0;5;0.0;6;0.0;7;0.0;
RC;ROLL;1496.0;PITCH;1501.0;YAW;1513.0;THROTTLE;1063.0;AUX1;1534.0;AUX2;1500.0;AUX3;1500.0;AUX4;1500.0
ALTITUDE;56.0
DEBUG;DEBUG10.0;DEBUG2;0.0;DEBUG3;56.0;DEBUG4;0.0
ATTITUDE;ANGX;-6.0;ANGY;-2.0;HEAD;-110.0
STATUS;CYCLETIME;2944;I2CERR;0;PRESENT;23;MODE;2
RAW_IMU;AX;-23.0;AY;-23.0;AZ;287.0;GX;-60.0;GY;-2.0;GZ;4.0;MAGX;105.0;MAGY;-75.0;MAGZ;64.0
MOT;0;1000.0;1;1000.0;2;1000.0;3;1000.0;4;0.0;5;0.0;6;0.0;7;0.0;
RC;ROLL;1496.0;PITCH;1501.0;YAW;1513.0;THROTTLE;1063.0;AUX1;1534.0;AUX2;1500.0;AUX3;1500.0;AUX4;1500.0
ALTITUDE;56.0
DEBUG;DEBUG10.0;DEBUG2;0.0;DEBUG3;56.0;DEBUG4;0.0
ATTITUDE;ANGX;-12.0;ANGY;-2.0;HEAD;-110.0
STATUS;CYCLETIME;2892;I2CERR;0;PRESENT;23;MODE;2
RAW_IMU;AX;-37.0;AY;-25.0;AZ;271.0;GX;-52.0;GY;-4.0;GZ;0.0;MAGX;105.0;MAGY;-75.0;MAGZ;64.0
MOT;0;1000.0;1;1000.0;2;1000.0;3;1000.0;4;0.0;5;0.0;6;0.0;7;0.0;
RC;ROLL;1496.0;PITCH;1501.0;YAW;1513.0;THROTTLE;1063.0;AUX1;1534.0;AUX2;1500.0;AUX3;1500.0;AUX4;1500.0
ALTITUDE;56.0
DEBUG;DEBUG10.0;DEBUG2;0.0;DEBUG3;56.0;DEBUG4;0.0
ATTITUDE;ANGX;-18.0;ANGY;-3.0;HEAD;-110.0
STATUS;CYCLETIME;2876;I2CERR;0;PRESENT;23;MODE;2
RAW_IMU;AX;-47.0;AY;-34.0;AZ;257.0;GX;-29.0;GY;-4.0;GZ;0.0;MAGX;108.0;MAGY;-77.0;MAGZ;29.0
MOT;0;1000.0;1;1000.0;2;1000.0;3;1000.0;4;0.0;5;0.0;6;0.0;7;0.0;
RC;ROLL;1496.0;PITCH;1498.0;YAW;1513.0;THROTTLE;1063.0;AUX1;1534.0;AUX2;1500.0;AUX3;1500.0;AUX4;1500.0
ALTITUDE;56.0
DEBUG;DEBUG10.0;DEBUG2;0.0;DEBUG3;56.0;DEBUG4;0.0
ATTITUDE;ANGX;-22.0;ANGY;-4.0;HEAD;-110.0
STATUS;CYCLETIME;2976;I2CERR;0;PRESENT;23;MODE;2
RAW_IMU;AX;-53.0;AY;-46.0;AZ;246.0;GX;-6.0;GY;0.0;GZ;0.0;MAGX;108.0;MAGY;-77.0;MAGZ;29.0
