IDENT;V;220;TYPE;3
MSP_MOTOR_PINS
STATUS;CYCLETIME;2892;I2CERR;0;PRESENT;23;MODE;2
RAW_IMU;AX;6.0;AY;-6.0;AZ;254.0;GX;-2.0;GY;1.0;GZ;1.0;MAGX;162.0;MAGY;56.0;MAGZ;48.0
MOT;0;1000.0;1;1000.0;2;1000.0;3;1000.0;4;0.0;5;0.0;6;0.0;7;0.0;
RC;ROLL;1500.0;PITCH;1500.0;YAW;1500.0;THROTTLE;1500.0;AUX1;1500.0;AUX2;1500.0;AUX3;1500.0;AUX4;1500.0
ALTITUDE;20.0
DEBUG;DEBUG10.0;DEBUG2;0.0;DEBUG3;20.0;DEBUG4;0.0
ATTITUDE;ANGX;-8.0;ANGY;1.0;HEAD;-58.0
STATUS;CYCLETIME;2904;I2CERR;0;PRESENT;23;MODE;2
RAW_IMU;AX;5.0;AY;-6.0;AZ;256.0;GX;-2.0;GY;0.0;GZ;1.0;MAGX;162.0;MAGY;54.0;MAGZ;47.0
MOT;0;1000.0;1;1000.0;2;1000.0;3;1000.0;4;0.0;5;0.0;6;0.0;7;0.0;
RC;ROLL;1500.0;PITCH;1500.0;YAW;1500.0;THROTTLE;1500.0;AUX1;1500.0;AUX2;1500.0;AUX3;1500.0;AUX4;1500.0
ALTITUDE;20.0
DEBUG;DEBUG10.0;DEBUG2;0.0;DEBUG3;20.0;DEBUG4;0.0
ATTITUDE;ANGX;-8.0;ANGY;1.0;HEAD;-58.0
ATTITUDE;ANGX;-8.0;ANGY;1.0;HEAD;-58.0
STATUS;CYCLETIME;2996;I2CERR;0;PRESENT;23;MODE;2
RAW_IMU;AX;5.0;AY;-6.0;AZ;256.0;GX;-2.0;GY;1.0;GZ;1.0;MAGX;162.0;MAGY;55.0;MAGZ;48.0
MOT;0;1000.0;1;1000.0;2;1000.0;3;1000.0;4;0.0;5;0.0;6;0.0;7;0.0;
RC;ROLL;1500.0;PITCH;1500.0;YAW;1500.0;THROTTLE;1500.0;AUX1;1500.0;AUX2;1500.0;AUX3;1500.0;AUX4;1500.0
ALTITUDE;20.0
DEBUG;DEBUG10.0;DEBUG2;0.0;DEBUG3;20.0;DEBUG4;0.0
ATTITUDE;ANGX;-8.0;ANGY;1.0;HEAD;-58.0
STATUS;CYCLETIME;2892;I2CERR;0;PRESENT;23;MODE;2
RAW_IMU;AX;6.0;AY;-7.0;AZ;255.0;GX;-2.0;GY;1.0;GZ;1.0;MAGX;162.0;MAGY;55.0;MAGZ;48.0
MOT;0;1000.0;1;1000.0;2;1000.0;3;1000.0;4;0.0;5;0.0;6;0.0;7;0.0;
RC;ROLL;1500.0;PITCH;1500.0;YAW;1500.0;THROTTLE;1500.0;AUX1;1500.0;AUX2;1500.0;AUX3;1500.0;AUX4;1500.0
ALTITUDE;20.0
DEBUG;DEBUG10.0;DEBUG2;0.0;DEBUG3;20.0;DEBUG4;0.0
ATTITUDE;ANGX;-8.0;ANGY;1.0;HEAD;-58.0
STATUS;CYCLETIME;3164;I2CERR;0;PRESENT;23;MODE;2
RAW_IMU;AX;8.0;AY;-5.0;AZ;255.0;GX;-2.0;GY;0.0;GZ;1.0;MAGX;163.0;MAGY;55.0;MAGZ;48.0
MOT;0;1000.0;1;1000.0;2;1000.0;3;1000.0;4;0.0;5;0.0;6;0.0;7;0.0;
RC;ROLL;1500.0;PITCH;1500.0;YAW;1500.0;THROTTLE;1500.0;AUX1;1500.0;AUX2;1500.0;AUX3;1500.0;AUX4;1500.0
ALTITUDE;20.0
DEBUG;DEBUG10.0;DEBUG2;0.0;DEBUG3;20.0;DEBUG4;0.0
ATTITUDE;ANGX;-8.0;ANGY;1.0;HEAD;-58.0
STATUS;CYCLETIME;2980;I2CERR;0;PRESENT;23;MODE;2
RAW_IMU;AX;7.0;AY;-4.0;AZ;257.0;GX;-2.0;GY;1.0;GZ;1.0;MAGX;163.0;MAGY;55.0;MAGZ;48.0
MOT;0;1000.0;1;1000.0;2;1000.0;3;1000.0;4;0.0;5;0.0;6;0.0;7;0.0;
RC;ROLL;1500.0;PITCH;1500.0;YAW;1500.0;THROTTLE;1500.0;AUX1;1500.0;AUX2;1500.0;AUX3;1500.0;AUX4;1500.0
ALTITUDE;20.0
DEBUG;DEBUG10.0;DEBUG2;0.0;DEBUG3;20.0;DEBUG4;0.0
ATTITUDE;ANGX;-8.0;ANGY;1.0;HEAD;-58.0
STATUS;CYCLETIME;2888;I2CERR;0;PRESENT;23;MODE;2
RAW_IMU;AX;5.0;AY;-5.0;AZ;256.0;GX;-2.0;GY;1.0;GZ;1.0;MAGX;163.0;MAGY;55.0;MAGZ;48.0
MOT;0;1000.0;1;1000.0;2;1000.0;3;1000.0;4;0.0;5;0.0;6;0.0;7;0.0;
RC;ROLL;1500.0;PITCH;1500.0;YAW;1500.0;THROTTLE;1500.0;AUX1;1500.0;AUX2;1500.0;AUX3;1500.0;AUX4;1500.0
ALTITUDE;20.0
DEBUG;DEBUG10.0;DEBUG2;0.0;DEBUG3;20.0;DEBUG4;0.0
ATTITUDE;ANGX;-8.0;ANGY;1.0;HEAD;-58.0
STATUS;CYCLETIME;2896;I2CERR;0;PRESENT;23;MODE;2
RAW_IMU;AX;6.0;AY;-5.0;AZ;256.0;GX;-2.0;GY;1.0;GZ;1.0;MAGX;162.0;MAGY;55.0;MAGZ;47.0
MOT;0;1000.0;1;1000.0;2;1000.0;3;1000.0;4;0.0;5;0.0;6;0.0;7;0.0;
RC;ROLL;1500.0;PITCH;1500.0;YAW;1500.0;THROTTLE;1500.0;AUX1;1500.0;AUX2;1500.0;AUX3;1500.0;AUX4;1500.0
ALTITUDE;20.0
DEBUG;DEBUG10.0;DEBUG2;0.0;DEBUG3;20.0;DEBUG4;0.0
ATTITUDE;ANGX;-8.0;ANGY;1.0;HEAD;-58.0
STATUS;CYCLETIME;2996;I2CERR;0;PRESENT;23;MODE;2
RAW_IMU;AX;5.0;AY;-5.0;AZ;257.0;GX;-2.0;GY;0.0;GZ;1.0;MAGX;162.0;MAGY;55.0;MAGZ;47.0
MOT;0;1000.0;1;1000.0;2;1000.0;3;1000.0;4;0.0;5;0.0;6;0.0;7;0.0;
RC;ROLL;1500.0;PITCH;1500.0;YAW;1500.0;THROTTLE;1500.0;AUX1;1500.0;AUX2;1500.0;AUX3;1500.0;AUX4;1500.0
ALTITUDE;20.0
DEBUG;DEBUG10.0;DEBUG2;0.0;DEBUG3;20.0;DEBUG4;0.0
ATTITUDE;ANGX;-8.0;ANGY;1.0;HEAD;-58.0
STATUS;CYCLETIME;2892;I2CERR;0;PRESENT;23;MODE;2
RAW_IMU;AX;5.0;AY;-5.0;AZ;259.0;GX;-2.0;GY;1.0;GZ;1.0;MAGX;163.0;MAGY;55.0;MAGZ;47.0
MOT;0;1000.0;1;1000.0;2;1000.0;3;1000.0;4;0.0;5;0.0;6;0.0;7;0.0;
RC;ROLL;1500.0;PITCH;1500.0;YAW;1500.0;THROTTLE;1500.0;AUX1;1500.0;AUX2;1500.0;AUX3;1500.0;AUX4;1500.0
ALTITUDE;20.0
DEBUG;DEBUG10.0;DEBUG2;0.0;DEBUG3;20.0;DEBUG4;0.0
ATTITUDE;ANGX;-8.0;ANGY;1.0;HEAD;-58.0
STATUS;CYCLETIME;2888;I2CERR;0;PRESENT;23;MODE;2
RAW_IMU;AX;6.0;AY;-5.0;AZ;257.0;GX;-2.0;GY;1.0;GZ;1.0;MAGX;163.0;MAGY;55.0;MAGZ;47.0
MOT;0;1000.0;1;1000.0;2;1000.0;3;1000.0;4;0.0;5;0.0;6;0.0;7;0.0;
RC;ROLL;1500.0;PITCH;1500.0;YAW;1500.0;THROTTLE;1500.0;AUX1;1500.0;AUX2;1500.0;AUX3;1500.0;AUX4;1500.0
ALTITUDE;20.0
DEBUG;DEBUG10.0;DEBUG2;0.0;DEBUG3;20.0;DEBUG4;0.0
ATTITUDE;ANGX;-8.0;ANGY;1.0;HEAD;-58.0
STATUS;CYCLETIME;2884;I2CERR;0;PRESENT;23;MODE;2
RAW_IMU;AX;4.0;AY;-6.0;AZ;255.0;GX;-2.0;GY;1.0;GZ;1.0;MAGX;162.0;MAGY;55.0;MAGZ;48.0
MOT;0;1000.0;1;1000.0;2;1000.0;3;1000.0;4;0.0;5;0.0;6;0.0;7;0.0;
RC;ROLL;1500.0;PITCH;1500.0;YAW;1500.0;THROTTLE;1500.0;AUX1;1500.0;AUX2;1500.0;AUX3;1500.0;AUX4;1500.0
ALTITUDE;20.0
DEBUG;DEBUG10.0;DEBUG2;0.0;DEBUG3;20.0;DEBUG4;0.0
ATTITUDE;ANGX;-8.0;ANGY;1.0;HEAD;-58.0
STATUS;CYCLETIME;2896;I2CERR;0;PRESENT;23;MODE;2
RAW_IMU;AX;5.0;AY;-7.0;AZ;256.0;GX;-2.0;GY;1.0;GZ;1.0;MAGX;162.0;MAGY;55.0;MAGZ;48.0
MOT;0;1000.0;1;1000.0;2;1000.0;3;1000.0;4;0.0;5;0.0;6;0.0;7;0.0;
RC;ROLL;1500.0;PITCH;1500.0;YAW;1500.0;THROTTLE;1500.0;AUX1;1500.0;AUX2;1500.0;AUX3;1500.0;AUX4;1500.0
ALTITUDE;20.0
DEBUG;DEBUG10.0;DEBUG2;0.0;DEBUG3;20.0;DEBUG4;0.0
ATTITUDE;ANGX;-8.0;ANGY;1.0;HEAD;-58.0
STATUS;CYCLETIME;2884;I2CERR;0;PRESENT;23;MODE;2
RAW_IMU;AX;6.0;AY;-5.0;AZ;255.0;GX;-2.0;GY;1.0;GZ;1.0;MAGX;162.0;MAGY;56.0;MAGZ;49.0
MOT;0;1000.0;1;1000.0;2;1000.0;3;1000.0;4;0.0;5;0.0;6;0.0;7;0.0;
RC;ROLL;1500.0;PITCH;1500.0;YAW;1500.0;THROTTLE;1500.0;AUX1;1500.0;AUX2;1500.0;AUX3;1500.0;AUX4;1500.0
ALTITUDE;20.0
DEBUG;DEBUG10.0;DEBUG2;0.0;DEBUG3;20.0;DEBUG4;0.0
ATTITUDE;ANGX;-8.0;ANGY;1.0;HEAD;-58.0
STATUS;CYCLETIME;2884;I2CERR;0;PRESENT;23;MODE;2
RAW_IMU;AX;8.0;AY;-7.0;AZ;254.0;GX;-2.0;GY;0.0;GZ;1.0;MAGX;162.0;MAGY;56.0;MAGZ;49.0
MOT;0;1000.0;1;1000.0;2;1000.0;3;1000.0;4;0.0;5;0.0;6;0.0;7;0.0;
RC;ROLL;1500.0;PITCH;1500.0;YAW;1500.0;THROTTLE;1500.0;AUX1;1500.0;AUX2;1500.0;AUX3;1500.0;AUX4;1500.0
ALTITUDE;20.0
DEBUG;DEBUG10.0;DEBUG2;0.0;DEBUG3;20.0;DEBUG4;0.0
ATTITUDE;ANGX;-8.0;ANGY;1.0;HEAD;-58.0
STATUS;CYCLETIME;2876;I2CERR;0;PRESENT;23;MODE;2
RAW_IMU;AX;7.0;AY;-5.0;AZ;254.0;GX;-2.0;GY;0.0;GZ;0.0;MAGX;162.0;MAGY;56.0;MAGZ;48.0
MOT;0;1000.0;1;1000.0;2;1000.0;3;1000.0;4;0.0;5;0.0;6;0.0;7;0.0;
RC;ROLL;1500.0;PITCH;1500.0;YAW;1500.0;THROTTLE;1500.0;AUX1;1500.0;AUX2;1500.0;AUX3;1500.0;AUX4;1500.0
ALTITUDE;20.0
DEBUG;DEBUG10.0;DEBUG2;0.0;DEBUG3;20.0;DEBUG4;0.0
ATTITUDE;ANGX;-8.0;ANGY;1.0;HEAD;-58.0
STATUS;CYCLETIME;3000;I2CERR;0;PRESENT;23;MODE;2
RAW_IMU;AX;7.0;AY;-4.0;AZ;257.0;GX;-2.0;GY;1.0;GZ;1.0;MAGX;162.0;MAGY;56.0;MAGZ;48.0
MOT;0;1000.0;1;1000.0;2;1000.0;3;1000.0;4;0.0;5;0.0;6;0.0;7;0.0;
RC;ROLL;1500.0;PITCH;1500.0;YAW;1500.0;THROTTLE;1500.0;AUX1;1500.0;AUX2;1500.0;AUX3;1500.0;AUX4;1500.0
ALTITUDE;20.0
DEBUG;DEBUG10.0;DEBUG2;0.0;DEBUG3;20.0;DEBUG4;0.0
ATTITUDE;ANGX;-8.0;ANGY;1.0;HEAD;-58.0
STATUS;CYCLETIME;2888;I2CERR;0;PRESENT;23;MODE;2
RAW_IMU;AX;7.0;AY;-5.0;AZ;258.0;GX;-2.0;GY;0.0;GZ;1.0;MAGX;162.0;MAGY;56.0;MAGZ;48.0
MOT;0;1000.0;1;1000.0;2;1000.0;3;1000.0;4;0.0;5;0.0;6;0.0;7;0.0;
RC;ROLL;1500.0;PITCH;1500.0;YAW;1500.0;THROTTLE;1500.0;AUX1;1500.0;AUX2;1500.0;AUX3;1500.0;AUX4;1500.0
ALTITUDE;20.0
DEBUG;DEBUG10.0;DEBUG2;0.0;DEBUG3;20.0;DEBUG4;0.0
ATTITUDE;ANGX;-8.0;ANGY;1.0;HEAD;-58.0
STATUS;CYCLETIME;2888;I2CERR;0;PRESENT;23;MODE;2
RAW_IMU;AX;7.0;AY;-7.0;AZ;257.0;GX;-2.0;GY;1.0;GZ;1.0;MAGX;162.0;MAGY;56.0;MAGZ;47.0
MOT;0;1000.0;1;1000.0;2;1000.0;3;1000.0;4;0.0;5;0.0;6;0.0;7;0.0;
RC;ROLL;1500.0;PITCH;1500.0;YAW;1500.0;THROTTLE;1500.0;AUX1;1500.0;AUX2;1500.0;AUX3;1500.0;AUX4;1500.0
ALTITUDE;20.0
DEBUG;DEBUG10.0;DEBUG2;0.0;DEBUG3;20.0;DEBUG4;0.0
ATTITUDE;ANGX;-8.0;ANGY;1.0;HEAD;-58.0
STATUS;CYCLETIME;2876;I2CERR;0;PRESENT;23;MODE;2
RAW_IMU;AX;7.0;AY;-6.0;AZ;255.0;GX;-2.0;GY;1.0;GZ;1.0;MAGX;162.0;MAGY;56.0;MAGZ;47.0
MOT;0;1000.0;1;1000.0;2;1000.0;3;1000.0;4;0.0;5;0.0;6;0.0;7;0.0;
RC;ROLL;1500.0;PITCH;1500.0;YAW;1500.0;THROTTLE;1500.0;AUX1;1500.0;AUX2;1500.0;AUX3;1500.0;AUX4;1500.0
ALTITUDE;20.0
DEBUG;DEBUG10.0;DEBUG2;0.0;DEBUG3;20.0;DEBUG4;0.0
ATTITUDE;ANGX;-8.0;ANGY;1.0;HEAD;-58.0
STATUS;CYCLETIME;2896;I2CERR;0;PRESENT;23;MODE;2
RAW_IMU;AX;8.0;AY;-5.0;AZ;256.0;GX;-2.0;GY;1.0;GZ;1.0;MAGX;163.0;MAGY;55.0;MAGZ;48.0
MOT;0;1000.0;1;1000.0;2;1000.0;3;1000.0;4;0.0;5;0.0;6;0.0;7;0.0;
RC;ROLL;1500.0;PITCH;1500.0;YAW;1500.0;THROTTLE;1500.0;AUX1;1500.0;AUX2;1500.0;AUX3;1500.0;AUX4;1500.0
ALTITUDE;20.0
DEBUG;DEBUG10.0;DEBUG2;0.0;DEBUG3;20.0;DEBUG4;0.0
ATTITUDE;ANGX;-8.0;ANGY;1.0;HEAD;-58.0
STATUS;CYCLETIME;2996;I2CERR;0;PRESENT;23;MODE;2
RAW_IMU;AX;7.0;AY;-3.0;AZ;257.0;GX;-2.0;GY;1.0;GZ;1.0;MAGX;163.0;MAGY;55.0;MAGZ;48.0
MOT;0;1000.0;1;1000.0;2;1000.0;3;1000.0;4;0.0;5;0.0;6;0.0;7;0.0;
RC;ROLL;1500.0;PITCH;1500.0;YAW;1500.0;THROTTLE;1500.0;AUX1;1500.0;AUX2;1500.0;AUX3;1500.0;AUX4;1500.0
ALTITUDE;20.0
DEBUG;DEBUG10.0;DEBUG2;0.0;DEBUG3;20.0;DEBUG4;0.0
ATTITUDE;ANGX;-8.0;ANGY;1.0;HEAD;-58.0
STATUS;CYCLETIME;2888;I2CERR;0;PRESENT;23;MODE;2
RAW_IMU;AX;7.0;AY;-4.0;AZ;255.0;GX;-2.0;GY;0.0;GZ;1.0;MAGX;163.0;MAGY;55.0;MAGZ;47.0
MOT;0;1000.0;1;1000.0;2;1000.0;3;1000.0;4;0.0;5;0.0;6;0.0;7;0.0;
RC;ROLL;1500.0;PITCH;1500.0;YAW;1500.0;THROTTLE;1500.0;AUX1;1500.0;AUX2;1500.0;AUX3;1500.0;AUX4;1500.0
ALTITUDE;20.0
DEBUG;DEBUG10.0;DEBUG2;0.0;DEBUG3;20.0;DEBUG4;0.0
ATTITUDE;ANGX;-8.0;ANGY;1.0;HEAD;-58.0
STATUS;CYCLETIME;2884;I2CERR;0;PRESENT;23;MODE;2
RAW_IMU;AX;6.0;AY;-3.0;AZ;257.0;GX;-3.0;GY;1.0;GZ;1.0;MAGX;163.0;MAGY;55.0;MAGZ;47.0
MOT;0;1000.0;1;1000.0;2;1000.0;3;1000.0;4;0.0;5;0.0;6;0.0;7;0.0;
RC;ROLL;1500.0;PITCH;1500.0;YAW;1500.0;THROTTLE;1500.0;AUX1;1500.0;AUX2;1500.0;AUX3;1500.0;AUX4;1500.0
ALTITUDE;20.0
DEBUG;DEBUG10.0;DEBUG2;0.0;DEBUG3;20.0;DEBUG4;0.0
ATTITUDE;ANGX;-8.0;ANGY;1.0;HEAD;-58.0
STATUS;CYCLETIME;2884;I2CERR;0;PRESENT;23;MODE;2
RAW_IMU;AX;6.0;AY;-4.0;AZ;253.0;GX;-2.0;GY;1.0;GZ;1.0;MAGX;162.0;MAGY;55.0;MAGZ;48.0
MOT;0;1000.0;1;1000.0;2;1000.0;3;1000.0;4;0.0;5;0.0;6;0.0;7;0.0;
RC;ROLL;1500.0;PITCH;1500.0;YAW;1500.0;THROTTLE;1500.0;AUX1;1500.0;AUX2;1500.0;AUX3;1500.0;AUX4;1500.0
ALTITUDE;20.0
DEBUG;DEBUG10.0;DEBUG2;0.0;DEBUG3;20.0;DEBUG4;0.0
ATTITUDE;ANGX;-8.0;ANGY;1.0;HEAD;-58.0
STATUS;CYCLETIME;2884;I2CERR;0;PRESENT;23;MODE;2
RAW_IMU;AX;7.0;AY;-4.0;AZ;256.0;GX;-2.0;GY;1.0;GZ;1.0;MAGX;162.0;MAGY;55.0;MAGZ;48.0
MOT;0;1000.0;1;1000.0;2;1000.0;3;1000.0;4;0.0;5;0.0;6;0.0;7;0.0;
RC;ROLL;1500.0;PITCH;1500.0;YAW;1500.0;THROTTLE;1500.0;AUX1;1500.0;AUX2;1500.0;AUX3;1500.0;AUX4;1500.0
ALTITUDE;20.0
DEBUG;DEBUG10.0;DEBUG2;0.0;DEBUG3;20.0;DEBUG4;0.0
ATTITUDE;ANGX;-8.0;ANGY;1.0;HEAD;-58.0
STATUS;CYCLETIME;2896;I2CERR;0;PRESENT;23;MODE;2
RAW_IMU;AX;6.0;AY;-6.0;AZ;256.0;GX;-2.0;GY;1.0;GZ;1.0;MAGX;163.0;MAGY;56.0;MAGZ;48.0
MOT;0;1000.0;1;1000.0;2;1000.0;3;1000.0;4;0.0;5;0.0;6;0.0;7;0.0;
RC;ROLL;1500.0;PITCH;1500.0;YAW;1500.0;THROTTLE;1500.0;AUX1;1500.0;AUX2;1500.0;AUX3;1500.0;AUX4;1500.0
ALTITUDE;20.0
DEBUG;DEBUG10.0;DEBUG2;0.0;DEBUG3;20.0;DEBUG4;0.0
ATTITUDE;ANGX;-8.0;ANGY;1.0;HEAD;-58.0
STATUS;CYCLETIME;2880;I2CERR;0;PRESENT;23;MODE;2
RAW_IMU;AX;7.0;AY;-5.0;AZ;255.0;GX;-2.0;GY;0.0;GZ;0.0;MAGX;163.0;MAGY;56.0;MAGZ;48.0
MOT;0;1000.0;1;1000.0;2;1000.0;3;1000.0;4;0.0;5;0.0;6;0.0;7;0.0;
RC;ROLL;1500.0;PITCH;1500.0;YAW;1500.0;THROTTLE;1500.0;AUX1;1500.0;AUX2;1500.0;AUX3;1500.0;AUX4;1500.0
ALTITUDE;20.0
DEBUG;DEBUG10.0;DEBUG2;0.0;DEBUG3;20.0;DEBUG4;0.0
ATTITUDE;ANGX;-8.0;ANGY;1.0;HEAD;-58.0
STATUS;CYCLETIME;2984;I2CERR;0;PRESENT;23;MODE;2
RAW_IMU;AX;7.0;AY;-7.0;AZ;256.0;GX;-2.0;GY;0.0;GZ;1.0;MAGX;163.0;MAGY;55.0;MAGZ;48.0
MOT;0;1000.0;1;1000.0;2;1000.0;3;1000.0;4;0.0;5;0.0;6;0.0;7;0.0;
RC;ROLL;1500.0;PITCH;1500.0;YAW;1500.0;THROTTLE;1500.0;AUX1;1500.0;AUX2;1500.0;AUX3;1500.0;AUX4;1500.0
ALTITUDE;20.0
DEBUG;DEBUG10.0;DEBUG2;0.0;DEBUG3;20.0;DEBUG4;0.0
ATTITUDE;ANGX;-8.0;ANGY;1.0;HEAD;-58.0
STATUS;CYCLETIME;2876;I2CERR;0;PRESENT;23;MODE;2
RAW_IMU;AX;8.0;AY;-5.0;AZ;256.0;GX;-2.0;GY;1.0;GZ;1.0;MAGX;163.0;MAGY;55.0;MAGZ;48.0
MOT;0;1000.0;1;1000.0;2;1000.0;3;1000.0;4;0.0;5;0.0;6;0.0;7;0.0;
RC;ROLL;1500.0;PITCH;1500.0;YAW;1500.0;THROTTLE;1500.0;AUX1;1500.0;AUX2;1500.0;AUX3;1500.0;AUX4;1500.0
ALTITUDE;20.0
DEBUG;DEBUG10.0;DEBUG2;0.0;DEBUG3;20.0;DEBUG4;0.0
ATTITUDE;ANGX;-8.0;ANGY;1.0;HEAD;-58.0
STATUS;CYCLETIME;2892;I2CERR;0;PRESENT;23;MODE;2
RAW_IMU;AX;8.0;AY;-6.0;AZ;257.0;GX;-2.0;GY;1.0;GZ;1.0;MAGX;162.0;MAGY;55.0;MAGZ;48.0
MOT;0;1000.0;1;1000.0;2;1000.0;3;1000.0;4;0.0;5;0.0;6;0.0;7;0.0;
RC;ROLL;1500.0;PITCH;1500.0;YAW;1500.0;THROTTLE;1500.0;AUX1;1500.0;AUX2;1500.0;AUX3;1500.0;AUX4;1500.0
ALTITUDE;20.0
DEBUG;DEBUG10.0;DEBUG2;0.0;DEBUG3;20.0;DEBUG4;0.0
ATTITUDE;ANGX;-8.0;ANGY;1.0;HEAD;-58.0
STATUS;CYCLETIME;2980;I2CERR;0;PRESENT;23;MODE;2
RAW_IMU;AX;7.0;AY;-4.0;AZ;257.0;GX;-2.0;GY;1.0;GZ;1.0;MAGX;162.0;MAGY;55.0;MAGZ;48.0
MOT;0;1000.0;1;1000.0;2;1000.0;3;1000.0;4;0.0;5;0.0;6;0.0;7;0.0;
RC;ROLL;1500.0;PITCH;1500.0;YAW;1500.0;THROTTLE;1500.0;AUX1;1500.0;AUX2;1500.0;AUX3;1500.0;AUX4;1500.0
ALTITUDE;20.0
DEBUG;DEBUG10.0;DEBUG2;0.0;DEBUG3;20.0;DEBUG4;0.0
ATTITUDE;ANGX;-8.0;ANGY;1.0;HEAD;-58.0
STATUS;CYCLETIME;2892;I2CERR;0;PRESENT;23;MODE;2
RAW_IMU;AX;8.0;AY;-4.0;AZ;255.0;GX;-2.0;GY;1.0;GZ;1.0;MAGX;162.0;MAGY;55.0;MAGZ;48.0
MOT;0;1000.0;1;1000.0;2;1000.0;3;1000.0;4;0.0;5;0.0;6;0.0;7;0.0;
RC;ROLL;1500.0;PITCH;1500.0;YAW;1500.0;THROTTLE;1500.0;AUX1;1500.0;AUX2;1500.0;AUX3;1500.0;AUX4;1500.0
ALTITUDE;20.0
DEBUG;DEBUG10.0;DEBUG2;0.0;DEBUG3;20.0;DEBUG4;0.0
ATTITUDE;ANGX;-8.0;ANGY;1.0;HEAD;-58.0
STATUS;CYCLETIME;2884;I2CERR;0;PRESENT;23;MODE;2
RAW_IMU;AX;8.0;AY;-8.0;AZ;256.0;GX;-2.0;GY;0.0;GZ;1.0;MAGX;162.0;MAGY;55.0;MAGZ;48.0
MOT;0;1000.0;1;1000.0;2;1000.0;3;1000.0;4;0.0;5;0.0;6;0.0;7;0.0;
RC;ROLL;1500.0;PITCH;1500.0;YAW;1500.0;THROTTLE;1500.0;AUX1;1500.0;AUX2;1500.0;AUX3;1500.0;AUX4;1500.0
ALTITUDE;20.0
DEBUG;DEBUG10.0;DEBUG2;0.0;DEBUG3;20.0;DEBUG4;0.0
ATTITUDE;ANGX;-8.0;ANGY;1.0;HEAD;-58.0
STATUS;CYCLETIME;2996;I2CERR;0;PRESENT;23;MODE;2
RAW_IMU;AX;7.0;AY;-4.0;AZ;255.0;GX;-2.0;GY;1.0;GZ;1.0;MAGX;162.0;MAGY;55.0;MAGZ;48.0
MOT;0;1000.0;1;1000.0;2;1000.0;3;1000.0;4;0.0;5;0.0;6;0.0;7;0.0;
RC;ROLL;1500.0;PITCH;1500.0;YAW;1500.0;THROTTLE;1500.0;AUX1;1500.0;AUX2;1500.0;AUX3;1500.0;AUX4;1500.0
ALTITUDE;20.0
DEBUG;DEBUG10.0;DEBUG2;0.0;DEBUG3;20.0;DEBUG4;0.0
ATTITUDE;ANGX;-8.0;ANGY;1.0;HEAD;-58.0
STATUS;CYCLETIME;2880;I2CERR;0;PRESENT;23;MODE;2
RAW_IMU;AX;6.0;AY;-5.0;AZ;255.0;GX;-2.0;GY;1.0;GZ;1.0;MAGX;162.0;MAGY;56.0;MAGZ;48.0
MOT;0;1000.0;1;1000.0;2;1000.0;3;1000.0;4;0.0;5;0.0;6;0.0;7;0.0;
RC;ROLL;1500.0;PITCH;1500.0;YAW;1500.0;THROTTLE;1500.0;AUX1;1500.0;AUX2;1500.0;AUX3;1500.0;AUX4;1500.0
ALTITUDE;20.0
DEBUG;DEBUG10.0;DEBUG2;0.0;DEBUG3;20.0;DEBUG4;0.0
ATTITUDE;ANGX;-8.0;ANGY;1.0;HEAD;-58.0
STATUS;CYCLETIME;2892;I2CERR;0;PRESENT;23;MODE;2
RAW_IMU;AX;7.0;AY;-7.0;AZ;257.0;GX;-2.0;GY;1.0;GZ;1.0;MAGX;162.0;MAGY;56.0;MAGZ;48.0
MOT;0;1000.0;1;1000.0;2;1000.0;3;1000.0;4;0.0;5;0.0;6;0.0;7;0.0;
RC;ROLL;1500.0;PITCH;1500.0;YAW;1500.0;THROTTLE;1500.0;AUX1;1500.0;AUX2;1500.0;AUX3;1500.0;AUX4;1500.0
ALTITUDE;20.0
DEBUG;DEBUG10.0;DEBUG2;0.0;DEBUG3;20.0;DEBUG4;0.0
ATTITUDE;ANGX;-8.0;ANGY;1.0;HEAD;-58.0
STATUS;CYCLETIME;2996;I2CERR;0;PRESENT;23;MODE;2
RAW_IMU;AX;8.0;AY;-7.0;AZ;256.0;GX;-2.0;GY;1.0;GZ;1.0;MAGX;163.0;MAGY;56.0;MAGZ;48.0
MOT;0;1000.0;1;1000.0;2;1000.0;3;1000.0;4;0.0;5;0.0;6;0.0;7;0.0;
RC;ROLL;1500.0;PITCH;1500.0;YAW;1500.0;THROTTLE;1500.0;AUX1;1500.0;AUX2;1500.0;AUX3;1500.0;AUX4;1500.0
ALTITUDE;20.0
DEBUG;DEBUG10.0;DEBUG2;0.0;DEBUG3;20.0;DEBUG4;0.0
ATTITUDE;ANGX;-8.0;ANGY;1.0;HEAD;-58.0
STATUS;CYCLETIME;2884;I2CERR;0;PRESENT;23;MODE;2
RAW_IMU;AX;8.0;AY;-6.0;AZ;255.0;GX;-3.0;GY;0.0;GZ;0.0;MAGX;163.0;MAGY;56.0;MAGZ;48.0
MOT;0;1000.0;1;1000.0;2;1000.0;3;1000.0;4;0.0;5;0.0;6;0.0;7;0.0;
RC;ROLL;1500.0;PITCH;1500.0;YAW;1500.0;THROTTLE;1500.0;AUX1;1500.0;AUX2;1500.0;AUX3;1500.0;AUX4;1500.0
ALTITUDE;20.0
DEBUG;DEBUG10.0;DEBUG2;0.0;DEBUG3;20.0;DEBUG4;0.0
ATTITUDE;ANGX;-8.0;ANGY;1.0;HEAD;-58.0
STATUS;CYCLETIME;2900;I2CERR;0;PRESENT;23;MODE;2
RAW_IMU;AX;6.0;AY;-6.0;AZ;256.0;GX;-2.0;GY;1.0;GZ;1.0;MAGX;162.0;MAGY;54.0;MAGZ;47.0
MOT;0;1000.0;1;1000.0;2;1000.0;3;1000.0;4;0.0;5;0.0;6;0.0;7;0.0;
RC;ROLL;1500.0;PITCH;1500.0;YAW;1500.0;THROTTLE;1500.0;AUX1;1500.0;AUX2;1500.0;AUX3;1500.0;AUX4;1500.0
ALTITUDE;20.0
DEBUG;DEBUG10.0;DEBUG2;0.0;DEBUG3;20.0;DEBUG4;0.0
ATTITUDE;ANGX;-8.0;ANGY;1.0;HEAD;-58.0
STATUS;CYCLETIME;2876;I2CERR;0;PRESENT;23;MODE;2
RAW_IMU;AX;5.0;AY;-5.0;AZ;257.0;GX;-2.0;GY;1.0;GZ;1.0;MAGX;162.0;MAGY;54.0;MAGZ;47.0
MOT;0;1000.0;1;1000.0;2;1000.0;3;1000.0;4;0.0;5;0.0;6;0.0;7;0.0;
RC;ROLL;1500.0;PITCH;1500.0;YAW;1500.0;THROTTLE;1500.0;AUX1;1500.0;AUX2;1500.0;AUX3;1500.0;AUX4;1500.0
ALTITUDE;20.0
DEBUG;DEBUG10.0;DEBUG2;0.0;DEBUG3;20.0;DEBUG4;0.0
ATTITUDE;ANGX;-8.0;ANGY;1.0;HEAD;-58.0
STATUS;CYCLETIME;2880;I2CERR;0;PRESENT;23;MODE;2
RAW_IMU;AX;7.0;AY;-6.0;AZ;257.0;GX;-2.0;GY;0.0;GZ;1.0;MAGX;162.0;MAGY;55.0;MAGZ;48.0
MOT;0;1000.0;1;1000.0;2;1000.0;3;1000.0;4;0.0;5;0.0;6;0.0;7;0.0;
RC;ROLL;1500.0;PITCH;1500.0;YAW;1500.0;THROTTLE;1500.0;AUX1;1500.0;AUX2;1500.0;AUX3;1500.0;AUX4;1500.0
ALTITUDE;20.0
DEBUG;DEBUG10.0;DEBUG2;0.0;DEBUG3;20.0;DEBUG4;0.0
ATTITUDE;ANGX;-8.0;ANGY;1.0;HEAD;-58.0
STATUS;CYCLETIME;2896;I2CERR;0;PRESENT;23;MODE;2
RAW_IMU;AX;7.0;AY;-6.0;AZ;255.0;GX;-2.0;GY;0.0;GZ;1.0;MAGX;162.0;MAGY;55.0;MAGZ;48.0
MOT;0;1000.0;1;1000.0;2;1000.0;3;1000.0;4;0.0;5;0.0;6;0.0;7;0.0;
RC;ROLL;1500.0;PITCH;1500.0;YAW;1500.0;THROTTLE;1500.0;AUX1;1500.0;AUX2;1500.0;AUX3;1500.0;AUX4;1500.0
ALTITUDE;20.0
DEBUG;DEBUG10.0;DEBUG2;0.0;DEBUG3;20.0;DEBUG4;0.0
ATTITUDE;ANGX;-8.0;ANGY;1.0;HEAD;-58.0
STATUS;CYCLETIME;2888;I2CERR;0;PRESENT;23;MODE;2
RAW_IMU;AX;5.0;AY;-4.0;AZ;256.0;GX;-2.0;GY;0.0;GZ;1.0;MAGX;162.0;MAGY;55.0;MAGZ;48.0
MOT;0;1000.0;1;1000.0;2;1000.0;3;1000.0;4;0.0;5;0.0;6;0.0;7;0.0;
RC;ROLL;1500.0;PITCH;1500.0;YAW;1500.0;THROTTLE;1500.0;AUX1;1500.0;AUX2;1500.0;AUX3;1500.0;AUX4;1500.0
ALTITUDE;20.0
DEBUG;DEBUG10.0;DEBUG2;0.0;DEBUG3;20.0;DEBUG4;0.0
ATTITUDE;ANGX;-8.0;ANGY;1.0;HEAD;-58.0
STATUS;CYCLETIME;2892;I2CERR;0;PRESENT;23;MODE;2
RAW_IMU;AX;7.0;AY;-4.0;AZ;255.0;GX;-2.0;GY;1.0;GZ;1.0;MAGX;161.0;MAGY;55.0;MAGZ;46.0
MOT;0;1000.0;1;1000.0;2;1000.0;3;1000.0;4;0.0;5;0.0;6;0.0;7;0.0;
RC;ROLL;1500.0;PITCH;1500.0;YAW;1500.0;THROTTLE;1500.0;AUX1;1500.0;AUX2;1500.0;AUX3;1500.0;AUX4;1500.0
ALTITUDE;20.0
DEBUG;DEBUG10.0;DEBUG2;0.0;DEBUG3;20.0;DEBUG4;0.0
ATTITUDE;ANGX;-8.0;ANGY;1.0;HEAD;-58.0
STATUS;CYCLETIME;2992;I2CERR;0;PRESENT;23;MODE;2
RAW_IMU;AX;7.0;AY;-3.0;AZ;255.0;GX;-2.0;GY;1.0;GZ;1.0;MAGX;161.0;MAGY;55.0;MAGZ;46.0
MOT;0;1000.0;1;1000.0;2;1000.0;3;1000.0;4;0.0;5;0.0;6;0.0;7;0.0;
RC;ROLL;1500.0;PITCH;1500.0;YAW;1500.0;THROTTLE;1500.0;AUX1;1500.0;AUX2;1500.0;AUX3;1500.0;AUX4;1500.0
ALTITUDE;20.0
DEBUG;DEBUG10.0;DEBUG2;0.0;DEBUG3;20.0;DEBUG4;0.0
ATTITUDE;ANGX;-8.0;ANGY;1.0;HEAD;-58.0
STATUS;CYCLETIME;2884;I2CERR;0;PRESENT;23;MODE;2
RAW_IMU;AX;9.0;AY;-3.0;AZ;256.0;GX;-2.0;GY;0.0;GZ;1.0;MAGX;161.0;MAGY;55.0;MAGZ;47.0
MOT;0;1000.0;1;1000.0;2;1000.0;3;1000.0;4;0.0;5;0.0;6;0.0;7;0.0;
RC;ROLL;1500.0;PITCH;1500.0;YAW;1500.0;THROTTLE;1500.0;AUX1;1500.0;AUX2;1500.0;AUX3;1500.0;AUX4;1500.0
ALTITUDE;20.0
DEBUG;DEBUG10.0;DEBUG2;0.0;DEBUG3;20.0;DEBUG4;0.0
ATTITUDE;ANGX;-8.0;ANGY;1.0;HEAD;-58.0
STATUS;CYCLETIME;2884;I2CERR;0;PRESENT;23;MODE;2
RAW_IMU;AX;8.0;AY;-5.0;AZ;257.0;GX;-2.0;GY;0.0;GZ;1.0;MAGX;161.0;MAGY;55.0;MAGZ;47.0
MOT;0;1000.0;1;1000.0;2;1000.0;3;1000.0;4;0.0;5;0.0;6;0.0;7;0.0;
RC;ROLL;1500.0;PITCH;1500.0;YAW;1500.0;THROTTLE;1500.0;AUX1;1500.0;AUX2;1500.0;AUX3;1500.0;AUX4;1500.0
ALTITUDE;20.0
DEBUG;DEBUG10.0;DEBUG2;0.0;DEBUG3;20.0;DEBUG4;0.0
ATTITUDE;ANGX;-8.0;ANGY;1.0;HEAD;-58.0
STATUS;CYCLETIME;2880;I2CERR;0;PRESENT;23;MODE;2
RAW_IMU;AX;6.0;AY;-7.0;AZ;256.0;GX;-2.0;GY;1.0;GZ;1.0;MAGX;162.0;MAGY;55.0;MAGZ;47.0
MOT;0;1000.0;1;1000.0;2;1000.0;3;1000.0;4;0.0;5;0.0;6;0.0;7;0.0;
RC;ROLL;1500.0;PITCH;1500.0;YAW;1500.0;THROTTLE;1500.0;AUX1;1500.0;AUX2;1500.0;AUX3;1500.0;AUX4;1500.0
ALTITUDE;20.0
DEBUG;DEBUG10.0;DEBUG2;0.0;DEBUG3;20.0;DEBUG4;0.0
ATTITUDE;ANGX;-8.0;ANGY;1.0;HEAD;-58.0
STATUS;CYCLETIME;2888;I2CERR;0;PRESENT;23;MODE;2
RAW_IMU;AX;6.0;AY;-6.0;AZ;257.0;GX;-2.0;GY;1.0;GZ;1.0;MAGX;162.0;MAGY;55.0;MAGZ;47.0
MOT;0;1000.0;1;1000.0;2;1000.0;3;1000.0;4;0.0;5;0.0;6;0.0;7;0.0;
RC;ROLL;1500.0;PITCH;1500.0;YAW;1500.0;THROTTLE;1500.0;AUX1;1500.0;AUX2;1500.0;AUX3;1500.0;AUX4;1500.0
ALTITUDE;20.0
DEBUG;DEBUG10.0;DEBUG2;0.0;DEBUG3;20.0;DEBUG4;0.0
ATTITUDE;ANGX;-8.0;ANGY;1.0;HEAD;-58.0
STATUS;CYCLETIME;2996;I2CERR;0;PRESENT;23;MODE;2
RAW_IMU;AX;9.0;AY;-9.0;AZ;256.0;GX;-2.0;GY;1.0;GZ;1.0;MAGX;162.0;MAGY;55.0;MAGZ;48.0
MOT;0;1000.0;1;1000.0;2;1000.0;3;1000.0;4;0.0;5;0.0;6;0.0;7;0.0;
RC;ROLL;1500.0;PITCH;1500.0;YAW;1500.0;THROTTLE;1500.0;AUX1;1500.0;AUX2;1500.0;AUX3;1500.0;AUX4;1500.0
ALTITUDE;20.0
DEBUG;DEBUG10.0;DEBUG2;0.0;DEBUG3;20.0;DEBUG4;0.0
ATTITUDE;ANGX;-8.0;ANGY;1.0;HEAD;-58.0
STATUS;CYCLETIME;2880;I2CERR;0;PRESENT;23;MODE;2
RAW_IMU;AX;8.0;AY;-8.0;AZ;257.0;GX;-2.0;GY;1.0;GZ;1.0;MAGX;162.0;MAGY;55.0;MAGZ;48.0
MOT;0;1000.0;1;1000.0;2;1000.0;3;1000.0;4;0.0;5;0.0;6;0.0;7;0.0;
RC;ROLL;1500.0;PITCH;1500.0;YAW;1500.0;THROTTLE;1500.0;AUX1;1500.0;AUX2;1500.0;AUX3;1500.0;AUX4;1500.0
ALTITUDE;20.0
DEBUG;DEBUG10.0;DEBUG2;0.0;DEBUG3;20.0;DEBUG4;0.0
ATTITUDE;ANGX;-8.0;ANGY;1.0;HEAD;-58.0
STATUS;CYCLETIME;2884;I2CERR;0;PRESENT;23;MODE;2
RAW_IMU;AX;6.0;AY;-10.0;AZ;258.0;GX;-2.0;GY;1.0;GZ;1.0;MAGX;162.0;MAGY;55.0;MAGZ;47.0
MOT;0;1000.0;1;1000.0;2;1000.0;3;1000.0;4;0.0;5;0.0;6;0.0;7;0.0;
RC;ROLL;1500.0;PITCH;1500.0;YAW;1500.0;THROTTLE;1500.0;AUX1;1500.0;AUX2;1500.0;AUX3;1500.0;AUX4;1500.0
ALTITUDE;20.0
DEBUG;DEBUG10.0;DEBUG2;0.0;DEBUG3;20.0;DEBUG4;0.0
ATTITUDE;ANGX;-8.0;ANGY;1.0;HEAD;-58.0
STATUS;CYCLETIME;2884;I2CERR;0;PRESENT;23;MODE;2
RAW_IMU;AX;6.0;AY;-7.0;AZ;255.0;GX;-2.0;GY;0.0;GZ;1.0;MAGX;162.0;MAGY;55.0;MAGZ;47.0
MOT;0;1000.0;1;1000.0;2;1000.0;3;1000.0;4;0.0;5;0.0;6;0.0;7;0.0;
RC;ROLL;1500.0;PITCH;1500.0;YAW;1500.0;THROTTLE;1500.0;AUX1;1500.0;AUX2;1500.0;AUX3;1500.0;AUX4;1500.0
ALTITUDE;20.0
DEBUG;DEBUG10.0;DEBUG2;0.0;DEBUG3;20.0;DEBUG4;0.0
ATTITUDE;ANGX;-8.0;ANGY;1.0;HEAD;-58.0
STATUS;CYCLETIME;3164;I2CERR;0;PRESENT;23;MODE;2
RAW_IMU;AX;6.0;AY;-7.0;AZ;254.0;GX;-2.0;GY;1.0;GZ;1.0;MAGX;162.0;MAGY;54.0;MAGZ;47.0
MOT;0;1000.0;1;1000.0;2;1000.0;3;1000.0;4;0.0;5;0.0;6;0.0;7;0.0;
RC;ROLL;1500.0;PITCH;1500.0;YAW;1500.0;THROTTLE;1500.0;AUX1;1500.0;AUX2;1500.0;AUX3;1500.0;AUX4;1500.0
ALTITUDE;20.0
DEBUG;DEBUG10.0;DEBUG2;0.0;DEBUG3;20.0;DEBUG4;0.0
ATTITUDE;ANGX;-8.0;ANGY;1.0;HEAD;-58.0
STATUS;CYCLETIME;2880;I2CERR;0;PRESENT;23;MODE;2
RAW_IMU;AX;7.0;AY;-6.0;AZ;254.0;GX;-2.0;GY;0.0;GZ;1.0;MAGX;162.0;MAGY;54.0;MAGZ;47.0
MOT;0;1000.0;1;1000.0;2;1000.0;3;1000.0;4;0.0;5;0.0;6;0.0;7;0.0;
RC;ROLL;1500.0;PITCH;1500.0;YAW;1500.0;THROTTLE;1500.0;AUX1;1500.0;AUX2;1500.0;AUX3;1500.0;AUX4;1500.0
ALTITUDE;20.0
DEBUG;DEBUG10.0;DEBUG2;0.0;DEBUG3;20.0;DEBUG4;0.0
ATTITUDE;ANGX;-8.0;ANGY;1.0;HEAD;-58.0
STATUS;CYCLETIME;2880;I2CERR;0;PRESENT;23;MODE;2
RAW_IMU;AX;8.0;AY;-6.0;AZ;256.0;GX;-2.0;GY;1.0;GZ;1.0;MAGX;162.0;MAGY;54.0;MAGZ;47.0
MOT;0;1000.0;1;1000.0;2;1000.0;3;1000.0;4;0.0;5;0.0;6;0.0;7;0.0;
RC;ROLL;1500.0;PITCH;1500.0;YAW;1500.0;THROTTLE;1500.0;AUX1;1500.0;AUX2;1500.0;AUX3;1500.0;AUX4;1500.0
ALTITUDE;20.0
DEBUG;DEBUG10.0;DEBUG2;0.0;DEBUG3;20.0;DEBUG4;0.0
ATTITUDE;ANGX;-8.0;ANGY;1.0;HEAD;-58.0
STATUS;CYCLETIME;2900;I2CERR;0;PRESENT;23;MODE;2
RAW_IMU;AX;8.0;AY;-5.0;AZ;256.0;GX;-2.0;GY;1.0;GZ;1.0;MAGX;161.0;MAGY;55.0;MAGZ;47.0
MOT;0;1000.0;1;1000.0;2;1000.0;3;1000.0;4;0.0;5;0.0;6;0.0;7;0.0;
RC;ROLL;1500.0;PITCH;1500.0;YAW;1500.0;THROTTLE;1500.0;AUX1;1500.0;AUX2;1500.0;AUX3;1500.0;AUX4;1500.0
ALTITUDE;20.0
DEBUG;DEBUG10.0;DEBUG2;0.0;DEBUG3;20.0;DEBUG4;0.0
ATTITUDE;ANGX;-8.0;ANGY;1.0;HEAD;-58.0
STATUS;CYCLETIME;2992;I2CERR;0;PRESENT;23;MODE;2
RAW_IMU;AX;6.0;AY;-5.0;AZ;257.0;GX;-2.0;GY;0.0;GZ;1.0;MAGX;161.0;MAGY;55.0;MAGZ;47.0
MOT;0;1000.0;1;1000.0;2;1000.0;3;1000.0;4;0.0;5;0.0;6;0.0;7;0.0;
RC;ROLL;1500.0;PITCH;1500.0;YAW;1500.0;THROTTLE;1500.0;AUX1;1500.0;AUX2;1500.0;AUX3;1500.0;AUX4;1500.0
ALTITUDE;20.0
DEBUG;DEBUG10.0;DEBUG2;0.0;DEBUG3;20.0;DEBUG4;0.0
ATTITUDE;ANGX;-8.0;ANGY;1.0;HEAD;-58.0
STATUS;CYCLETIME;2884;I2CERR;0;PRESENT;23;MODE;2
RAW_IMU;AX;5.0;AY;-6.0;AZ;258.0;GX;-2.0;GY;1.0;GZ;1.0;MAGX;161.0;MAGY;56.0;MAGZ;46.0
MOT;0;1000.0;1;1000.0;2;1000.0;3;1000.0;4;0.0;5;0.0;6;0.0;7;0.0;
RC;ROLL;1500.0;PITCH;1500.0;YAW;1500.0;THROTTLE;1500.0;AUX1;1500.0;AUX2;1500.0;AUX3;1500.0;AUX4;1500.0
ALTITUDE;20.0
DEBUG;DEBUG10.0;DEBUG2;0.0;DEBUG3;20.0;DEBUG4;0.0
ATTITUDE;ANGX;-8.0;ANGY;1.0;HEAD;-58.0
STATUS;CYCLETIME;2988;I2CERR;0;PRESENT;23;MODE;2
RAW_IMU;AX;7.0;AY;-4.0;AZ;256.0;GX;-2.0;GY;1.0;GZ;1.0;MAGX;161.0;MAGY;56.0;MAGZ;46.0
MOT;0;1000.0;1;1000.0;2;1000.0;3;1000.0;4;0.0;5;0.0;6;0.0;7;0.0;
RC;ROLL;1500.0;PITCH;1500.0;YAW;1500.0;THROTTLE;1500.0;AUX1;1500.0;AUX2;1500.0;AUX3;1500.0;AUX4;1500.0
ALTITUDE;20.0
DEBUG;DEBUG10.0;DEBUG2;0.0;DEBUG3;20.0;DEBUG4;0.0
ATTITUDE;ANGX;-8.0;ANGY;1.0;HEAD;-58.0
STATUS;CYCLETIME;2892;I2CERR;0;PRESENT;23;MODE;2
RAW_IMU;AX;7.0;AY;-4.0;AZ;257.0;GX;-2.0;GY;1.0;GZ;0.0;MAGX;163.0;MAGY;57.0;MAGZ;48.0
MOT;0;1000.0;1;1000.0;2;1000.0;3;1000.0;4;0.0;5;0.0;6;0.0;7;0.0;
RC;ROLL;1500.0;PITCH;1500.0;YAW;1500.0;THROTTLE;1500.0;AUX1;1500.0;AUX2;1500.0;AUX3;1500.0;AUX4;1500.0
ALTITUDE;20.0
DEBUG;DEBUG10.0;DEBUG2;0.0;DEBUG3;20.0;DEBUG4;0.0
ATTITUDE;ANGX;-8.0;ANGY;1.0;HEAD;-58.0
STATUS;CYCLETIME;2900;I2CERR;0;PRESENT;23;MODE;2
RAW_IMU;AX;7.0;AY;-4.0;AZ;258.0;GX;-2.0;GY;1.0;GZ;1.0;MAGX;163.0;MAGY;57.0;MAGZ;48.0
MOT;0;1000.0;1;1000.0;2;1000.0;3;1000.0;4;0.0;5;0.0;6;0.0;7;0.0;
RC;ROLL;1500.0;PITCH;1500.0;YAW;1500.0;THROTTLE;1500.0;AUX1;1500.0;AUX2;1500.0;AUX3;1500.0;AUX4;1500.0
ALTITUDE;20.0
DEBUG;DEBUG10.0;DEBUG2;0.0;DEBUG3;20.0;DEBUG4;0.0
ATTITUDE;ANGX;-8.0;ANGY;1.0;HEAD;-58.0
STATUS;CYCLETIME;2988;I2CERR;0;PRESENT;23;MODE;2
RAW_IMU;AX;6.0;AY;-4.0;AZ;259.0;GX;-2.0;GY;1.0;GZ;1.0;MAGX;161.0;MAGY;55.0;MAGZ;47.0
MOT;0;1000.0;1;1000.0;2;1000.0;3;1000.0;4;0.0;5;0.0;6;0.0;7;0.0;
RC;ROLL;1500.0;PITCH;1500.0;YAW;1500.0;THROTTLE;1500.0;AUX1;1500.0;AUX2;1500.0;AUX3;1500.0;AUX4;1500.0
ALTITUDE;20.0
DEBUG;DEBUG10.0;DEBUG2;0.0;DEBUG3;20.0;DEBUG4;0.0
ATTITUDE;ANGX;-8.0;ANGY;1.0;HEAD;-58.0
STATUS;CYCLETIME;2888;I2CERR;0;PRESENT;23;MODE;2
RAW_IMU;AX;5.0;AY;-7.0;AZ;256.0;GX;-2.0;GY;0.0;GZ;1.0;MAGX;161.0;MAGY;55.0;MAGZ;47.0
MOT;0;1000.0;1;1000.0;2;1000.0;3;1000.0;4;0.0;5;0.0;6;0.0;7;0.0;
RC;ROLL;1500.0;PITCH;1500.0;YAW;1500.0;THROTTLE;1500.0;AUX1;1500.0;AUX2;1500.0;AUX3;1500.0;AUX4;1500.0
ALTITUDE;20.0
DEBUG;DEBUG10.0;DEBUG2;0.0;DEBUG3;20.0;DEBUG4;0.0
ATTITUDE;ANGX;-8.0;ANGY;1.0;HEAD;-58.0
STATUS;CYCLETIME;2932;I2CERR;0;PRESENT;23;MODE;2
RAW_IMU;AX;5.0;AY;-5.0;AZ;254.0;GX;-2.0;GY;1.0;GZ;1.0;MAGX;162.0;MAGY;55.0;MAGZ;47.0
MOT;0;1000.0;1;1000.0;2;1000.0;3;1000.0;4;0.0;5;0.0;6;0.0;7;0.0;
RC;ROLL;1500.0;PITCH;1500.0;YAW;1500.0;THROTTLE;1500.0;AUX1;1500.0;AUX2;1500.0;AUX3;1500.0;AUX4;1500.0
ALTITUDE;20.0
DEBUG;DEBUG10.0;DEBUG2;0.0;DEBUG3;20.0;DEBUG4;0.0
ATTITUDE;ANGX;-8.0;ANGY;1.0;HEAD;-58.0
STATUS;CYCLETIME;2888;I2CERR;0;PRESENT;23;MODE;2
RAW_IMU;AX;8.0;AY;-5.0;AZ;258.0;GX;-2.0;GY;1.0;GZ;1.0;MAGX;162.0;MAGY;55.0;MAGZ;47.0
MOT;0;1000.0;1;1000.0;2;1000.0;3;1000.0;4;0.0;5;0.0;6;0.0;7;0.0;
RC;ROLL;1500.0;PITCH;1500.0;YAW;1500.0;THROTTLE;1500.0;AUX1;1500.0;AUX2;1500.0;AUX3;1500.0;AUX4;1500.0
ALTITUDE;20.0
DEBUG;DEBUG10.0;DEBUG2;0.0;DEBUG3;20.0;DEBUG4;0.0
ATTITUDE;ANGX;-8.0;ANGY;1.0;HEAD;-58.0
STATUS;CYCLETIME;3168;I2CERR;0;PRESENT;23;MODE;2
RAW_IMU;AX;6.0;AY;-4.0;AZ;257.0;GX;-2.0;GY;1.0;GZ;1.0;MAGX;162.0;MAGY;54.0;MAGZ;48.0
MOT;0;1000.0;1;1000.0;2;1000.0;3;1000.0;4;0.0;5;0.0;6;0.0;7;0.0;
RC;ROLL;1500.0;PITCH;1500.0;YAW;1500.0;THROTTLE;1500.0;AUX1;1500.0;AUX2;1500.0;AUX3;1500.0;AUX4;1500.0
ALTITUDE;20.0
DEBUG;DEBUG10.0;DEBUG2;0.0;DEBUG3;20.0;DEBUG4;0.0
ATTITUDE;ANGX;-8.0;ANGY;1.0;HEAD;-58.0
STATUS;CYCLETIME;2888;I2CERR;0;PRESENT;23;MODE;2
RAW_IMU;AX;8.0;AY;-3.0;AZ;257.0;GX;-2.0;GY;1.0;GZ;1.0;MAGX;162.0;MAGY;54.0;MAGZ;48.0
MOT;0;1000.0;1;1000.0;2;1000.0;3;1000.0;4;0.0;5;0.0;6;0.0;7;0.0;
RC;ROLL;1500.0;PITCH;1500.0;YAW;1500.0;THROTTLE;1500.0;AUX1;1500.0;AUX2;1500.0;AUX3;1500.0;AUX4;1500.0
ALTITUDE;20.0
DEBUG;DEBUG10.0;DEBUG2;0.0;DEBUG3;20.0;DEBUG4;0.0
ATTITUDE;ANGX;-8.0;ANGY;1.0;HEAD;-58.0
STATUS;CYCLETIME;2884;I2CERR;0;PRESENT;23;MODE;2
RAW_IMU;AX;6.0;AY;-5.0;AZ;255.0;GX;-2.0;GY;1.0;GZ;1.0;MAGX;162.0;MAGY;54.0;MAGZ;48.0
MOT;0;1000.0;1;1000.0;2;1000.0;3;1000.0;4;0.0;5;0.0;6;0.0;7;0.0;
RC;ROLL;1500.0;PITCH;1500.0;YAW;1500.0;THROTTLE;1500.0;AUX1;1500.0;AUX2;1500.0;AUX3;1500.0;AUX4;1500.0
ALTITUDE;20.0
DEBUG;DEBUG10.0;DEBUG2;0.0;DEBUG3;20.0;DEBUG4;0.0
ATTITUDE;ANGX;-8.0;ANGY;1.0;HEAD;-58.0
STATUS;CYCLETIME;2908;I2CERR;0;PRESENT;23;MODE;2
RAW_IMU;AX;8.0;AY;-7.0;AZ;256.0;GX;-2.0;GY;1.0;GZ;1.0;MAGX;162.0;MAGY;56.0;MAGZ;48.0
MOT;0;1000.0;1;1000.0;2;1000.0;3;1000.0;4;0.0;5;0.0;6;0.0;7;0.0;
RC;ROLL;1500.0;PITCH;1500.0;YAW;1500.0;THROTTLE;1500.0;AUX1;1500.0;AUX2;1500.0;AUX3;1500.0;AUX4;1500.0
ALTITUDE;20.0
DEBUG;DEBUG10.0;DEBUG2;0.0;DEBUG3;20.0;DEBUG4;0.0
ATTITUDE;ANGX;-8.0;ANGY;1.0;HEAD;-58.0
STATUS;CYCLETIME;2996;I2CERR;0;PRESENT;23;MODE;2
RAW_IMU;AX;6.0;AY;-7.0;AZ;257.0;GX;-2.0;GY;1.0;GZ;1.0;MAGX;162.0;MAGY;56.0;MAGZ;48.0
MOT;0;1000.0;1;1000.0;2;1000.0;3;1000.0;4;0.0;5;0.0;6;0.0;7;0.0;
RC;ROLL;1500.0;PITCH;1500.0;YAW;1500.0;THROTTLE;1500.0;AUX1;1500.0;AUX2;1500.0;AUX3;1500.0;AUX4;1500.0
ALTITUDE;20.0
DEBUG;DEBUG10.0;DEBUG2;0.0;DEBUG3;20.0;DEBUG4;0.0
ATTITUDE;ANGX;-8.0;ANGY;1.0;HEAD;-58.0
STATUS;CYCLETIME;2884;I2CERR;0;PRESENT;23;MODE;2
RAW_IMU;AX;7.0;AY;-7.0;AZ;256.0;GX;-2.0;GY;1.0;GZ;1.0;MAGX;162.0;MAGY;55.0;MAGZ;47.0
MOT;0;1000.0;1;1000.0;2;1000.0;3;1000.0;4;0.0;5;0.0;6;0.0;7;0.0;
RC;ROLL;1500.0;PITCH;1500.0;YAW;1500.0;THROTTLE;1500.0;AUX1;1500.0;AUX2;1500.0;AUX3;1500.0;AUX4;1500.0
ALTITUDE;20.0
DEBUG;DEBUG10.0;DEBUG2;0.0;DEBUG3;20.0;DEBUG4;0.0
ATTITUDE;ANGX;-8.0;ANGY;1.0;HEAD;-58.0
STATUS;CYCLETIME;2876;I2CERR;0;PRESENT;23;MODE;2
RAW_IMU;AX;6.0;AY;-5.0;AZ;256.0;GX;-2.0;GY;1.0;GZ;1.0;MAGX;162.0;MAGY;55.0;MAGZ;47.0
MOT;0;1000.0;1;1000.0;2;1000.0;3;1000.0;4;0.0;5;0.0;6;0.0;7;0.0;
RC;ROLL;1500.0;PITCH;1500.0;YAW;1500.0;THROTTLE;1500.0;AUX1;1500.0;AUX2;1500.0;AUX3;1500.0;AUX4;1500.0
ALTITUDE;20.0
DEBUG;DEBUG10.0;DEBUG2;0.0;DEBUG3;20.0;DEBUG4;0.0
ATTITUDE;ANGX;-8.0;ANGY;1.0;HEAD;-58.0
STATUS;CYCLETIME;2884;I2CERR;0;PRESENT;23;MODE;2
RAW_IMU;AX;6.0;AY;-6.0;AZ;257.0;GX;-2.0;GY;0.0;GZ;0.0;MAGX;162.0;MAGY;54.0;MAGZ;47.0
MOT;0;1000.0;1;1000.0;2;1000.0;3;1000.0;4;0.0;5;0.0;6;0.0;7;0.0;
RC;ROLL;1500.0;PITCH;1500.0;YAW;1500.0;THROTTLE;1500.0;AUX1;1500.0;AUX2;1500.0;AUX3;1500.0;AUX4;1500.0
ALTITUDE;20.0
DEBUG;DEBUG10.0;DEBUG2;0.0;DEBUG3;20.0;DEBUG4;0.0
ATTITUDE;ANGX;-8.0;ANGY;1.0;HEAD;-58.0
STATUS;CYCLETIME;2880;I2CERR;0;PRESENT;23;MODE;2
RAW_IMU;AX;7.0;AY;-6.0;AZ;255.0;GX;-2.0;GY;1.0;GZ;1.0;MAGX;162.0;MAGY;54.0;MAGZ;47.0
MOT;0;1000.0;1;1000.0;2;1000.0;3;1000.0;4;0.0;5;0.0;6;0.0;7;0.0;
RC;ROLL;1500.0;PITCH;1500.0;YAW;1500.0;THROTTLE;1500.0;AUX1;1500.0;AUX2;1500.0;AUX3;1500.0;AUX4;1500.0
ALTITUDE;20.0
DEBUG;DEBUG10.0;DEBUG2;0.0;DEBUG3;20.0;DEBUG4;0.0
ATTITUDE;ANGX;-8.0;ANGY;1.0;HEAD;-58.0
STATUS;CYCLETIME;2884;I2CERR;0;PRESENT;23;MODE;2
RAW_IMU;AX;8.0;AY;-4.0;AZ;258.0;GX;-2.0;GY;1.0;GZ;1.0;MAGX;163.0;MAGY;54.0;MAGZ;47.0
MOT;0;1000.0;1;1000.0;2;1000.0;3;1000.0;4;0.0;5;0.0;6;0.0;7;0.0;
RC;ROLL;1500.0;PITCH;1500.0;YAW;1500.0;THROTTLE;1500.0;AUX1;1500.0;AUX2;1500.0;AUX3;1500.0;AUX4;1500.0
ALTITUDE;20.0
DEBUG;DEBUG10.0;DEBUG2;0.0;DEBUG3;20.0;DEBUG4;0.0
ATTITUDE;ANGX;-8.0;ANGY;1.0;HEAD;-58.0
STATUS;CYCLETIME;2884;I2CERR;0;PRESENT;23;MODE;2
RAW_IMU;AX;6.0;AY;-4.0;AZ;258.0;GX;-2.0;GY;0.0;GZ;1.0;MAGX;163.0;MAGY;54.0;MAGZ;47.0
MOT;0;1000.0;1;1000.0;2;1000.0;3;1000.0;4;0.0;5;0.0;6;0.0;7;0.0;
RC;ROLL;1500.0;PITCH;1500.0;YAW;1500.0;THROTTLE;1500.0;AUX1;1500.0;AUX2;1500.0;AUX3;1500.0;AUX4;1500.0
ALTITUDE;20.0
DEBUG;DEBUG10.0;DEBUG2;0.0;DEBUG3;20.0;DEBUG4;0.0
ATTITUDE;ANGX;-8.0;ANGY;1.0;HEAD;-58.0
STATUS;CYCLETIME;2880;I2CERR;0;PRESENT;23;MODE;2
RAW_IMU;AX;5.0;AY;-5.0;AZ;256.0;GX;-2.0;GY;1.0;GZ;1.0;MAGX;162.0;MAGY;55.0;MAGZ;47.0
MOT;0;1000.0;1;1000.0;2;1000.0;3;1000.0;4;0.0;5;0.0;6;0.0;7;0.0;
RC;ROLL;1500.0;PITCH;1500.0;YAW;1500.0;THROTTLE;1500.0;AUX1;1500.0;AUX2;1500.0;AUX3;1500.0;AUX4;1500.0
ALTITUDE;20.0
DEBUG;DEBUG10.0;DEBUG2;0.0;DEBUG3;20.0;DEBUG4;0.0
ATTITUDE;ANGX;-8.0;ANGY;1.0;HEAD;-58.0
STATUS;CYCLETIME;2988;I2CERR;0;PRESENT;23;MODE;2
RAW_IMU;AX;8.0;AY;-5.0;AZ;260.0;GX;-2.0;GY;0.0;GZ;1.0;MAGX;162.0;MAGY;55.0;MAGZ;47.0
MOT;0;1000.0;1;1000.0;2;1000.0;3;1000.0;4;0.0;5;0.0;6;0.0;7;0.0;
RC;ROLL;1500.0;PITCH;1500.0;YAW;1500.0;THROTTLE;1500.0;AUX1;1500.0;AUX2;1500.0;AUX3;1500.0;AUX4;1500.0
ALTITUDE;20.0
DEBUG;DEBUG10.0;DEBUG2;0.0;DEBUG3;20.0;DEBUG4;0.0
ATTITUDE;ANGX;-8.0;ANGY;1.0;HEAD;-58.0
STATUS;CYCLETIME;2888;I2CERR;0;PRESENT;23;MODE;2
RAW_IMU;AX;5.0;AY;-5.0;AZ;260.0;GX;-2.0;GY;1.0;GZ;1.0;MAGX;161.0;MAGY;54.0;MAGZ;48.0
MOT;0;1000.0;1;1000.0;2;1000.0;3;1000.0;4;0.0;5;0.0;6;0.0;7;0.0;
RC;ROLL;1500.0;PITCH;1500.0;YAW;1500.0;THROTTLE;1500.0;AUX1;1500.0;AUX2;1500.0;AUX3;1500.0;AUX4;1500.0
ALTITUDE;20.0
DEBUG;DEBUG10.0;DEBUG2;0.0;DEBUG3;20.0;DEBUG4;0.0
ATTITUDE;ANGX;-8.0;ANGY;1.0;HEAD;-58.0
STATUS;CYCLETIME;2876;I2CERR;0;PRESENT;23;MODE;2
RAW_IMU;AX;8.0;AY;-6.0;AZ;257.0;GX;-2.0;GY;1.0;GZ;1.0;MAGX;161.0;MAGY;54.0;MAGZ;48.0
MOT;0;1000.0;1;1000.0;2;1000.0;3;1000.0;4;0.0;5;0.0;6;0.0;7;0.0;
RC;ROLL;1500.0;PITCH;1500.0;YAW;1500.0;THROTTLE;1500.0;AUX1;1500.0;AUX2;1500.0;AUX3;1500.0;AUX4;1500.0
ALTITUDE;20.0
DEBUG;DEBUG10.0;DEBUG2;0.0;DEBUG3;20.0;DEBUG4;0.0
ATTITUDE;ANGX;-8.0;ANGY;1.0;HEAD;-58.0
STATUS;CYCLETIME;2876;I2CERR;0;PRESENT;23;MODE;2
RAW_IMU;AX;7.0;AY;-7.0;AZ;255.0;GX;-2.0;GY;1.0;GZ;1.0;MAGX;161.0;MAGY;54.0;MAGZ;48.0
MOT;0;1000.0;1;1000.0;2;1000.0;3;1000.0;4;0.0;5;0.0;6;0.0;7;0.0;
RC;ROLL;1500.0;PITCH;1500.0;YAW;1500.0;THROTTLE;1500.0;AUX1;1500.0;AUX2;1500.0;AUX3;1500.0;AUX4;1500.0
ALTITUDE;20.0
DEBUG;DEBUG10.0;DEBUG2;0.0;DEBUG3;20.0;DEBUG4;0.0
ATTITUDE;ANGX;-8.0;ANGY;1.0;HEAD;-58.0
STATUS;CYCLETIME;2884;I2CERR;0;PRESENT;23;MODE;2
RAW_IMU;AX;8.0;AY;-8.0;AZ;256.0;GX;-2.0;GY;1.0;GZ;1.0;MAGX;162.0;MAGY;56.0;MAGZ;49.0
MOT;0;1000.0;1;1000.0;2;1000.0;3;1000.0;4;0.0;5;0.0;6;0.0;7;0.0;
RC;ROLL;1500.0;PITCH;1500.0;YAW;1500.0;THROTTLE;1500.0;AUX1;1500.0;AUX2;1500.0;AUX3;1500.0;AUX4;1500.0
ALTITUDE;20.0
DEBUG;DEBUG10.0;DEBUG2;0.0;DEBUG3;20.0;DEBUG4;0.0
ATTITUDE;ANGX;-8.0;ANGY;1.0;HEAD;-58.0
STATUS;CYCLETIME;2984;I2CERR;0;PRESENT;23;MODE;2
RAW_IMU;AX;5.0;AY;-4.0;AZ;257.0;GX;-2.0;GY;1.0;GZ;1.0;MAGX;162.0;MAGY;56.0;MAGZ;49.0
MOT;0;1000.0;1;1000.0;2;1000.0;3;1000.0;4;0.0;5;0.0;6;0.0;7;0.0;
RC;ROLL;1500.0;PITCH;1500.0;YAW;1500.0;THROTTLE;1500.0;AUX1;1500.0;AUX2;1500.0;AUX3;1500.0;AUX4;1500.0
ALTITUDE;20.0
DEBUG;DEBUG10.0;DEBUG2;0.0;DEBUG3;20.0;DEBUG4;0.0
ATTITUDE;ANGX;-8.0;ANGY;1.0;HEAD;-58.0
STATUS;CYCLETIME;2900;I2CERR;0;PRESENT;23;MODE;2
RAW_IMU;AX;5.0;AY;-4.0;AZ;258.0;GX;-2.0;GY;1.0;GZ;1.0;MAGX;163.0;MAGY;55.0;MAGZ;48.0
MOT;0;1000.0;1;1000.0;2;1000.0;3;1000.0;4;0.0;5;0.0;6;0.0;7;0.0;
RC;ROLL;1500.0;PITCH;1500.0;YAW;1500.0;THROTTLE;1500.0;AUX1;1500.0;AUX2;1500.0;AUX3;1500.0;AUX4;1500.0
ALTITUDE;20.0
DEBUG;DEBUG10.0;DEBUG2;0.0;DEBUG3;20.0;DEBUG4;0.0
ATTITUDE;ANGX;-8.0;ANGY;1.0;HEAD;-58.0
STATUS;CYCLETIME;2876;I2CERR;0;PRESENT;23;MODE;2
RAW_IMU;AX;5.0;AY;-4.0;AZ;256.0;GX;-2.0;GY;1.0;GZ;1.0;MAGX;163.0;MAGY;55.0;MAGZ;48.0
MOT;0;1000.0;1;1000.0;2;1000.0;3;1000.0;4;0.0;5;0.0;6;0.0;7;0.0;
RC;ROLL;1500.0;PITCH;1500.0;YAW;1500.0;THROTTLE;1500.0;AUX1;1500.0;AUX2;1500.0;AUX3;1500.0;AUX4;1500.0
ALTITUDE;20.0
DEBUG;DEBUG10.0;DEBUG2;0.0;DEBUG3;20.0;DEBUG4;0.0
ATTITUDE;ANGX;-8.0;ANGY;1.0;HEAD;-58.0
STATUS;CYCLETIME;2876;I2CERR;0;PRESENT;23;MODE;2
RAW_IMU;AX;5.0;AY;-6.0;AZ;256.0;GX;-2.0;GY;1.0;GZ;1.0;MAGX;162.0;MAGY;55.0;MAGZ;48.0
MOT;0;1000.0;1;1000.0;2;1000.0;3;1000.0;4;0.0;5;0.0;6;0.0;7;0.0;
RC;ROLL;1500.0;PITCH;1500.0;YAW;1500.0;THROTTLE;1500.0;AUX1;1500.0;AUX2;1500.0;AUX3;1500.0;AUX4;1500.0
ALTITUDE;20.0
DEBUG;DEBUG10.0;DEBUG2;0.0;DEBUG3;20.0;DEBUG4;0.0
ATTITUDE;ANGX;-8.0;ANGY;1.0;HEAD;-58.0
STATUS;CYCLETIME;2884;I2CERR;0;PRESENT;23;MODE;2
RAW_IMU;AX;6.0;AY;-5.0;AZ;253.0;GX;-2.0;GY;1.0;GZ;1.0;MAGX;162.0;MAGY;55.0;MAGZ;48.0
MOT;0;1000.0;1;1000.0;2;1000.0;3;1000.0;4;0.0;5;0.0;6;0.0;7;0.0;
RC;ROLL;1500.0;PITCH;1500.0;YAW;1500.0;THROTTLE;1500.0;AUX1;1500.0;AUX2;1500.0;AUX3;1500.0;AUX4;1500.0
ALTITUDE;20.0
DEBUG;DEBUG10.0;DEBUG2;0.0;DEBUG3;20.0;DEBUG4;0.0
ATTITUDE;ANGX;-8.0;ANGY;1.0;HEAD;-58.0
STATUS;CYCLETIME;2880;I2CERR;0;PRESENT;23;MODE;2
RAW_IMU;AX;7.0;AY;-3.0;AZ;255.0;GX;-2.0;GY;1.0;GZ;1.0;MAGX;162.0;MAGY;54.0;MAGZ;48.0
MOT;0;1000.0;1;1000.0;2;1000.0;3;1000.0;4;0.0;5;0.0;6;0.0;7;0.0;
RC;ROLL;1500.0;PITCH;1500.0;YAW;1500.0;THROTTLE;1500.0;AUX1;1500.0;AUX2;1500.0;AUX3;1500.0;AUX4;1500.0
ALTITUDE;20.0
DEBUG;DEBUG10.0;DEBUG2;0.0;DEBUG3;20.0;DEBUG4;0.0
ATTITUDE;ANGX;-8.0;ANGY;1.0;HEAD;-58.0
STATUS;CYCLETIME;2880;I2CERR;0;PRESENT;23;MODE;2
RAW_IMU;AX;8.0;AY;-4.0;AZ;256.0;GX;-2.0;GY;1.0;GZ;1.0;MAGX;162.0;MAGY;54.0;MAGZ;48.0
MOT;0;1000.0;1;1000.0;2;1000.0;3;1000.0;4;0.0;5;0.0;6;0.0;7;0.0;
RC;ROLL;1500.0;PITCH;1500.0;YAW;1500.0;THROTTLE;1500.0;AUX1;1500.0;AUX2;1500.0;AUX3;1500.0;AUX4;1500.0
ALTITUDE;20.0
DEBUG;DEBUG10.0;DEBUG2;0.0;DEBUG3;20.0;DEBUG4;0.0
ATTITUDE;ANGX;-8.0;ANGY;1.0;HEAD;-58.0
STATUS;CYCLETIME;2876;I2CERR;0;PRESENT;23;MODE;2
RAW_IMU;AX;7.0;AY;-4.0;AZ;258.0;GX;-2.0;GY;0.0;GZ;1.0;MAGX;162.0;MAGY;54.0;MAGZ;48.0
MOT;0;1000.0;1;1000.0;2;1000.0;3;1000.0;4;0.0;5;0.0;6;0.0;7;0.0;
RC;ROLL;1500.0;PITCH;1500.0;YAW;1500.0;THROTTLE;1500.0;AUX1;1500.0;AUX2;1500.0;AUX3;1500.0;AUX4;1500.0
ALTITUDE;20.0
DEBUG;DEBUG10.0;DEBUG2;0.0;DEBUG3;20.0;DEBUG4;0.0
ATTITUDE;ANGX;-8.0;ANGY;1.0;HEAD;-58.0
STATUS;CYCLETIME;2884;I2CERR;0;PRESENT;23;MODE;2
RAW_IMU;AX;5.0;AY;-3.0;AZ;258.0;GX;-2.0;GY;1.0;GZ;1.0;MAGX;162.0;MAGY;54.0;MAGZ;48.0
MOT;0;1000.0;1;1000.0;2;1000.0;3;1000.0;4;0.0;5;0.0;6;0.0;7;0.0;
RC;ROLL;1500.0;PITCH;1500.0;YAW;1500.0;THROTTLE;1500.0;AUX1;1500.0;AUX2;1500.0;AUX3;1500.0;AUX4;1500.0
ALTITUDE;20.0
DEBUG;DEBUG10.0;DEBUG2;0.0;DEBUG3;20.0;DEBUG4;0.0
ATTITUDE;ANGX;-8.0;ANGY;1.0;HEAD;-58.0
STATUS;CYCLETIME;3160;I2CERR;0;PRESENT;23;MODE;2
RAW_IMU;AX;3.0;AY;-5.0;AZ;256.0;GX;-2.0;GY;1.0;GZ;1.0;MAGX;162.0;MAGY;54.0;MAGZ;47.0
MOT;0;1000.0;1;1000.0;2;1000.0;3;1000.0;4;0.0;5;0.0;6;0.0;7;0.0;
RC;ROLL;1500.0;PITCH;1500.0;YAW;1500.0;THROTTLE;1500.0;AUX1;1500.0;AUX2;1500.0;AUX3;1500.0;AUX4;1500.0
ALTITUDE;20.0
DEBUG;DEBUG10.0;DEBUG2;0.0;DEBUG3;20.0;DEBUG4;0.0
ATTITUDE;ANGX;-8.0;ANGY;1.0;HEAD;-58.0
STATUS;CYCLETIME;2880;I2CERR;0;PRESENT;23;MODE;2
RAW_IMU;AX;5.0;AY;-2.0;AZ;259.0;GX;-2.0;GY;1.0;GZ;1.0;MAGX;162.0;MAGY;54.0;MAGZ;47.0
MOT;0;1000.0;1;1000.0;2;1000.0;3;1000.0;4;0.0;5;0.0;6;0.0;7;0.0;
RC;ROLL;1500.0;PITCH;1500.0;YAW;1500.0;THROTTLE;1500.0;AUX1;1500.0;AUX2;1500.0;AUX3;1500.0;AUX4;1500.0
ALTITUDE;20.0
DEBUG;DEBUG10.0;DEBUG2;0.0;DEBUG3;20.0;DEBUG4;0.0
ATTITUDE;ANGX;-8.0;ANGY;2.0;HEAD;-58.0
STATUS;CYCLETIME;2880;I2CERR;0;PRESENT;23;MODE;2
RAW_IMU;AX;7.0;AY;-3.0;AZ;258.0;GX;-2.0;GY;1.0;GZ;1.0;MAGX;162.0;MAGY;54.0;MAGZ;47.0
MOT;0;1000.0;1;1000.0;2;1000.0;3;1000.0;4;0.0;5;0.0;6;0.0;7;0.0;
RC;ROLL;1500.0;PITCH;1500.0;YAW;1500.0;THROTTLE;1500.0;AUX1;1500.0;AUX2;1500.0;AUX3;1500.0;AUX4;1500.0
ALTITUDE;20.0
DEBUG;DEBUG10.0;DEBUG2;0.0;DEBUG3;20.0;DEBUG4;0.0
ATTITUDE;ANGX;-8.0;ANGY;2.0;HEAD;-58.0
STATUS;CYCLETIME;2892;I2CERR;0;PRESENT;23;MODE;2
RAW_IMU;AX;7.0;AY;-4.0;AZ;257.0;GX;-2.0;GY;1.0;GZ;1.0;MAGX;163.0;MAGY;55.0;MAGZ;46.0
MOT;0;1000.0;1;1000.0;2;1000.0;3;1000.0;4;0.0;5;0.0;6;0.0;7;0.0;
RC;ROLL;1500.0;PITCH;1500.0;YAW;1500.0;THROTTLE;1500.0;AUX1;1500.0;AUX2;1500.0;AUX3;1500.0;AUX4;1500.0
ALTITUDE;20.0
DEBUG;DEBUG10.0;DEBUG2;0.0;DEBUG3;20.0;DEBUG4;0.0
ATTITUDE;ANGX;-8.0;ANGY;2.0;HEAD;-58.0
STATUS;CYCLETIME;2992;I2CERR;0;PRESENT;23;MODE;2
RAW_IMU;AX;7.0;AY;-3.0;AZ;257.0;GX;-2.0;GY;1.0;GZ;1.0;MAGX;163.0;MAGY;55.0;MAGZ;46.0
MOT;0;1000.0;1;1000.0;2;1000.0;3;1000.0;4;0.0;5;0.0;6;0.0;7;0.0;
RC;ROLL;1500.0;PITCH;1500.0;YAW;1500.0;THROTTLE;1500.0;AUX1;1500.0;AUX2;1500.0;AUX3;1500.0;AUX4;1500.0
ALTITUDE;20.0
DEBUG;DEBUG10.0;DEBUG2;0.0;DEBUG3;20.0;DEBUG4;0.0
ATTITUDE;ANGX;-8.0;ANGY;2.0;HEAD;-58.0
STATUS;CYCLETIME;2932;I2CERR;0;PRESENT;23;MODE;2
RAW_IMU;AX;6.0;AY;-6.0;AZ;256.0;GX;-2.0;GY;1.0;GZ;1.0;MAGX;163.0;MAGY;55.0;MAGZ;48.0
MOT;0;1000.0;1;1000.0;2;1000.0;3;1000.0;4;0.0;5;0.0;6;0.0;7;0.0;
RC;ROLL;1500.0;PITCH;1500.0;YAW;1500.0;THROTTLE;1500.0;AUX1;1500.0;AUX2;1500.0;AUX3;1500.0;AUX4;1500.0
ALTITUDE;20.0
DEBUG;DEBUG10.0;DEBUG2;0.0;DEBUG3;20.0;DEBUG4;0.0
ATTITUDE;ANGX;-8.0;ANGY;2.0;HEAD;-58.0
STATUS;CYCLETIME;2884;I2CERR;0;PRESENT;23;MODE;2
RAW_IMU;AX;6.0;AY;-5.0;AZ;256.0;GX;-2.0;GY;0.0;GZ;1.0;MAGX;163.0;MAGY;55.0;MAGZ;48.0
MOT;0;1000.0;1;1000.0;2;1000.0;3;1000.0;4;0.0;5;0.0;6;0.0;7;0.0;
RC;ROLL;1500.0;PITCH;1500.0;YAW;1500.0;THROTTLE;1500.0;AUX1;1500.0;AUX2;1500.0;AUX3;1500.0;AUX4;1500.0
ALTITUDE;20.0
DEBUG;DEBUG10.0;DEBUG2;0.0;DEBUG3;20.0;DEBUG4;0.0
ATTITUDE;ANGX;-8.0;ANGY;2.0;HEAD;-58.0
STATUS;CYCLETIME;2892;I2CERR;0;PRESENT;23;MODE;2
RAW_IMU;AX;5.0;AY;-4.0;AZ;257.0;GX;-2.0;GY;1.0;GZ;1.0;MAGX;162.0;MAGY;54.0;MAGZ;47.0
MOT;0;1000.0;1;1000.0;2;1000.0;3;1000.0;4;0.0;5;0.0;6;0.0;7;0.0;
RC;ROLL;1500.0;PITCH;1500.0;YAW;1500.0;THROTTLE;1500.0;AUX1;1500.0;AUX2;1500.0;AUX3;1500.0;AUX4;1500.0
ALTITUDE;20.0
DEBUG;DEBUG10.0;DEBUG2;0.0;DEBUG3;20.0;DEBUG4;0.0
ATTITUDE;ANGX;-8.0;ANGY;2.0;HEAD;-58.0
STATUS;CYCLETIME;2884;I2CERR;0;PRESENT;23;MODE;2
RAW_IMU;AX;8.0;AY;-4.0;AZ;257.0;GX;-2.0;GY;1.0;GZ;1.0;MAGX;162.0;MAGY;54.0;MAGZ;47.0
MOT;0;1000.0;1;1000.0;2;1000.0;3;1000.0;4;0.0;5;0.0;6;0.0;7;0.0;
RC;ROLL;1500.0;PITCH;1500.0;YAW;1500.0;THROTTLE;1500.0;AUX1;1500.0;AUX2;1500.0;AUX3;1500.0;AUX4;1500.0
ALTITUDE;20.0
DEBUG;DEBUG10.0;DEBUG2;0.0;DEBUG3;20.0;DEBUG4;0.0
ATTITUDE;ANGX;-8.0;ANGY;2.0;HEAD;-58.0
STATUS;CYCLETIME;2884;I2CERR;0;PRESENT;23;MODE;2
RAW_IMU;AX;8.0;AY;-3.0;AZ;257.0;GX;-2.0;GY;1.0;GZ;1.0;MAGX;162.0;MAGY;55.0;MAGZ;47.0
MOT;0;1000.0;1;1000.0;2;1000.0;3;1000.0;4;0.0;5;0.0;6;0.0;7;0.0;
RC;ROLL;1500.0;PITCH;1500.0;YAW;1500.0;THROTTLE;1500.0;AUX1;1500.0;AUX2;1500.0;AUX3;1500.0;AUX4;1500.0
ALTITUDE;20.0
DEBUG;DEBUG10.0;DEBUG2;0.0;DEBUG3;20.0;DEBUG4;0.0
ATTITUDE;ANGX;-8.0;ANGY;2.0;HEAD;-58.0
STATUS;CYCLETIME;2884;I2CERR;0;PRESENT;23;MODE;2
RAW_IMU;AX;8.0;AY;-4.0;AZ;256.0;GX;-2.0;GY;0.0;GZ;1.0;MAGX;162.0;MAGY;55.0;MAGZ;47.0
MOT;0;1000.0;1;1000.0;2;1000.0;3;1000.0;4;0.0;5;0.0;6;0.0;7;0.0;
RC;ROLL;1500.0;PITCH;1500.0;YAW;1500.0;THROTTLE;1500.0;AUX1;1500.0;AUX2;1500.0;AUX3;1500.0;AUX4;1500.0
ALTITUDE;20.0
DEBUG;DEBUG10.0;DEBUG2;0.0;DEBUG3;20.0;DEBUG4;0.0
ATTITUDE;ANGX;-8.0;ANGY;2.0;HEAD;-58.0
STATUS;CYCLETIME;2892;I2CERR;0;PRESENT;23;MODE;2
RAW_IMU;AX;6.0;AY;-4.0;AZ;256.0;GX;-2.0;GY;1.0;GZ;1.0;MAGX;164.0;MAGY;54.0;MAGZ;48.0
MOT;0;1000.0;1;1000.0;2;1000.0;3;1000.0;4;0.0;5;0.0;6;0.0;7;0.0;
RC;ROLL;1500.0;PITCH;1500.0;YAW;1500.0;THROTTLE;1500.0;AUX1;1500.0;AUX2;1500.0;AUX3;1500.0;AUX4;1500.0
ALTITUDE;20.0
DEBUG;DEBUG10.0;DEBUG2;0.0;DEBUG3;20.0;DEBUG4;0.0
ATTITUDE;ANGX;-8.0;ANGY;2.0;HEAD;-58.0
STATUS;CYCLETIME;2988;I2CERR;0;PRESENT;23;MODE;2
RAW_IMU;AX;6.0;AY;-4.0;AZ;256.0;GX;-2.0;GY;1.0;GZ;1.0;MAGX;164.0;MAGY;54.0;MAGZ;48.0
MOT;0;1000.0;1;1000.0;2;1000.0;3;1000.0;4;0.0;5;0.0;6;0.0;7;0.0;
RC;ROLL;1500.0;PITCH;1500.0;YAW;1500.0;THROTTLE;1500.0;AUX1;1500.0;AUX2;1500.0;AUX3;1500.0;AUX4;1500.0
ALTITUDE;20.0
DEBUG;DEBUG10.0;DEBUG2;0.0;DEBUG3;20.0;DEBUG4;0.0
ATTITUDE;ANGX;-8.0;ANGY;2.0;HEAD;-58.0
STATUS;CYCLETIME;3160;I2CERR;0;PRESENT;23;MODE;2
RAW_IMU;AX;5.0;AY;-4.0;AZ;255.0;GX;-2.0;GY;1.0;GZ;1.0;MAGX;162.0;MAGY;55.0;MAGZ;47.0
MOT;0;1000.0;1;1000.0;2;1000.0;3;1000.0;4;0.0;5;0.0;6;0.0;7;0.0;
RC;ROLL;1500.0;PITCH;1500.0;YAW;1500.0;THROTTLE;1500.0;AUX1;1500.0;AUX2;1500.0;AUX3;1500.0;AUX4;1500.0
ALTITUDE;20.0
DEBUG;DEBUG10.0;DEBUG2;0.0;DEBUG3;20.0;DEBUG4;0.0
ATTITUDE;ANGX;-8.0;ANGY;2.0;HEAD;-58.0
STATUS;CYCLETIME;2884;I2CERR;0;PRESENT;23;MODE;2
RAW_IMU;AX;5.0;AY;-7.0;AZ;256.0;GX;-2.0;GY;0.0;GZ;1.0;MAGX;162.0;MAGY;55.0;MAGZ;47.0
MOT;0;1000.0;1;1000.0;2;1000.0;3;1000.0;4;0.0;5;0.0;6;0.0;7;0.0;
RC;ROLL;1500.0;PITCH;1500.0;YAW;1500.0;THROTTLE;1500.0;AUX1;1500.0;AUX2;1500.0;AUX3;1500.0;AUX4;1500.0
ALTITUDE;20.0
DEBUG;DEBUG10.0;DEBUG2;0.0;DEBUG3;20.0;DEBUG4;0.0
ATTITUDE;ANGX;-8.0;ANGY;2.0;HEAD;-58.0
STATUS;CYCLETIME;2892;I2CERR;0;PRESENT;23;MODE;2
RAW_IMU;AX;5.0;AY;-5.0;AZ;257.0;GX;-2.0;GY;1.0;GZ;1.0;MAGX;162.0;MAGY;55.0;MAGZ;47.0
MOT;0;1000.0;1;1000.0;2;1000.0;3;1000.0;4;0.0;5;0.0;6;0.0;7;0.0;
RC;ROLL;1500.0;PITCH;1500.0;YAW;1500.0;THROTTLE;1500.0;AUX1;1500.0;AUX2;1500.0;AUX3;1500.0;AUX4;1500.0
ALTITUDE;20.0
DEBUG;DEBUG10.0;DEBUG2;0.0;DEBUG3;20.0;DEBUG4;0.0
ATTITUDE;ANGX;-8.0;ANGY;2.0;HEAD;-58.0
STATUS;CYCLETIME;2896;I2CERR;0;PRESENT;23;MODE;2
RAW_IMU;AX;7.0;AY;-8.0;AZ;256.0;GX;-2.0;GY;1.0;GZ;1.0;MAGX;162.0;MAGY;55.0;MAGZ;47.0
MOT;0;1000.0;1;1000.0;2;1000.0;3;1000.0;4;0.0;5;0.0;6;0.0;7;0.0;
RC;ROLL;1500.0;PITCH;1500.0;YAW;1500.0;THROTTLE;1500.0;AUX1;1500.0;AUX2;1500.0;AUX3;1500.0;AUX4;1500.0
ALTITUDE;20.0
DEBUG;DEBUG10.0;DEBUG2;0.0;DEBUG3;20.0;DEBUG4;0.0
ATTITUDE;ANGX;-8.0;ANGY;2.0;HEAD;-58.0
STATUS;CYCLETIME;2888;I2CERR;0;PRESENT;23;MODE;2
RAW_IMU;AX;8.0;AY;-7.0;AZ;256.0;GX;-2.0;GY;1.0;GZ;1.0;MAGX;162.0;MAGY;55.0;MAGZ;47.0
MOT;0;1000.0;1;1000.0;2;1000.0;3;1000.0;4;0.0;5;0.0;6;0.0;7;0.0;
RC;ROLL;1500.0;PITCH;1500.0;YAW;1500.0;THROTTLE;1500.0;AUX1;1500.0;AUX2;1500.0;AUX3;1500.0;AUX4;1500.0
ALTITUDE;20.0
DEBUG;DEBUG10.0;DEBUG2;0.0;DEBUG3;20.0;DEBUG4;0.0
ATTITUDE;ANGX;-8.0;ANGY;2.0;HEAD;-58.0
STATUS;CYCLETIME;2892;I2CERR;0;PRESENT;23;MODE;2
RAW_IMU;AX;8.0;AY;-4.0;AZ;257.0;GX;-2.0;GY;0.0;GZ;1.0;MAGX;162.0;MAGY;55.0;MAGZ;48.0
MOT;0;1000.0;1;1000.0;2;1000.0;3;1000.0;4;0.0;5;0.0;6;0.0;7;0.0;
RC;ROLL;1500.0;PITCH;1500.0;YAW;1500.0;THROTTLE;1500.0;AUX1;1500.0;AUX2;1500.0;AUX3;1500.0;AUX4;1500.0
ALTITUDE;20.0
DEBUG;DEBUG10.0;DEBUG2;0.0;DEBUG3;20.0;DEBUG4;0.0
ATTITUDE;ANGX;-8.0;ANGY;2.0;HEAD;-58.0
STATUS;CYCLETIME;2884;I2CERR;0;PRESENT;23;MODE;2
RAW_IMU;AX;9.0;AY;-4.0;AZ;254.0;GX;-2.0;GY;1.0;GZ;1.0;MAGX;162.0;MAGY;55.0;MAGZ;48.0
MOT;0;1000.0;1;1000.0;2;1000.0;3;1000.0;4;0.0;5;0.0;6;0.0;7;0.0;
RC;ROLL;1500.0;PITCH;1500.0;YAW;1500.0;THROTTLE;1500.0;AUX1;1500.0;AUX2;1500.0;AUX3;1500.0;AUX4;1500.0
ALTITUDE;20.0
DEBUG;DEBUG10.0;DEBUG2;0.0;DEBUG3;20.0;DEBUG4;0.0
ATTITUDE;ANGX;-8.0;ANGY;2.0;HEAD;-58.0
STATUS;CYCLETIME;2988;I2CERR;0;PRESENT;23;MODE;2
RAW_IMU;AX;9.0;AY;-4.0;AZ;253.0;GX;-2.0;GY;1.0;GZ;1.0;MAGX;162.0;MAGY;55.0;MAGZ;47.0
MOT;0;1000.0;1;1000.0;2;1000.0;3;1000.0;4;0.0;5;0.0;6;0.0;7;0.0;
RC;ROLL;1500.0;PITCH;1500.0;YAW;1500.0;THROTTLE;1500.0;AUX1;1500.0;AUX2;1500.0;AUX3;1500.0;AUX4;1500.0
ALTITUDE;20.0
DEBUG;DEBUG10.0;DEBUG2;0.0;DEBUG3;20.0;DEBUG4;0.0
ATTITUDE;ANGX;-8.0;ANGY;2.0;HEAD;-58.0
STATUS;CYCLETIME;3012;I2CERR;0;PRESENT;23;MODE;2
RAW_IMU;AX;9.0;AY;-5.0;AZ;255.0;GX;-2.0;GY;1.0;GZ;1.0;MAGX;162.0;MAGY;55.0;MAGZ;47.0
MOT;0;1000.0;1;1000.0;2;1000.0;3;1000.0;4;0.0;5;0.0;6;0.0;7;0.0;
RC;ROLL;1500.0;PITCH;1500.0;YAW;1500.0;THROTTLE;1500.0;AUX1;1500.0;AUX2;1500.0;AUX3;1500.0;AUX4;1500.0
ALTITUDE;20.0
DEBUG;DEBUG10.0;DEBUG2;0.0;DEBUG3;20.0;DEBUG4;0.0
ATTITUDE;ANGX;-8.0;ANGY;2.0;HEAD;-58.0
STATUS;CYCLETIME;2876;I2CERR;0;PRESENT;23;MODE;2
RAW_IMU;AX;8.0;AY;-5.0;AZ;257.0;GX;-2.0;GY;1.0;GZ;1.0;MAGX;162.0;MAGY;55.0;MAGZ;48.0
MOT;0;1000.0;1;1000.0;2;1000.0;3;1000.0;4;0.0;5;0.0;6;0.0;7;0.0;
RC;ROLL;1500.0;PITCH;1500.0;YAW;1500.0;THROTTLE;1500.0;AUX1;1500.0;AUX2;1500.0;AUX3;1500.0;AUX4;1500.0
ALTITUDE;20.0
DEBUG;DEBUG10.0;DEBUG2;0.0;DEBUG3;20.0;DEBUG4;0.0
ATTITUDE;ANGX;-8.0;ANGY;2.0;HEAD;-58.0
STATUS;CYCLETIME;3012;I2CERR;0;PRESENT;23;MODE;2
RAW_IMU;AX;6.0;AY;-6.0;AZ;254.0;GX;-2.0;GY;1.0;GZ;1.0;MAGX;162.0;MAGY;55.0;MAGZ;48.0
MOT;0;1000.0;1;1000.0;2;1000.0;3;1000.0;4;0.0;5;0.0;6;0.0;7;0.0;
RC;ROLL;1500.0;PITCH;1500.0;YAW;1500.0;THROTTLE;1500.0;AUX1;1500.0;AUX2;1500.0;AUX3;1500.0;AUX4;1500.0
ALTITUDE;20.0
DEBUG;DEBUG10.0;DEBUG2;0.0;DEBUG3;20.0;DEBUG4;0.0
ATTITUDE;ANGX;-8.0;ANGY;2.0;HEAD;-58.0
STATUS;CYCLETIME;2880;I2CERR;0;PRESENT;23;MODE;2
RAW_IMU;AX;6.0;AY;-5.0;AZ;255.0;GX;-2.0;GY;0.0;GZ;1.0;MAGX;162.0;MAGY;54.0;MAGZ;47.0
MOT;0;1000.0;1;1000.0;2;1000.0;3;1000.0;4;0.0;5;0.0;6;0.0;7;0.0;
RC;ROLL;1500.0;PITCH;1500.0;YAW;1500.0;THROTTLE;1500.0;AUX1;1500.0;AUX2;1500.0;AUX3;1500.0;AUX4;1500.0
ALTITUDE;20.0
DEBUG;DEBUG10.0;DEBUG2;0.0;DEBUG3;20.0;DEBUG4;0.0
ATTITUDE;ANGX;-8.0;ANGY;2.0;HEAD;-58.0
STATUS;CYCLETIME;2992;I2CERR;0;PRESENT;23;MODE;2
RAW_IMU;AX;7.0;AY;-7.0;AZ;256.0;GX;-2.0;GY;0.0;GZ;1.0;MAGX;162.0;MAGY;54.0;MAGZ;47.0
MOT;0;1000.0;1;1000.0;2;1000.0;3;1000.0;4;0.0;5;0.0;6;0.0;7;0.0;
RC;ROLL;1500.0;PITCH;1500.0;YAW;1500.0;THROTTLE;1500.0;AUX1;1500.0;AUX2;1500.0;AUX3;1500.0;AUX4;1500.0
ALTITUDE;20.0
DEBUG;DEBUG10.0;DEBUG2;0.0;DEBUG3;20.0;DEBUG4;0.0
ATTITUDE;ANGX;-8.0;ANGY;2.0;HEAD;-58.0
STATUS;CYCLETIME;2932;I2CERR;0;PRESENT;23;MODE;2
RAW_IMU;AX;5.0;AY;-6.0;AZ;254.0;GX;-2.0;GY;0.0;GZ;1.0;MAGX;162.0;MAGY;55.0;MAGZ;48.0
MOT;0;1000.0;1;1000.0;2;1000.0;3;1000.0;4;0.0;5;0.0;6;0.0;7;0.0;
RC;ROLL;1500.0;PITCH;1500.0;YAW;1500.0;THROTTLE;1500.0;AUX1;1500.0;AUX2;1500.0;AUX3;1500.0;AUX4;1500.0
ALTITUDE;20.0
DEBUG;DEBUG10.0;DEBUG2;0.0;DEBUG3;20.0;DEBUG4;0.0
ATTITUDE;ANGX;-8.0;ANGY;2.0;HEAD;-58.0
STATUS;CYCLETIME;2868;I2CERR;0;PRESENT;23;MODE;2
RAW_IMU;AX;6.0;AY;-5.0;AZ;255.0;GX;-2.0;GY;1.0;GZ;1.0;MAGX;162.0;MAGY;55.0;MAGZ;48.0
MOT;0;1000.0;1;1000.0;2;1000.0;3;1000.0;4;0.0;5;0.0;6;0.0;7;0.0;
RC;ROLL;1500.0;PITCH;1500.0;YAW;1500.0;THROTTLE;1500.0;AUX1;1500.0;AUX2;1500.0;AUX3;1500.0;AUX4;1500.0
ALTITUDE;20.0
DEBUG;DEBUG10.0;DEBUG2;0.0;DEBUG3;20.0;DEBUG4;0.0
ATTITUDE;ANGX;-8.0;ANGY;2.0;HEAD;-58.0
STATUS;CYCLETIME;2892;I2CERR;0;PRESENT;23;MODE;2
RAW_IMU;AX;6.0;AY;-6.0;AZ;256.0;GX;-2.0;GY;1.0;GZ;1.0;MAGX;162.0;MAGY;55.0;MAGZ;48.0
MOT;0;1000.0;1;1000.0;2;1000.0;3;1000.0;4;0.0;5;0.0;6;0.0;7;0.0;
RC;ROLL;1500.0;PITCH;1500.0;YAW;1500.0;THROTTLE;1500.0;AUX1;1500.0;AUX2;1500.0;AUX3;1500.0;AUX4;1500.0
ALTITUDE;20.0
DEBUG;DEBUG10.0;DEBUG2;0.0;DEBUG3;20.0;DEBUG4;0.0
ATTITUDE;ANGX;-8.0;ANGY;2.0;HEAD;-58.0
STATUS;CYCLETIME;2892;I2CERR;0;PRESENT;23;MODE;2
RAW_IMU;AX;6.0;AY;-5.0;AZ;256.0;GX;-2.0;GY;1.0;GZ;1.0;MAGX;163.0;MAGY;55.0;MAGZ;48.0
MOT;0;1000.0;1;1000.0;2;1000.0;3;1000.0;4;0.0;5;0.0;6;0.0;7;0.0;
RC;ROLL;1500.0;PITCH;1500.0;YAW;1500.0;THROTTLE;1500.0;AUX1;1500.0;AUX2;1500.0;AUX3;1500.0;AUX4;1500.0
ALTITUDE;20.0
DEBUG;DEBUG10.0;DEBUG2;0.0;DEBUG3;20.0;DEBUG4;0.0
ATTITUDE;ANGX;-8.0;ANGY;2.0;HEAD;-58.0
STATUS;CYCLETIME;2880;I2CERR;0;PRESENT;23;MODE;2
RAW_IMU;AX;7.0;AY;-3.0;AZ;255.0;GX;-2.0;GY;1.0;GZ;0.0;MAGX;163.0;MAGY;55.0;MAGZ;48.0
MOT;0;1000.0;1;1000.0;2;1000.0;3;1000.0;4;0.0;5;0.0;6;0.0;7;0.0;
RC;ROLL;1500.0;PITCH;1500.0;YAW;1500.0;THROTTLE;1500.0;AUX1;1500.0;AUX2;1500.0;AUX3;1500.0;AUX4;1500.0
ALTITUDE;20.0
DEBUG;DEBUG10.0;DEBUG2;0.0;DEBUG3;20.0;DEBUG4;0.0
ATTITUDE;ANGX;-8.0;ANGY;2.0;HEAD;-58.0
STATUS;CYCLETIME;2880;I2CERR;0;PRESENT;23;MODE;2
RAW_IMU;AX;7.0;AY;-4.0;AZ;255.0;GX;-2.0;GY;0.0;GZ;1.0;MAGX;163.0;MAGY;55.0;MAGZ;48.0
MOT;0;1000.0;1;1000.0;2;1000.0;3;1000.0;4;0.0;5;0.0;6;0.0;7;0.0;
RC;ROLL;1500.0;PITCH;1500.0;YAW;1500.0;THROTTLE;1500.0;AUX1;1500.0;AUX2;1500.0;AUX3;1500.0;AUX4;1500.0
ALTITUDE;20.0
DEBUG;DEBUG10.0;DEBUG2;0.0;DEBUG3;20.0;DEBUG4;0.0
ATTITUDE;ANGX;-8.0;ANGY;2.0;HEAD;-58.0
STATUS;CYCLETIME;2884;I2CERR;0;PRESENT;23;MODE;2
RAW_IMU;AX;6.0;AY;-6.0;AZ;255.0;GX;-2.0;GY;1.0;GZ;1.0;MAGX;163.0;MAGY;55.0;MAGZ;48.0
MOT;0;1000.0;1;1000.0;2;1000.0;3;1000.0;4;0.0;5;0.0;6;0.0;7;0.0;
RC;ROLL;1500.0;PITCH;1500.0;YAW;1500.0;THROTTLE;1500.0;AUX1;1500.0;AUX2;1500.0;AUX3;1500.0;AUX4;1500.0
ALTITUDE;20.0
DEBUG;DEBUG10.0;DEBUG2;0.0;DEBUG3;20.0;DEBUG4;0.0
ATTITUDE;ANGX;-8.0;ANGY;2.0;HEAD;-58.0
STATUS;CYCLETIME;2984;I2CERR;0;PRESENT;23;MODE;2
RAW_IMU;AX;6.0;AY;-7.0;AZ;255.0;GX;-2.0;GY;1.0;GZ;1.0;MAGX;162.0;MAGY;55.0;MAGZ;48.0
MOT;0;1000.0;1;1000.0;2;1000.0;3;1000.0;4;0.0;5;0.0;6;0.0;7;0.0;
RC;ROLL;1500.0;PITCH;1500.0;YAW;1500.0;THROTTLE;1500.0;AUX1;1500.0;AUX2;1500.0;AUX3;1500.0;AUX4;1500.0
ALTITUDE;20.0
DEBUG;DEBUG10.0;DEBUG2;0.0;DEBUG3;20.0;DEBUG4;0.0
ATTITUDE;ANGX;-8.0;ANGY;2.0;HEAD;-58.0
STATUS;CYCLETIME;2884;I2CERR;0;PRESENT;23;MODE;2
RAW_IMU;AX;5.0;AY;-6.0;AZ;257.0;GX;-2.0;GY;1.0;GZ;1.0;MAGX;162.0;MAGY;55.0;MAGZ;48.0
MOT;0;1000.0;1;1000.0;2;1000.0;3;1000.0;4;0.0;5;0.0;6;0.0;7;0.0;
RC;ROLL;1500.0;PITCH;1500.0;YAW;1500.0;THROTTLE;1500.0;AUX1;1500.0;AUX2;1500.0;AUX3;1500.0;AUX4;1500.0
ALTITUDE;20.0
DEBUG;DEBUG10.0;DEBUG2;0.0;DEBUG3;20.0;DEBUG4;0.0
ATTITUDE;ANGX;-8.0;ANGY;2.0;HEAD;-58.0
STATUS;CYCLETIME;2884;I2CERR;0;PRESENT;23;MODE;2
RAW_IMU;AX;3.0;AY;-6.0;AZ;254.0;GX;-2.0;GY;0.0;GZ;1.0;MAGX;162.0;MAGY;54.0;MAGZ;48.0
MOT;0;1000.0;1;1000.0;2;1000.0;3;1000.0;4;0.0;5;0.0;6;0.0;7;0.0;
RC;ROLL;1500.0;PITCH;1500.0;YAW;1500.0;THROTTLE;1500.0;AUX1;1500.0;AUX2;1500.0;AUX3;1500.0;AUX4;1500.0
ALTITUDE;20.0
DEBUG;DEBUG10.0;DEBUG2;0.0;DEBUG3;20.0;DEBUG4;0.0
ATTITUDE;ANGX;-8.0;ANGY;2.0;HEAD;-58.0
STATUS;CYCLETIME;2880;I2CERR;0;PRESENT;23;MODE;2
RAW_IMU;AX;5.0;AY;-5.0;AZ;253.0;GX;-2.0;GY;1.0;GZ;1.0;MAGX;162.0;MAGY;54.0;MAGZ;48.0
MOT;0;1000.0;1;1000.0;2;1000.0;3;1000.0;4;0.0;5;0.0;6;0.0;7;0.0;
RC;ROLL;1500.0;PITCH;1500.0;YAW;1500.0;THROTTLE;1500.0;AUX1;1500.0;AUX2;1500.0;AUX3;1500.0;AUX4;1500.0
ALTITUDE;20.0
DEBUG;DEBUG10.0;DEBUG2;0.0;DEBUG3;20.0;DEBUG4;0.0
ATTITUDE;ANGX;-8.0;ANGY;2.0;HEAD;-58.0
STATUS;CYCLETIME;2888;I2CERR;0;PRESENT;23;MODE;2
RAW_IMU;AX;7.0;AY;-5.0;AZ;257.0;GX;-2.0;GY;1.0;GZ;1.0;MAGX;162.0;MAGY;56.0;MAGZ;49.0
MOT;0;1000.0;1;1000.0;2;1000.0;3;1000.0;4;0.0;5;0.0;6;0.0;7;0.0;
RC;ROLL;1500.0;PITCH;1500.0;YAW;1500.0;THROTTLE;1500.0;AUX1;1500.0;AUX2;1500.0;AUX3;1500.0;AUX4;1500.0
ALTITUDE;20.0
DEBUG;DEBUG10.0;DEBUG2;0.0;DEBUG3;20.0;DEBUG4;0.0
ATTITUDE;ANGX;-8.0;ANGY;2.0;HEAD;-58.0
STATUS;CYCLETIME;2996;I2CERR;0;PRESENT;23;MODE;2
RAW_IMU;AX;6.0;AY;-6.0;AZ;259.0;GX;-2.0;GY;1.0;GZ;1.0;MAGX;162.0;MAGY;56.0;MAGZ;49.0
MOT;0;1000.0;1;1000.0;2;1000.0;3;1000.0;4;0.0;5;0.0;6;0.0;7;0.0;
RC;ROLL;1500.0;PITCH;1500.0;YAW;1500.0;THROTTLE;1500.0;AUX1;1500.0;AUX2;1500.0;AUX3;1500.0;AUX4;1500.0
ALTITUDE;20.0
DEBUG;DEBUG10.0;DEBUG2;0.0;DEBUG3;20.0;DEBUG4;0.0
ATTITUDE;ANGX;-8.0;ANGY;2.0;HEAD;-58.0
STATUS;CYCLETIME;2876;I2CERR;0;PRESENT;23;MODE;2
RAW_IMU;AX;5.0;AY;-7.0;AZ;258.0;GX;-2.0;GY;1.0;GZ;1.0;MAGX;163.0;MAGY;54.0;MAGZ;47.0
MOT;0;1000.0;1;1000.0;2;1000.0;3;1000.0;4;0.0;5;0.0;6;0.0;7;0.0;
RC;ROLL;1500.0;PITCH;1500.0;YAW;1500.0;THROTTLE;1500.0;AUX1;1500.0;AUX2;1500.0;AUX3;1500.0;AUX4;1500.0
ALTITUDE;20.0
DEBUG;DEBUG10.0;DEBUG2;0.0;DEBUG3;20.0;DEBUG4;0.0
ATTITUDE;ANGX;-8.0;ANGY;1.0;HEAD;-58.0
STATUS;CYCLETIME;2884;I2CERR;0;PRESENT;23;MODE;2
RAW_IMU;AX;5.0;AY;-7.0;AZ;256.0;GX;-2.0;GY;1.0;GZ;1.0;MAGX;163.0;MAGY;54.0;MAGZ;47.0
MOT;0;1000.0;1;1000.0;2;1000.0;3;1000.0;4;0.0;5;0.0;6;0.0;7;0.0;
RC;ROLL;1500.0;PITCH;1500.0;YAW;1500.0;THROTTLE;1500.0;AUX1;1500.0;AUX2;1500.0;AUX3;1500.0;AUX4;1500.0
ALTITUDE;20.0
DEBUG;DEBUG10.0;DEBUG2;0.0;DEBUG3;20.0;DEBUG4;0.0
ATTITUDE;ANGX;-8.0;ANGY;1.0;HEAD;-58.0
STATUS;CYCLETIME;2892;I2CERR;0;PRESENT;23;MODE;2
RAW_IMU;AX;8.0;AY;-6.0;AZ;256.0;GX;-2.0;GY;1.0;GZ;1.0;MAGX;163.0;MAGY;54.0;MAGZ;47.0
MOT;0;1000.0;1;1000.0;2;1000.0;3;1000.0;4;0.0;5;0.0;6;0.0;7;0.0;
RC;ROLL;1500.0;PITCH;1500.0;YAW;1500.0;THROTTLE;1500.0;AUX1;1500.0;AUX2;1500.0;AUX3;1500.0;AUX4;1500.0
ALTITUDE;20.0
DEBUG;DEBUG10.0;DEBUG2;0.0;DEBUG3;20.0;DEBUG4;0.0
ATTITUDE;ANGX;-8.0;ANGY;1.0;HEAD;-58.0
STATUS;CYCLETIME;2884;I2CERR;0;PRESENT;23;MODE;2
RAW_IMU;AX;6.0;AY;-3.0;AZ;257.0;GX;-2.0;GY;1.0;GZ;1.0;MAGX;162.0;MAGY;55.0;MAGZ;48.0
MOT;0;1000.0;1;1000.0;2;1000.0;3;1000.0;4;0.0;5;0.0;6;0.0;7;0.0;
RC;ROLL;1500.0;PITCH;1500.0;YAW;1500.0;THROTTLE;1500.0;AUX1;1500.0;AUX2;1500.0;AUX3;1500.0;AUX4;1500.0
ALTITUDE;20.0
DEBUG;DEBUG10.0;DEBUG2;0.0;DEBUG3;20.0;DEBUG4;0.0
ATTITUDE;ANGX;-8.0;ANGY;1.0;HEAD;-58.0
STATUS;CYCLETIME;2888;I2CERR;0;PRESENT;23;MODE;2
RAW_IMU;AX;6.0;AY;-3.0;AZ;256.0;GX;-2.0;GY;0.0;GZ;1.0;MAGX;162.0;MAGY;55.0;MAGZ;48.0
MOT;0;1000.0;1;1000.0;2;1000.0;3;1000.0;4;0.0;5;0.0;6;0.0;7;0.0;
RC;ROLL;1500.0;PITCH;1500.0;YAW;1500.0;THROTTLE;1500.0;AUX1;1500.0;AUX2;1500.0;AUX3;1500.0;AUX4;1500.0
ALTITUDE;20.0
DEBUG;DEBUG10.0;DEBUG2;0.0;DEBUG3;20.0;DEBUG4;0.0
ATTITUDE;ANGX;-8.0;ANGY;1.0;HEAD;-58.0
STATUS;CYCLETIME;2876;I2CERR;0;PRESENT;23;MODE;2
RAW_IMU;AX;7.0;AY;-4.0;AZ;256.0;GX;-2.0;GY;1.0;GZ;1.0;MAGX;162.0;MAGY;55.0;MAGZ;47.0
MOT;0;1000.0;1;1000.0;2;1000.0;3;1000.0;4;0.0;5;0.0;6;0.0;7;0.0;
RC;ROLL;1500.0;PITCH;1500.0;YAW;1500.0;THROTTLE;1500.0;AUX1;1500.0;AUX2;1500.0;AUX3;1500.0;AUX4;1500.0
ALTITUDE;20.0
DEBUG;DEBUG10.0;DEBUG2;0.0;DEBUG3;20.0;DEBUG4;0.0
ATTITUDE;ANGX;-8.0;ANGY;2.0;HEAD;-58.0
STATUS;CYCLETIME;2876;I2CERR;0;PRESENT;23;MODE;2
RAW_IMU;AX;9.0;AY;-4.0;AZ;258.0;GX;-2.0;GY;1.0;GZ;1.0;MAGX;162.0;MAGY;55.0;MAGZ;47.0
MOT;0;1000.0;1;1000.0;2;1000.0;3;1000.0;4;0.0;5;0.0;6;0.0;7;0.0;
RC;ROLL;1500.0;PITCH;1500.0;YAW;1500.0;THROTTLE;1500.0;AUX1;1500.0;AUX2;1500.0;AUX3;1500.0;AUX4;1500.0
ALTITUDE;20.0
DEBUG;DEBUG10.0;DEBUG2;0.0;DEBUG3;20.0;DEBUG4;0.0
ATTITUDE;ANGX;-8.0;ANGY;2.0;HEAD;-58.0
STATUS;CYCLETIME;2988;I2CERR;0;PRESENT;23;MODE;2
RAW_IMU;AX;7.0;AY;-3.0;AZ;257.0;GX;-2.0;GY;1.0;GZ;1.0;MAGX;162.0;MAGY;55.0;MAGZ;48.0
MOT;0;1000.0;1;1000.0;2;1000.0;3;1000.0;4;0.0;5;0.0;6;0.0;7;0.0;
RC;ROLL;1500.0;PITCH;1500.0;YAW;1500.0;THROTTLE;1500.0;AUX1;1500.0;AUX2;1500.0;AUX3;1500.0;AUX4;1500.0
ALTITUDE;20.0
DEBUG;DEBUG10.0;DEBUG2;0.0;DEBUG3;20.0;DEBUG4;0.0
ATTITUDE;ANGX;-8.0;ANGY;2.0;HEAD;-58.0
STATUS;CYCLETIME;2892;I2CERR;0;PRESENT;23;MODE;2
RAW_IMU;AX;7.0;AY;-3.0;AZ;257.0;GX;-2.0;GY;1.0;GZ;1.0;MAGX;162.0;MAGY;55.0;MAGZ;48.0
MOT;0;1000.0;1;1000.0;2;1000.0;3;1000.0;4;0.0;5;0.0;6;0.0;7;0.0;
RC;ROLL;1500.0;PITCH;1500.0;YAW;1500.0;THROTTLE;1500.0;AUX1;1500.0;AUX2;1500.0;AUX3;1500.0;AUX4;1500.0
ALTITUDE;20.0
DEBUG;DEBUG10.0;DEBUG2;0.0;DEBUG3;20.0;DEBUG4;0.0
ATTITUDE;ANGX;-8.0;ANGY;2.0;HEAD;-58.0
STATUS;CYCLETIME;2888;I2CERR;0;PRESENT;23;MODE;2
RAW_IMU;AX;7.0;AY;-5.0;AZ;256.0;GX;-2.0;GY;0.0;GZ;1.0;MAGX;162.0;MAGY;55.0;MAGZ;48.0
MOT;0;1000.0;1;1000.0;2;1000.0;3;1000.0;4;0.0;5;0.0;6;0.0;7;0.0;
RC;ROLL;1500.0;PITCH;1500.0;YAW;1500.0;THROTTLE;1500.0;AUX1;1500.0;AUX2;1500.0;AUX3;1500.0;AUX4;1500.0
ALTITUDE;20.0
DEBUG;DEBUG10.0;DEBUG2;0.0;DEBUG3;20.0;DEBUG4;0.0
ATTITUDE;ANGX;-8.0;ANGY;2.0;HEAD;-58.0
STATUS;CYCLETIME;2880;I2CERR;0;PRESENT;23;MODE;2
RAW_IMU;AX;4.0;AY;-2.0;AZ;254.0;GX;-2.0;GY;1.0;GZ;1.0;MAGX;162.0;MAGY;55.0;MAGZ;48.0
MOT;0;1000.0;1;1000.0;2;1000.0;3;1000.0;4;0.0;5;0.0;6;0.0;7;0.0;
RC;ROLL;1500.0;PITCH;1500.0;YAW;1500.0;THROTTLE;1500.0;AUX1;1500.0;AUX2;1500.0;AUX3;1500.0;AUX4;1500.0
ALTITUDE;20.0
DEBUG;DEBUG10.0;DEBUG2;0.0;DEBUG3;20.0;DEBUG4;0.0
ATTITUDE;ANGX;-8.0;ANGY;2.0;HEAD;-58.0
STATUS;CYCLETIME;2888;I2CERR;0;PRESENT;23;MODE;2
RAW_IMU;AX;5.0;AY;-3.0;AZ;251.0;GX;-2.0;GY;1.0;GZ;1.0;MAGX;163.0;MAGY;54.0;MAGZ;48.0
MOT;0;1000.0;1;1000.0;2;1000.0;3;1000.0;4;0.0;5;0.0;6;0.0;7;0.0;
RC;ROLL;1500.0;PITCH;1500.0;YAW;1500.0;THROTTLE;1500.0;AUX1;1500.0;AUX2;1500.0;AUX3;1500.0;AUX4;1500.0
ALTITUDE;20.0
DEBUG;DEBUG10.0;DEBUG2;0.0;DEBUG3;20.0;DEBUG4;0.0
ATTITUDE;ANGX;-8.0;ANGY;2.0;HEAD;-58.0
STATUS;CYCLETIME;2888;I2CERR;0;PRESENT;23;MODE;2
RAW_IMU;AX;5.0;AY;-5.0;AZ;254.0;GX;-2.0;GY;1.0;GZ;1.0;MAGX;163.0;MAGY;54.0;MAGZ;48.0
MOT;0;1000.0;1;1000.0;2;1000.0;3;1000.0;4;0.0;5;0.0;6;0.0;7;0.0;
RC;ROLL;1500.0;PITCH;1500.0;YAW;1500.0;THROTTLE;1500.0;AUX1;1500.0;AUX2;1500.0;AUX3;1500.0;AUX4;1500.0
ALTITUDE;20.0
DEBUG;DEBUG10.0;DEBUG2;0.0;DEBUG3;20.0;DEBUG4;0.0
ATTITUDE;ANGX;-8.0;ANGY;2.0;HEAD;-58.0
STATUS;CYCLETIME;2876;I2CERR;0;PRESENT;23;MODE;2
RAW_IMU;AX;4.0;AY;-6.0;AZ;257.0;GX;-2.0;GY;1.0;GZ;1.0;MAGX;162.0;MAGY;55.0;MAGZ;48.0
MOT;0;1000.0;1;1000.0;2;1000.0;3;1000.0;4;0.0;5;0.0;6;0.0;7;0.0;
RC;ROLL;1500.0;PITCH;1500.0;YAW;1500.0;THROTTLE;1500.0;AUX1;1500.0;AUX2;1500.0;AUX3;1500.0;AUX4;1500.0
ALTITUDE;20.0
DEBUG;DEBUG10.0;DEBUG2;0.0;DEBUG3;20.0;DEBUG4;0.0
ATTITUDE;ANGX;-8.0;ANGY;2.0;HEAD;-58.0
STATUS;CYCLETIME;2876;I2CERR;0;PRESENT;23;MODE;2
RAW_IMU;AX;6.0;AY;-6.0;AZ;255.0;GX;-2.0;GY;1.0;GZ;1.0;MAGX;162.0;MAGY;55.0;MAGZ;48.0
MOT;0;1000.0;1;1000.0;2;1000.0;3;1000.0;4;0.0;5;0.0;6;0.0;7;0.0;
RC;ROLL;1500.0;PITCH;1500.0;YAW;1500.0;THROTTLE;1500.0;AUX1;1500.0;AUX2;1500.0;AUX3;1500.0;AUX4;1500.0
ALTITUDE;20.0
DEBUG;DEBUG10.0;DEBUG2;0.0;DEBUG3;20.0;DEBUG4;0.0
ATTITUDE;ANGX;-8.0;ANGY;2.0;HEAD;-58.0
STATUS;CYCLETIME;2900;I2CERR;0;PRESENT;23;MODE;2
RAW_IMU;AX;5.0;AY;-7.0;AZ;256.0;GX;-2.0;GY;1.0;GZ;1.0;MAGX;162.0;MAGY;55.0;MAGZ;48.0
MOT;0;1000.0;1;1000.0;2;1000.0;3;1000.0;4;0.0;5;0.0;6;0.0;7;0.0;
RC;ROLL;1500.0;PITCH;1500.0;YAW;1500.0;THROTTLE;1500.0;AUX1;1500.0;AUX2;1500.0;AUX3;1500.0;AUX4;1500.0
ALTITUDE;20.0
DEBUG;DEBUG10.0;DEBUG2;0.0;DEBUG3;20.0;DEBUG4;0.0
