IDENT;V;220;TYPE;3
MSP_MOTOR_PINS
STATUS;CYCLETIME;2888;I2CERR;0;PRESENT;23;MODE;1
RAW_IMU;AX;-25.0;AY;-9.0;AZ;255.0;GX;-2.0;GY;0.0;GZ;1.0;MAGX;85.0;MAGY;-88.0;MAGZ;57.0
MOT;0;1150.0;1;1150.0;2;1150.0;3;1150.0;4;0.0;5;0.0;6;0.0;7;0.0;
RC;ROLL;1497.0;PITCH;1506.0;YAW;1496.0;THROTTLE;1054.0;AUX1;1548.0;AUX2;1500.0;AUX3;1500.0;AUX4;1500.0
ALTITUDE;46.0
DEBUG;DEBUG10.0;DEBUG2;0.0;DEBUG3;46.0;DEBUG4;0.0
ATTITUDE;ANGX;-15.0;ANGY;0.0;HEAD;-120.0
STATUS;CYCLETIME;2900;I2CERR;0;PRESENT;23;MODE;1
RAW_IMU;AX;-26.0;AY;-10.0;AZ;259.0;GX;-4.0;GY;0.0;GZ;1.0;MAGX;85.0;MAGY;-88.0;MAGZ;57.0
MOT;0;1150.0;1;1150.0;2;1150.0;3;1150.0;4;0.0;5;0.0;6;0.0;7;0.0;
RC;ROLL;1502.0;PITCH;1500.0;YAW;1506.0;THROTTLE;1058.0;AUX1;1545.0;AUX2;1500.0;AUX3;1500.0;AUX4;1500.0
ALTITUDE;46.0
DEBUG;DEBUG10.0;DEBUG2;0.0;DEBUG3;46.0;DEBUG4;0.0
ATTITUDE;ANGX;-15.0;ANGY;0.0;HEAD;-120.0
ATTITUDE;ANGX;-15.0;ANGY;0.0;HEAD;-120.0
STATUS;CYCLETIME;2988;I2CERR;0;PRESENT;23;MODE;1
RAW_IMU;AX;-25.0;AY;-8.0;AZ;258.0;GX;-2.0;GY;1.0;GZ;0.0;MAGX;86.0;MAGY;-88.0;MAGZ;56.0
MOT;0;1150.0;1;1150.0;2;1150.0;3;1150.0;4;0.0;5;0.0;6;0.0;7;0.0;
RC;ROLL;1492.0;PITCH;1503.0;YAW;1520.0;THROTTLE;1056.0;AUX1;1534.0;AUX2;1500.0;AUX3;1500.0;AUX4;1500.0
ALTITUDE;46.0
DEBUG;DEBUG10.0;DEBUG2;0.0;DEBUG3;46.0;DEBUG4;0.0
ATTITUDE;ANGX;-15.0;ANGY;0.0;HEAD;-120.0
STATUS;CYCLETIME;2896;I2CERR;0;PRESENT;23;MODE;1
RAW_IMU;AX;-25.0;AY;-7.0;AZ;254.0;GX;0.0;GY;0.0;GZ;0.0;MAGX;86.0;MAGY;-89.0;MAGZ;57.0
MOT;0;1150.0;1;1150.0;2;1150.0;3;1150.0;4;0.0;5;0.0;6;0.0;7;0.0;
RC;ROLL;1484.0;PITCH;1508.0;YAW;1514.0;THROTTLE;1056.0;AUX1;1538.0;AUX2;1500.0;AUX3;1500.0;AUX4;1500.0
ALTITUDE;46.0
DEBUG;DEBUG10.0;DEBUG2;0.0;DEBUG3;46.0;DEBUG4;0.0
ATTITUDE;ANGX;-15.0;ANGY;0.0;HEAD;-120.0
STATUS;CYCLETIME;2936;I2CERR;0;PRESENT;23;MODE;1
RAW_IMU;AX;-26.0;AY;-10.0;AZ;255.0;GX;0.0;GY;0.0;GZ;0.0;MAGX;86.0;MAGY;-89.0;MAGZ;57.0
MOT;0;1150.0;1;1150.0;2;1150.0;3;1150.0;4;0.0;5;0.0;6;0.0;7;0.0;
RC;ROLL;1490.0;PITCH;1505.0;YAW;1511.0;THROTTLE;1056.0;AUX1;1544.0;AUX2;1500.0;AUX3;1500.0;AUX4;1500.0
ALTITUDE;46.0
DEBUG;DEBUG10.0;DEBUG2;0.0;DEBUG3;46.0;DEBUG4;0.0
ATTITUDE;ANGX;-15.0;ANGY;0.0;HEAD;-120.0
STATUS;CYCLETIME;3012;I2CERR;0;PRESENT;23;MODE;1
RAW_IMU;AX;-26.0;AY;-9.0;AZ;253.0;GX;0.0;GY;0.0;GZ;0.0;MAGX;86.0;MAGY;-89.0;MAGZ;57.0
MOT;0;1150.0;1;1150.0;2;1150.0;3;1150.0;4;0.0;5;0.0;6;0.0;7;0.0;
RC;ROLL;1497.0;PITCH;1505.0;YAW;1511.0;THROTTLE;1054.0;AUX1;1539.0;AUX2;1500.0;AUX3;1500.0;AUX4;1500.0
ALTITUDE;46.0
DEBUG;DEBUG10.0;DEBUG2;0.0;DEBUG3;46.0;DEBUG4;0.0
ATTITUDE;ANGX;-15.0;ANGY;0.0;HEAD;-121.0
STATUS;CYCLETIME;2892;I2CERR;0;PRESENT;23;MODE;1
RAW_IMU;AX;-24.0;AY;-8.0;AZ;254.0;GX;-1.0;GY;1.0;GZ;0.0;MAGX;87.0;MAGY;-88.0;MAGZ;58.0
MOT;0;1150.0;1;1150.0;2;1150.0;3;1150.0;4;0.0;5;0.0;6;0.0;7;0.0;
RC;ROLL;1497.0;PITCH;1505.0;YAW;1511.0;THROTTLE;1056.0;AUX1;1531.0;AUX2;1500.0;AUX3;1500.0;AUX4;1500.0
ALTITUDE;46.0
DEBUG;DEBUG10.0;DEBUG2;0.0;DEBUG3;46.0;DEBUG4;0.0
ATTITUDE;ANGX;-15.0;ANGY;0.0;HEAD;-121.0
STATUS;CYCLETIME;2888;I2CERR;0;PRESENT;23;MODE;1
RAW_IMU;AX;-25.0;AY;-9.0;AZ;255.0;GX;-3.0;GY;1.0;GZ;1.0;MAGX;87.0;MAGY;-88.0;MAGZ;58.0
MOT;0;1150.0;1;1150.0;2;1150.0;3;1150.0;4;0.0;5;0.0;6;0.0;7;0.0;
RC;ROLL;1497.0;PITCH;1503.0;YAW;1515.0;THROTTLE;1053.0;AUX1;1534.0;AUX2;1500.0;AUX3;1500.0;AUX4;1500.0
ALTITUDE;46.0
DEBUG;DEBUG10.0;DEBUG2;0.0;DEBUG3;46.0;DEBUG4;0.0
ATTITUDE;ANGX;-15.0;ANGY;0.0;HEAD;-120.0
STATUS;CYCLETIME;3044;I2CERR;0;PRESENT;23;MODE;1
RAW_IMU;AX;-24.0;AY;-6.0;AZ;255.0;GX;-4.0;GY;2.0;GZ;1.0;MAGX;86.0;MAGY;-88.0;MAGZ;58.0
MOT;0;1150.0;1;1150.0;2;1150.0;3;1150.0;4;0.0;5;0.0;6;0.0;7;0.0;
RC;ROLL;1501.0;PITCH;1493.0;YAW;1527.0;THROTTLE;1049.0;AUX1;1534.0;AUX2;1500.0;AUX3;1500.0;AUX4;1500.0
ALTITUDE;46.0
DEBUG;DEBUG10.0;DEBUG2;0.0;DEBUG3;46.0;DEBUG4;0.0
ATTITUDE;ANGX;-15.0;ANGY;0.0;HEAD;-120.0
STATUS;CYCLETIME;2896;I2CERR;0;PRESENT;23;MODE;1
RAW_IMU;AX;-24.0;AY;-7.0;AZ;252.0;GX;-4.0;GY;1.0;GZ;0.0;MAGX;86.0;MAGY;-88.0;MAGZ;58.0
MOT;0;1150.0;1;1150.0;2;1150.0;3;1150.0;4;0.0;5;0.0;6;0.0;7;0.0;
RC;ROLL;1501.0;PITCH;1493.0;YAW;1529.0;THROTTLE;1047.0;AUX1;1528.0;AUX2;1500.0;AUX3;1500.0;AUX4;1500.0
ALTITUDE;46.0
DEBUG;DEBUG10.0;DEBUG2;0.0;DEBUG3;46.0;DEBUG4;0.0
ATTITUDE;ANGX;-15.0;ANGY;0.0;HEAD;-120.0
STATUS;CYCLETIME;2892;I2CERR;0;PRESENT;23;MODE;1
RAW_IMU;AX;-25.0;AY;-8.0;AZ;255.0;GX;-4.0;GY;1.0;GZ;1.0;MAGX;85.0;MAGY;-88.0;MAGZ;57.0
MOT;0;1150.0;1;1150.0;2;1150.0;3;1150.0;4;0.0;5;0.0;6;0.0;7;0.0;
RC;ROLL;1493.0;PITCH;1499.0;YAW;1512.0;THROTTLE;1054.0;AUX1;1528.0;AUX2;1500.0;AUX3;1500.0;AUX4;1500.0
ALTITUDE;46.0
DEBUG;DEBUG10.0;DEBUG2;0.0;DEBUG3;46.0;DEBUG4;0.0
ATTITUDE;ANGX;-15.0;ANGY;0.0;HEAD;-120.0
STATUS;CYCLETIME;2896;I2CERR;0;PRESENT;23;MODE;1
RAW_IMU;AX;-26.0;AY;-9.0;AZ;253.0;GX;-2.0;GY;0.0;GZ;1.0;MAGX;85.0;MAGY;-88.0;MAGZ;57.0
MOT;0;1150.0;1;1150.0;2;1150.0;3;1150.0;4;0.0;5;0.0;6;0.0;7;0.0;
RC;ROLL;1488.0;PITCH;1507.0;YAW;1517.0;THROTTLE;1046.0;AUX1;1535.0;AUX2;1500.0;AUX3;1500.0;AUX4;1500.0
ALTITUDE;46.0
DEBUG;DEBUG10.0;DEBUG2;0.0;DEBUG3;46.0;DEBUG4;0.0
ATTITUDE;ANGX;-15.0;ANGY;0.0;HEAD;-120.0
STATUS;CYCLETIME;3204;I2CERR;0;PRESENT;23;MODE;1
RAW_IMU;AX;-26.0;AY;-10.0;AZ;254.0;GX;0.0;GY;0.0;GZ;1.0;MAGX;86.0;MAGY;-87.0;MAGZ;57.0
MOT;0;1150.0;1;1150.0;2;1150.0;3;1150.0;4;0.0;5;0.0;6;0.0;7;0.0;
RC;ROLL;1488.0;PITCH;1507.0;YAW;1515.0;THROTTLE;1046.0;AUX1;1535.0;AUX2;1500.0;AUX3;1500.0;AUX4;1500.0
ALTITUDE;46.0
DEBUG;DEBUG10.0;DEBUG2;0.0;DEBUG3;46.0;DEBUG4;0.0
ATTITUDE;ANGX;-15.0;ANGY;0.0;HEAD;-120.0
STATUS;CYCLETIME;2896;I2CERR;0;PRESENT;23;MODE;1
RAW_IMU;AX;-26.0;AY;-11.0;AZ;256.0;GX;0.0;GY;0.0;GZ;1.0;MAGX;86.0;MAGY;-87.0;MAGZ;57.0
MOT;0;1150.0;1;1150.0;2;1150.0;3;1150.0;4;0.0;5;0.0;6;0.0;7;0.0;
RC;ROLL;1496.0;PITCH;1502.0;YAW;1513.0;THROTTLE;1050.0;AUX1;1541.0;AUX2;1500.0;AUX3;1500.0;AUX4;1500.0
ALTITUDE;46.0
DEBUG;DEBUG10.0;DEBUG2;0.0;DEBUG3;46.0;DEBUG4;0.0
ATTITUDE;ANGX;-15.0;ANGY;0.0;HEAD;-120.0
STATUS;CYCLETIME;2924;I2CERR;0;PRESENT;23;MODE;1
RAW_IMU;AX;-23.0;AY;-10.0;AZ;257.0;GX;0.0;GY;0.0;GZ;0.0;MAGX;86.0;MAGY;-87.0;MAGZ;57.0
MOT;0;1150.0;1;1150.0;2;1150.0;3;1150.0;4;0.0;5;0.0;6;0.0;7;0.0;
RC;ROLL;1490.0;PITCH;1505.0;YAW;1513.0;THROTTLE;1061.0;AUX1;1523.0;AUX2;1500.0;AUX3;1500.0;AUX4;1500.0
ALTITUDE;46.0
DEBUG;DEBUG10.0;DEBUG2;0.0;DEBUG3;46.0;DEBUG4;0.0
ATTITUDE;ANGX;-15.0;ANGY;0.0;HEAD;-120.0
STATUS;CYCLETIME;3004;I2CERR;0;PRESENT;23;MODE;1
RAW_IMU;AX;-22.0;AY;-11.0;AZ;258.0;GX;-2.0;GY;1.0;GZ;0.0;MAGX;86.0;MAGY;-88.0;MAGZ;57.0
MOT;0;1150.0;1;1150.0;2;1150.0;3;1150.0;4;0.0;5;0.0;6;0.0;7;0.0;
RC;ROLL;1488.0;PITCH;1500.0;YAW;1515.0;THROTTLE;1065.0;AUX1;1528.0;AUX2;1500.0;AUX3;1500.0;AUX4;1500.0
ALTITUDE;46.0
DEBUG;DEBUG10.0;DEBUG2;0.0;DEBUG3;46.0;DEBUG4;0.0
ATTITUDE;ANGX;-15.0;ANGY;0.0;HEAD;-120.0
STATUS;CYCLETIME;2928;I2CERR;0;PRESENT;23;MODE;1
RAW_IMU;AX;-24.0;AY;-9.0;AZ;255.0;GX;-4.0;GY;1.0;GZ;1.0;MAGX;86.0;MAGY;-88.0;MAGZ;57.0
MOT;0;1150.0;1;1150.0;2;1150.0;3;1150.0;4;0.0;5;0.0;6;0.0;7;0.0;
RC;ROLL;1488.0;PITCH;1500.0;YAW;1521.0;THROTTLE;1065.0;AUX1;1536.0;AUX2;1500.0;AUX3;1500.0;AUX4;1500.0
ALTITUDE;46.0
DEBUG;DEBUG10.0;DEBUG2;0.0;DEBUG3;45.0;DEBUG4;0.0
ATTITUDE;ANGX;-15.0;ANGY;0.0;HEAD;-120.0
STATUS;CYCLETIME;2884;I2CERR;0;PRESENT;23;MODE;1
RAW_IMU;AX;-26.0;AY;-8.0;AZ;256.0;GX;-5.0;GY;1.0;GZ;0.0;MAGX;86.0;MAGY;-88.0;MAGZ;58.0
MOT;0;1150.0;1;1150.0;2;1150.0;3;1150.0;4;0.0;5;0.0;6;0.0;7;0.0;
RC;ROLL;1513.0;PITCH;1488.0;YAW;1555.0;THROTTLE;1014.0;AUX1;1543.0;AUX2;1500.0;AUX3;1500.0;AUX4;1500.0
ALTITUDE;45.0
DEBUG;DEBUG10.0;DEBUG2;0.0;DEBUG3;45.0;DEBUG4;0.0
ATTITUDE;ANGX;-15.0;ANGY;0.0;HEAD;-120.0
STATUS;CYCLETIME;2892;I2CERR;0;PRESENT;23;MODE;1
RAW_IMU;AX;-25.0;AY;-8.0;AZ;256.0;GX;-5.0;GY;0.0;GZ;0.0;MAGX;86.0;MAGY;-88.0;MAGZ;58.0
MOT;0;1150.0;1;1150.0;2;1150.0;3;1150.0;4;0.0;5;0.0;6;0.0;7;0.0;
RC;ROLL;1537.0;PITCH;1470.0;YAW;1592.0;THROTTLE;972.0;AUX1;1545.0;AUX2;1500.0;AUX3;1500.0;AUX4;1500.0
ALTITUDE;45.0
DEBUG;DEBUG10.0;DEBUG2;0.0;DEBUG3;45.0;DEBUG4;0.0
ATTITUDE;ANGX;-15.0;ANGY;0.0;HEAD;-120.0
STATUS;CYCLETIME;2880;I2CERR;0;PRESENT;23;MODE;1
RAW_IMU;AX;-27.0;AY;-10.0;AZ;253.0;GX;-4.0;GY;1.0;GZ;0.0;MAGX;86.0;MAGY;-87.0;MAGZ;57.0
MOT;0;1150.0;1;1150.0;2;1150.0;3;1150.0;4;0.0;5;0.0;6;0.0;7;0.0;
RC;ROLL;1537.0;PITCH;1470.0;YAW;1592.0;THROTTLE;970.0;AUX1;1545.0;AUX2;1500.0;AUX3;1500.0;AUX4;1500.0
ALTITUDE;45.0
DEBUG;DEBUG10.0;DEBUG2;0.0;DEBUG3;45.0;DEBUG4;0.0
ATTITUDE;ANGX;-16.0;ANGY;0.0;HEAD;-120.0
STATUS;CYCLETIME;3040;I2CERR;0;PRESENT;23;MODE;1
RAW_IMU;AX;-27.0;AY;-10.0;AZ;254.0;GX;-2.0;GY;0.0;GZ;1.0;MAGX;86.0;MAGY;-87.0;MAGZ;57.0
MOT;0;1150.0;1;1150.0;2;1150.0;3;1150.0;4;0.0;5;0.0;6;0.0;7;0.0;
RC;ROLL;1519.0;PITCH;1481.0;YAW;1550.0;THROTTLE;1015.0;AUX1;1543.0;AUX2;1500.0;AUX3;1500.0;AUX4;1500.0
ALTITUDE;45.0
DEBUG;DEBUG10.0;DEBUG2;0.0;DEBUG3;45.0;DEBUG4;0.0
ATTITUDE;ANGX;-16.0;ANGY;0.0;HEAD;-120.0
STATUS;CYCLETIME;3040;I2CERR;0;PRESENT;23;MODE;1
RAW_IMU;AX;-26.0;AY;-10.0;AZ;252.0;GX;0.0;GY;1.0;GZ;1.0;MAGX;86.0;MAGY;-88.0;MAGZ;56.0
MOT;0;1150.0;1;1150.0;2;1150.0;3;1150.0;4;0.0;5;0.0;6;0.0;7;0.0;
RC;ROLL;1497.0;PITCH;1498.0;YAW;1501.0;THROTTLE;1065.0;AUX1;1538.0;AUX2;1500.0;AUX3;1500.0;AUX4;1500.0
ALTITUDE;45.0
DEBUG;DEBUG10.0;DEBUG2;0.0;DEBUG3;45.0;DEBUG4;0.0
ATTITUDE;ANGX;-15.0;ANGY;0.0;HEAD;-120.0
STATUS;CYCLETIME;2948;I2CERR;0;PRESENT;23;MODE;1
RAW_IMU;AX;-23.0;AY;-9.0;AZ;254.0;GX;0.0;GY;1.0;GZ;0.0;MAGX;86.0;MAGY;-88.0;MAGZ;56.0
MOT;0;1150.0;1;1150.0;2;1150.0;3;1150.0;4;0.0;5;0.0;6;0.0;7;0.0;
RC;ROLL;1497.0;PITCH;1501.0;YAW;1501.0;THROTTLE;1067.0;AUX1;1538.0;AUX2;1500.0;AUX3;1500.0;AUX4;1500.0
ALTITUDE;45.0
DEBUG;DEBUG10.0;DEBUG2;0.0;DEBUG3;45.0;DEBUG4;0.0
ATTITUDE;ANGX;-15.0;ANGY;0.0;HEAD;-120.0
STATUS;CYCLETIME;3180;I2CERR;0;PRESENT;23;MODE;1
RAW_IMU;AX;-25.0;AY;-8.0;AZ;256.0;GX;0.0;GY;1.0;GZ;0.0;MAGX;86.0;MAGY;-89.0;MAGZ;57.0
MOT;0;1150.0;1;1150.0;2;1150.0;3;1150.0;4;0.0;5;0.0;6;0.0;7;0.0;
RC;ROLL;1497.0;PITCH;1501.0;YAW;1501.0;THROTTLE;1067.0;AUX1;1538.0;AUX2;1500.0;AUX3;1500.0;AUX4;1500.0
ALTITUDE;45.0
DEBUG;DEBUG10.0;DEBUG2;0.0;DEBUG3;45.0;DEBUG4;0.0
ATTITUDE;ANGX;-15.0;ANGY;0.0;HEAD;-120.0
STATUS;CYCLETIME;2940;I2CERR;0;PRESENT;23;MODE;1
RAW_IMU;AX;-25.0;AY;-7.0;AZ;257.0;GX;-1.0;GY;1.0;GZ;1.0;MAGX;86.0;MAGY;-89.0;MAGZ;57.0
MOT;0;1150.0;1;1150.0;2;1150.0;3;1150.0;4;0.0;5;0.0;6;0.0;7;0.0;
RC;ROLL;1497.0;PITCH;1501.0;YAW;1501.0;THROTTLE;1067.0;AUX1;1536.0;AUX2;1500.0;AUX3;1500.0;AUX4;1500.0
ALTITUDE;45.0
DEBUG;DEBUG10.0;DEBUG2;0.0;DEBUG3;45.0;DEBUG4;0.0
ATTITUDE;ANGX;-15.0;ANGY;0.0;HEAD;-120.0
STATUS;CYCLETIME;2888;I2CERR;0;PRESENT;23;MODE;1
RAW_IMU;AX;-23.0;AY;-8.0;AZ;255.0;GX;-2.0;GY;1.0;GZ;2.0;MAGX;86.0;MAGY;-89.0;MAGZ;57.0
MOT;0;1150.0;1;1150.0;2;1150.0;3;1150.0;4;0.0;5;0.0;6;0.0;7;0.0;
RC;ROLL;1497.0;PITCH;1501.0;YAW;1503.0;THROTTLE;1067.0;AUX1;1536.0;AUX2;1500.0;AUX3;1500.0;AUX4;1500.0
ALTITUDE;45.0
DEBUG;DEBUG10.0;DEBUG2;0.0;DEBUG3;45.0;DEBUG4;0.0
ATTITUDE;ANGX;-15.0;ANGY;0.0;HEAD;-120.0
STATUS;CYCLETIME;2948;I2CERR;0;PRESENT;23;MODE;1
RAW_IMU;AX;-23.0;AY;-8.0;AZ;256.0;GX;-4.0;GY;0.0;GZ;1.0;MAGX;85.0;MAGY;-88.0;MAGZ;57.0
MOT;0;1150.0;1;1150.0;2;1150.0;3;1150.0;4;0.0;5;0.0;6;0.0;7;0.0;
RC;ROLL;1497.0;PITCH;1501.0;YAW;1503.0;THROTTLE;1067.0;AUX1;1536.0;AUX2;1500.0;AUX3;1500.0;AUX4;1500.0
ALTITUDE;45.0
DEBUG;DEBUG10.0;DEBUG2;0.0;DEBUG3;45.0;DEBUG4;0.0
ATTITUDE;ANGX;-15.0;ANGY;0.0;HEAD;-120.0
STATUS;CYCLETIME;2884;I2CERR;0;PRESENT;23;MODE;1
RAW_IMU;AX;-26.0;AY;-7.0;AZ;257.0;GX;-5.0;GY;0.0;GZ;0.0;MAGX;85.0;MAGY;-88.0;MAGZ;57.0
MOT;0;1150.0;1;1150.0;2;1150.0;3;1150.0;4;0.0;5;0.0;6;0.0;7;0.0;
RC;ROLL;1497.0;PITCH;1503.0;YAW;1503.0;THROTTLE;1060.0;AUX1;1536.0;AUX2;1500.0;AUX3;1500.0;AUX4;1500.0
ALTITUDE;45.0
DEBUG;DEBUG10.0;DEBUG2;0.0;DEBUG3;45.0;DEBUG4;0.0
ATTITUDE;ANGX;-15.0;ANGY;0.0;HEAD;-120.0
STATUS;CYCLETIME;3000;I2CERR;0;PRESENT;23;MODE;1
RAW_IMU;AX;-27.0;AY;-9.0;AZ;259.0;GX;-5.0;GY;0.0;GZ;1.0;MAGX;86.0;MAGY;-89.0;MAGZ;55.0
MOT;0;1150.0;1;1150.0;2;1150.0;3;1150.0;4;0.0;5;0.0;6;0.0;7;0.0;
RC;ROLL;1497.0;PITCH;1503.0;YAW;1506.0;THROTTLE;1063.0;AUX1;1536.0;AUX2;1500.0;AUX3;1500.0;AUX4;1500.0
ALTITUDE;45.0
DEBUG;DEBUG10.0;DEBUG2;0.0;DEBUG3;45.0;DEBUG4;0.0
ATTITUDE;ANGX;-16.0;ANGY;0.0;HEAD;-120.0
STATUS;CYCLETIME;2896;I2CERR;0;PRESENT;23;MODE;1
RAW_IMU;AX;-25.0;AY;-8.0;AZ;256.0;GX;-3.0;GY;1.0;GZ;1.0;MAGX;86.0;MAGY;-89.0;MAGZ;55.0
MOT;0;1150.0;1;1150.0;2;1150.0;3;1150.0;4;0.0;5;0.0;6;0.0;7;0.0;
RC;ROLL;1497.0;PITCH;1503.0;YAW;1500.0;THROTTLE;1063.0;AUX1;1536.0;AUX2;1500.0;AUX3;1500.0;AUX4;1500.0
ALTITUDE;45.0
DEBUG;DEBUG10.0;DEBUG2;0.0;DEBUG3;45.0;DEBUG4;0.0
ATTITUDE;ANGX;-16.0;ANGY;0.0;HEAD;-120.0
STATUS;CYCLETIME;2928;I2CERR;0;PRESENT;23;MODE;1
RAW_IMU;AX;-27.0;AY;-9.0;AZ;256.0;GX;-1.0;GY;0.0;GZ;1.0;MAGX;86.0;MAGY;-88.0;MAGZ;55.0
MOT;0;1150.0;1;1150.0;2;1150.0;3;1150.0;4;0.0;5;0.0;6;0.0;7;0.0;
RC;ROLL;1497.0;PITCH;1503.0;YAW;1494.0;THROTTLE;1066.0;AUX1;1534.0;AUX2;1500.0;AUX3;1500.0;AUX4;1500.0
ALTITUDE;45.0
DEBUG;DEBUG10.0;DEBUG2;0.0;DEBUG3;45.0;DEBUG4;0.0
ATTITUDE;ANGX;-16.0;ANGY;0.0;HEAD;-120.0
STATUS;CYCLETIME;3004;I2CERR;0;PRESENT;23;MODE;1
RAW_IMU;AX;-26.0;AY;-9.0;AZ;252.0;GX;0.0;GY;1.0;GZ;1.0;MAGX;86.0;MAGY;-88.0;MAGZ;55.0
MOT;0;1150.0;1;1150.0;2;1150.0;3;1150.0;4;0.0;5;0.0;6;0.0;7;0.0;
RC;ROLL;1497.0;PITCH;1499.0;YAW;1497.0;THROTTLE;1066.0;AUX1;1532.0;AUX2;1500.0;AUX3;1500.0;AUX4;1500.0
ALTITUDE;45.0
DEBUG;DEBUG10.0;DEBUG2;0.0;DEBUG3;45.0;DEBUG4;0.0
ATTITUDE;ANGX;-16.0;ANGY;0.0;HEAD;-120.0
STATUS;CYCLETIME;2896;I2CERR;0;PRESENT;23;MODE;1
RAW_IMU;AX;-26.0;AY;-10.0;AZ;254.0;GX;0.0;GY;1.0;GZ;1.0;MAGX;86.0;MAGY;-87.0;MAGZ;56.0
MOT;0;1150.0;1;1150.0;2;1150.0;3;1150.0;4;0.0;5;0.0;6;0.0;7;0.0;
RC;ROLL;1508.0;PITCH;1578.0;YAW;1476.0;THROTTLE;1026.0;AUX1;1513.0;AUX2;1500.0;AUX3;1500.0;AUX4;1500.0
ALTITUDE;45.0
DEBUG;DEBUG10.0;DEBUG2;0.0;DEBUG3;45.0;DEBUG4;0.0
ATTITUDE;ANGX;-15.0;ANGY;0.0;HEAD;-120.0
STATUS;CYCLETIME;2912;I2CERR;0;PRESENT;23;MODE;1
RAW_IMU;AX;-25.0;AY;-9.0;AZ;253.0;GX;0.0;GY;1.0;GZ;1.0;MAGX;86.0;MAGY;-87.0;MAGZ;56.0
MOT;0;1150.0;1;1150.0;2;1150.0;3;1150.0;4;0.0;5;0.0;6;0.0;7;0.0;
RC;ROLL;1516.0;PITCH;1662.0;YAW;1443.0;THROTTLE;984.0;AUX1;1491.0;AUX2;1500.0;AUX3;1500.0;AUX4;1500.0
ALTITUDE;45.0
DEBUG;DEBUG10.0;DEBUG2;0.0;DEBUG3;45.0;DEBUG4;0.0
ATTITUDE;ANGX;-15.0;ANGY;0.0;HEAD;-120.0
STATUS;CYCLETIME;2924;I2CERR;0;PRESENT;23;MODE;1
RAW_IMU;AX;-24.0;AY;-10.0;AZ;254.0;GX;-1.0;GY;0.0;GZ;0.0;MAGX;86.0;MAGY;-89.0;MAGZ;57.0
MOT;0;1150.0;1;1150.0;2;1150.0;3;1150.0;4;0.0;5;0.0;6;0.0;7;0.0;
RC;ROLL;1500.0;PITCH;1589.0;YAW;1481.0;THROTTLE;1011.0;AUX1;1516.0;AUX2;1500.0;AUX3;1500.0;AUX4;1500.0
ALTITUDE;45.0
DEBUG;DEBUG10.0;DEBUG2;0.0;DEBUG3;45.0;DEBUG4;0.0
ATTITUDE;ANGX;-15.0;ANGY;0.0;HEAD;-120.0
STATUS;CYCLETIME;2904;I2CERR;0;PRESENT;23;MODE;1
RAW_IMU;AX;-23.0;AY;-9.0;AZ;254.0;GX;-2.0;GY;0.0;GZ;0.0;MAGX;86.0;MAGY;-89.0;MAGZ;57.0
MOT;0;1150.0;1;1150.0;2;1150.0;3;1150.0;4;0.0;5;0.0;6;0.0;7;0.0;
RC;ROLL;1471.0;PITCH;1516.0;YAW;1525.0;THROTTLE;1043.0;AUX1;1538.0;AUX2;1500.0;AUX3;1500.0;AUX4;1500.0
ALTITUDE;45.0
DEBUG;DEBUG10.0;DEBUG2;0.0;DEBUG3;45.0;DEBUG4;0.0
ATTITUDE;ANGX;-15.0;ANGY;0.0;HEAD;-120.0
STATUS;CYCLETIME;3008;I2CERR;0;PRESENT;23;MODE;1
RAW_IMU;AX;-26.0;AY;-10.0;AZ;255.0;GX;-2.0;GY;0.0;GZ;0.0;MAGX;86.0;MAGY;-88.0;MAGZ;57.0
MOT;0;1150.0;1;1150.0;2;1150.0;3;1150.0;4;0.0;5;0.0;6;0.0;7;0.0;
RC;ROLL;1469.0;PITCH;1493.0;YAW;1510.0;THROTTLE;1067.0;AUX1;1550.0;AUX2;1500.0;AUX3;1500.0;AUX4;1500.0
ALTITUDE;45.0
DEBUG;DEBUG10.0;DEBUG2;0.0;DEBUG3;45.0;DEBUG4;0.0
ATTITUDE;ANGX;-15.0;ANGY;0.0;HEAD;-120.0
STATUS;CYCLETIME;2900;I2CERR;0;PRESENT;23;MODE;1
RAW_IMU;AX;-27.0;AY;-9.0;AZ;256.0;GX;-2.0;GY;0.0;GZ;0.0;MAGX;86.0;MAGY;-88.0;MAGZ;57.0
MOT;0;1170.0;1;1162.0;2;1150.0;3;1198.0;4;0.0;5;0.0;6;0.0;7;0.0;
RC;ROLL;1473.0;PITCH;1455.0;YAW;1478.0;THROTTLE;1117.0;AUX1;1562.0;AUX2;1500.0;AUX3;1500.0;AUX4;1500.0
ALTITUDE;45.0
DEBUG;DEBUG10.0;DEBUG2;0.0;DEBUG3;45.0;DEBUG4;0.0
ATTITUDE;ANGX;-15.0;ANGY;0.0;HEAD;-120.0
STATUS;CYCLETIME;2908;I2CERR;0;PRESENT;23;MODE;1
RAW_IMU;AX;-25.0;AY;-9.0;AZ;255.0;GX;-3.0;GY;1.0;GZ;1.0;MAGX;86.0;MAGY;-88.0;MAGZ;57.0
MOT;0;1150.0;1;1150.0;2;1150.0;3;1150.0;4;0.0;5;0.0;6;0.0;7;0.0;
RC;ROLL;1475.0;PITCH;1480.0;YAW;1508.0;THROTTLE;1078.0;AUX1;1546.0;AUX2;1500.0;AUX3;1500.0;AUX4;1500.0
ALTITUDE;45.0
DEBUG;DEBUG10.0;DEBUG2;0.0;DEBUG3;45.0;DEBUG4;0.0
ATTITUDE;ANGX;-15.0;ANGY;0.0;HEAD;-120.0
STATUS;CYCLETIME;3048;I2CERR;0;PRESENT;23;MODE;1
RAW_IMU;AX;-24.0;AY;-8.0;AZ;255.0;GX;-2.0;GY;1.0;GZ;1.0;MAGX;87.0;MAGY;-89.0;MAGZ;57.0
MOT;0;1150.0;1;1150.0;2;1150.0;3;1150.0;4;0.0;5;0.0;6;0.0;7;0.0;
RC;ROLL;1485.0;PITCH;1514.0;YAW;1508.0;THROTTLE;1045.0;AUX1;1546.0;AUX2;1500.0;AUX3;1500.0;AUX4;1500.0
ALTITUDE;45.0
DEBUG;DEBUG10.0;DEBUG2;0.0;DEBUG3;45.0;DEBUG4;0.0
ATTITUDE;ANGX;-15.0;ANGY;0.0;HEAD;-120.0
STATUS;CYCLETIME;2904;I2CERR;0;PRESENT;23;MODE;1
RAW_IMU;AX;-27.0;AY;-7.0;AZ;258.0;GX;-2.0;GY;1.0;GZ;0.0;MAGX;87.0;MAGY;-89.0;MAGZ;57.0
MOT;0;1150.0;1;1150.0;2;1150.0;3;1150.0;4;0.0;5;0.0;6;0.0;7;0.0;
RC;ROLL;1490.0;PITCH;1507.0;YAW;1508.0;THROTTLE;1055.0;AUX1;1544.0;AUX2;1500.0;AUX3;1500.0;AUX4;1500.0
ALTITUDE;45.0
DEBUG;DEBUG10.0;DEBUG2;0.0;DEBUG3;45.0;DEBUG4;0.0
ATTITUDE;ANGX;-15.0;ANGY;0.0;HEAD;-120.0
STATUS;CYCLETIME;2900;I2CERR;0;PRESENT;23;MODE;1
RAW_IMU;AX;-28.0;AY;0.0;AZ;244.0;GX;-1.0;GY;0.0;GZ;0.0;MAGX;86.0;MAGY;-87.0;MAGZ;60.0
MOT;0;1150.0;1;1150.0;2;1150.0;3;1150.0;4;0.0;5;0.0;6;0.0;7;0.0;
RC;ROLL;1492.0;PITCH;1505.0;YAW;1514.0;THROTTLE;1064.0;AUX1;1529.0;AUX2;1500.0;AUX3;1500.0;AUX4;1500.0
ALTITUDE;45.0
DEBUG;DEBUG10.0;DEBUG2;0.0;DEBUG3;45.0;DEBUG4;0.0
ATTITUDE;ANGX;-15.0;ANGY;0.0;HEAD;-120.0
STATUS;CYCLETIME;2920;I2CERR;0;PRESENT;23;MODE;1
RAW_IMU;AX;-22.0;AY;-11.0;AZ;249.0;GX;0.0;GY;0.0;GZ;1.0;MAGX;86.0;MAGY;-87.0;MAGZ;60.0
MOT;0;1150.0;1;1150.0;2;1150.0;3;1150.0;4;0.0;5;0.0;6;0.0;7;0.0;
RC;ROLL;1492.0;PITCH;1509.0;YAW;1511.0;THROTTLE;1055.0;AUX1;1529.0;AUX2;1500.0;AUX3;1500.0;AUX4;1500.0
ALTITUDE;45.0
DEBUG;DEBUG10.0;DEBUG2;0.0;DEBUG3;45.0;DEBUG4;0.0
ATTITUDE;ANGX;-15.0;ANGY;0.0;HEAD;-120.0
STATUS;CYCLETIME;2932;I2CERR;0;PRESENT;23;MODE;1
RAW_IMU;AX;-24.0;AY;-16.0;AZ;253.0;GX;0.0;GY;0.0;GZ;1.0;MAGX;85.0;MAGY;-87.0;MAGZ;57.0
MOT;0;1150.0;1;1150.0;2;1150.0;3;1150.0;4;0.0;5;0.0;6;0.0;7;0.0;
RC;ROLL;1492.0;PITCH;1507.0;YAW;1511.0;THROTTLE;1055.0;AUX1;1531.0;AUX2;1500.0;AUX3;1500.0;AUX4;1500.0
ALTITUDE;45.0
DEBUG;DEBUG10.0;DEBUG2;0.0;DEBUG3;45.0;DEBUG4;0.0
ATTITUDE;ANGX;-15.0;ANGY;0.0;HEAD;-120.0
STATUS;CYCLETIME;2900;I2CERR;0;PRESENT;23;MODE;1
RAW_IMU;AX;-20.0;AY;-13.0;AZ;267.0;GX;0.0;GY;0.0;GZ;0.0;MAGX;85.0;MAGY;-87.0;MAGZ;57.0
MOT;0;1150.0;1;1150.0;2;1150.0;3;1150.0;4;0.0;5;0.0;6;0.0;7;0.0;
RC;ROLL;1490.0;PITCH;1510.0;YAW;1509.0;THROTTLE;1055.0;AUX1;1534.0;AUX2;1500.0;AUX3;1500.0;AUX4;1500.0
ALTITUDE;45.0
DEBUG;DEBUG10.0;DEBUG2;0.0;DEBUG3;45.0;DEBUG4;0.0
ATTITUDE;ANGX;-14.0;ANGY;0.0;HEAD;-120.0
STATUS;CYCLETIME;2880;I2CERR;0;PRESENT;23;MODE;1
RAW_IMU;AX;-14.0;AY;-6.0;AZ;258.0;GX;-1.0;GY;1.0;GZ;0.0;MAGX;79.0;MAGY;-83.0;MAGZ;53.0
MOT;0;1150.0;1;1150.0;2;1150.0;3;1150.0;4;0.0;5;0.0;6;0.0;7;0.0;
RC;ROLL;1490.0;PITCH;1504.0;YAW;1512.0;THROTTLE;1052.0;AUX1;1534.0;AUX2;1500.0;AUX3;1500.0;AUX4;1500.0
ALTITUDE;45.0
DEBUG;DEBUG10.0;DEBUG2;0.0;DEBUG3;45.0;DEBUG4;0.0
ATTITUDE;ANGX;-14.0;ANGY;0.0;HEAD;-120.0
STATUS;CYCLETIME;2888;I2CERR;0;PRESENT;23;MODE;1
RAW_IMU;AX;-25.0;AY;-16.0;AZ;257.0;GX;-3.0;GY;1.0;GZ;0.0;MAGX;79.0;MAGY;-83.0;MAGZ;53.0
MOT;0;1150.0;1;1150.0;2;1150.0;3;1150.0;4;0.0;5;0.0;6;0.0;7;0.0;
RC;ROLL;1490.0;PITCH;1501.0;YAW;1519.0;THROTTLE;1052.0;AUX1;1534.0;AUX2;1500.0;AUX3;1500.0;AUX4;1500.0
ALTITUDE;45.0
DEBUG;DEBUG10.0;DEBUG2;0.0;DEBUG3;45.0;DEBUG4;0.0
ATTITUDE;ANGX;-14.0;ANGY;0.0;HEAD;-120.0
STATUS;CYCLETIME;3000;I2CERR;0;PRESENT;23;MODE;1
RAW_IMU;AX;-24.0;AY;-7.0;AZ;262.0;GX;-4.0;GY;1.0;GZ;1.0;MAGX;76.0;MAGY;-85.0;MAGZ;59.0
MOT;0;1150.0;1;1150.0;2;1150.0;3;1150.0;4;0.0;5;0.0;6;0.0;7;0.0;
RC;ROLL;1490.0;PITCH;1501.0;YAW;1513.0;THROTTLE;1063.0;AUX1;1538.0;AUX2;1500.0;AUX3;1500.0;AUX4;1500.0
ALTITUDE;45.0
DEBUG;DEBUG10.0;DEBUG2;0.0;DEBUG3;45.0;DEBUG4;0.0
ATTITUDE;ANGX;-15.0;ANGY;0.0;HEAD;-120.0
STATUS;CYCLETIME;2920;I2CERR;0;PRESENT;23;MODE;1
RAW_IMU;AX;-26.0;AY;0.0;AZ;264.0;GX;-5.0;GY;0.0;GZ;1.0;MAGX;76.0;MAGY;-85.0;MAGZ;59.0
MOT;0;1150.0;1;1150.0;2;1150.0;3;1150.0;4;0.0;5;0.0;6;0.0;7;0.0;
RC;ROLL;1494.0;PITCH;1499.0;YAW;1510.0;THROTTLE;1063.0;AUX1;1538.0;AUX2;1500.0;AUX3;1500.0;AUX4;1500.0
ALTITUDE;45.0
DEBUG;DEBUG10.0;DEBUG2;0.0;DEBUG3;45.0;DEBUG4;0.0
ATTITUDE;ANGX;-15.0;ANGY;0.0;HEAD;-120.0
STATUS;CYCLETIME;2884;I2CERR;0;PRESENT;23;MODE;1
RAW_IMU;AX;-31.0;AY;4.0;AZ;263.0;GX;-5.0;GY;1.0;GZ;0.0;MAGX;76.0;MAGY;-85.0;MAGZ;59.0
MOT;0;1150.0;1;1150.0;2;1150.0;3;1150.0;4;0.0;5;0.0;6;0.0;7;0.0;
RC;ROLL;1490.0;PITCH;1507.0;YAW;1514.0;THROTTLE;1056.0;AUX1;1538.0;AUX2;1500.0;AUX3;1500.0;AUX4;1500.0
ALTITUDE;45.0
DEBUG;DEBUG10.0;DEBUG2;0.0;DEBUG3;45.0;DEBUG4;0.0
ATTITUDE;ANGX;-15.0;ANGY;0.0;HEAD;-120.0
STATUS;CYCLETIME;2892;I2CERR;0;PRESENT;23;MODE;1
RAW_IMU;AX;-27.0;AY;-1.0;AZ;258.0;GX;-4.0;GY;1.0;GZ;0.0;MAGX;86.0;MAGY;-88.0;MAGZ;59.0
MOT;0;1150.0;1;1150.0;2;1150.0;3;1150.0;4;0.0;5;0.0;6;0.0;7;0.0;
RC;ROLL;1492.0;PITCH;1509.0;YAW;1514.0;THROTTLE;1056.0;AUX1;1538.0;AUX2;1500.0;AUX3;1500.0;AUX4;1500.0
ALTITUDE;46.0
DEBUG;DEBUG10.0;DEBUG2;0.0;DEBUG3;46.0;DEBUG4;0.0
ATTITUDE;ANGX;-15.0;ANGY;0.0;HEAD;-120.0
STATUS;CYCLETIME;2896;I2CERR;0;PRESENT;23;MODE;1
RAW_IMU;AX;-23.0;AY;-11.0;AZ;259.0;GX;-2.0;GY;0.0;GZ;1.0;MAGX;86.0;MAGY;-88.0;MAGZ;59.0
MOT;0;1150.0;1;1150.0;2;1150.0;3;1150.0;4;0.0;5;0.0;6;0.0;7;0.0;
RC;ROLL;1495.0;PITCH;1509.0;YAW;1520.0;THROTTLE;1050.0;AUX1;1538.0;AUX2;1500.0;AUX3;1500.0;AUX4;1500.0
ALTITUDE;46.0
DEBUG;DEBUG10.0;DEBUG2;0.0;DEBUG3;46.0;DEBUG4;0.0
ATTITUDE;ANGX;-15.0;ANGY;0.0;HEAD;-120.0
STATUS;CYCLETIME;2896;I2CERR;0;PRESENT;23;MODE;1
RAW_IMU;AX;-26.0;AY;-7.0;AZ;255.0;GX;0.0;GY;1.0;GZ;1.0;MAGX;78.0;MAGY;-86.0;MAGZ;58.0
MOT;0;1150.0;1;1150.0;2;1150.0;3;1150.0;4;0.0;5;0.0;6;0.0;7;0.0;
RC;ROLL;1492.0;PITCH;1509.0;YAW;1520.0;THROTTLE;1050.0;AUX1;1536.0;AUX2;1500.0;AUX3;1500.0;AUX4;1500.0
ALTITUDE;46.0
DEBUG;DEBUG10.0;DEBUG2;0.0;DEBUG3;46.0;DEBUG4;0.0
ATTITUDE;ANGX;-15.0;ANGY;0.0;HEAD;-120.0
STATUS;CYCLETIME;2896;I2CERR;0;PRESENT;23;MODE;1
RAW_IMU;AX;-25.0;AY;-9.0;AZ;263.0;GX;2.0;GY;0.0;GZ;0.0;MAGX;78.0;MAGY;-86.0;MAGZ;58.0
MOT;0;1150.0;1;1150.0;2;1150.0;3;1150.0;4;0.0;5;0.0;6;0.0;7;0.0;
RC;ROLL;1488.0;PITCH;1509.0;YAW;1513.0;THROTTLE;1053.0;AUX1;1536.0;AUX2;1500.0;AUX3;1500.0;AUX4;1500.0
ALTITUDE;46.0
DEBUG;DEBUG10.0;DEBUG2;0.0;DEBUG3;46.0;DEBUG4;0.0
ATTITUDE;ANGX;-15.0;ANGY;0.0;HEAD;-120.0
STATUS;CYCLETIME;2920;I2CERR;0;PRESENT;23;MODE;1
RAW_IMU;AX;-25.0;AY;-11.0;AZ;257.0;GX;2.0;GY;0.0;GZ;0.0;MAGX;85.0;MAGY;-88.0;MAGZ;65.0
MOT;0;1150.0;1;1150.0;2;1150.0;3;1150.0;4;0.0;5;0.0;6;0.0;7;0.0;
RC;ROLL;1492.0;PITCH;1505.0;YAW;1513.0;THROTTLE;1062.0;AUX1;1536.0;AUX2;1500.0;AUX3;1500.0;AUX4;1500.0
ALTITUDE;46.0
DEBUG;DEBUG10.0;DEBUG2;0.0;DEBUG3;46.0;DEBUG4;0.0
ATTITUDE;ANGX;-14.0;ANGY;0.0;HEAD;-120.0
STATUS;CYCLETIME;2904;I2CERR;0;PRESENT;23;MODE;1
RAW_IMU;AX;-25.0;AY;-9.0;AZ;262.0;GX;0.0;GY;0.0;GZ;1.0;MAGX;85.0;MAGY;-88.0;MAGZ;65.0
MOT;0;1150.0;1;1150.0;2;1150.0;3;1150.0;4;0.0;5;0.0;6;0.0;7;0.0;
RC;ROLL;1492.0;PITCH;1503.0;YAW;1513.0;THROTTLE;1066.0;AUX1;1523.0;AUX2;1500.0;AUX3;1500.0;AUX4;1500.0
ALTITUDE;46.0
DEBUG;DEBUG10.0;DEBUG2;0.0;DEBUG3;46.0;DEBUG4;0.0
ATTITUDE;ANGX;-14.0;ANGY;0.0;HEAD;-120.0
STATUS;CYCLETIME;2896;I2CERR;0;PRESENT;23;MODE;1
RAW_IMU;AX;-18.0;AY;-10.0;AZ;252.0;GX;-4.0;GY;1.0;GZ;1.0;MAGX;79.0;MAGY;-86.0;MAGZ;64.0
MOT;0;1150.0;1;1150.0;2;1150.0;3;1150.0;4;0.0;5;0.0;6;0.0;7;0.0;
RC;ROLL;1497.0;PITCH;1493.0;YAW;1521.0;THROTTLE;1054.0;AUX1;1534.0;AUX2;1500.0;AUX3;1500.0;AUX4;1500.0
ALTITUDE;46.0
DEBUG;DEBUG10.0;DEBUG2;0.0;DEBUG3;46.0;DEBUG4;0.0
ATTITUDE;ANGX;-14.0;ANGY;0.0;HEAD;-120.0
STATUS;CYCLETIME;2928;I2CERR;0;PRESENT;23;MODE;1
RAW_IMU;AX;-18.0;AY;-18.0;AZ;262.0;GX;-9.0;GY;1.0;GZ;1.0;MAGX;79.0;MAGY;-86.0;MAGZ;64.0
MOT;0;1150.0;1;1150.0;2;1150.0;3;1150.0;4;0.0;5;0.0;6;0.0;7;0.0;
RC;ROLL;1497.0;PITCH;1493.0;YAW;1525.0;THROTTLE;1047.0;AUX1;1537.0;AUX2;1500.0;AUX3;1500.0;AUX4;1500.0
ALTITUDE;46.0
DEBUG;DEBUG10.0;DEBUG2;0.0;DEBUG3;46.0;DEBUG4;0.0
ATTITUDE;ANGX;-14.0;ANGY;0.0;HEAD;-120.0
STATUS;CYCLETIME;2996;I2CERR;0;PRESENT;23;MODE;1
RAW_IMU;AX;-24.0;AY;-4.0;AZ;252.0;GX;-11.0;GY;2.0;GZ;0.0;MAGX;86.0;MAGY;-88.0;MAGZ;64.0
MOT;0;1150.0;1;1150.0;2;1150.0;3;1150.0;4;0.0;5;0.0;6;0.0;7;0.0;
RC;ROLL;1492.0;PITCH;1501.0;YAW;1515.0;THROTTLE;1055.0;AUX1;1537.0;AUX2;1500.0;AUX3;1500.0;AUX4;1500.0
ALTITUDE;46.0
DEBUG;DEBUG10.0;DEBUG2;0.0;DEBUG3;46.0;DEBUG4;0.0
ATTITUDE;ANGX;-15.0;ANGY;0.0;HEAD;-120.0
STATUS;CYCLETIME;2892;I2CERR;0;PRESENT;23;MODE;1
RAW_IMU;AX;-27.0;AY;1.0;AZ;255.0;GX;-10.0;GY;2.0;GZ;1.0;MAGX;86.0;MAGY;-88.0;MAGZ;64.0
MOT;0;1150.0;1;1150.0;2;1150.0;3;1150.0;4;0.0;5;0.0;6;0.0;7;0.0;
RC;ROLL;1492.0;PITCH;1497.0;YAW;1519.0;THROTTLE;1059.0;AUX1;1537.0;AUX2;1500.0;AUX3;1500.0;AUX4;1500.0
ALTITUDE;47.0
DEBUG;DEBUG10.0;DEBUG2;0.0;DEBUG3;47.0;DEBUG4;0.0
ATTITUDE;ANGX;-16.0;ANGY;0.0;HEAD;-120.0
STATUS;CYCLETIME;3172;I2CERR;0;PRESENT;23;MODE;1
RAW_IMU;AX;-26.0;AY;-6.0;AZ;257.0;GX;-5.0;GY;0.0;GZ;2.0;MAGX;81.0;MAGY;-88.0;MAGZ;58.0
MOT;0;1150.0;1;1150.0;2;1150.0;3;1150.0;4;0.0;5;0.0;6;0.0;7;0.0;
RC;ROLL;1495.0;PITCH;1497.0;YAW;1517.0;THROTTLE;1059.0;AUX1;1533.0;AUX2;1500.0;AUX3;1500.0;AUX4;1500.0
ALTITUDE;47.0
DEBUG;DEBUG10.0;DEBUG2;0.0;DEBUG3;47.0;DEBUG4;0.0
ATTITUDE;ANGX;-17.0;ANGY;0.0;HEAD;-120.0
STATUS;CYCLETIME;2904;I2CERR;0;PRESENT;23;MODE;1
RAW_IMU;AX;-28.0;AY;-2.0;AZ;252.0;GX;0.0;GY;0.0;GZ;1.0;MAGX;81.0;MAGY;-88.0;MAGZ;58.0
MOT;0;1150.0;1;1150.0;2;1150.0;3;1150.0;4;0.0;5;0.0;6;0.0;7;0.0;
RC;ROLL;1495.0;PITCH;1492.0;YAW;1519.0;THROTTLE;1062.0;AUX1;1538.0;AUX2;1500.0;AUX3;1500.0;AUX4;1500.0
ALTITUDE;47.0
DEBUG;DEBUG10.0;DEBUG2;0.0;DEBUG3;47.0;DEBUG4;0.0
ATTITUDE;ANGX;-17.0;ANGY;0.0;HEAD;-120.0
STATUS;CYCLETIME;2932;I2CERR;0;PRESENT;23;MODE;1
RAW_IMU;AX;-28.0;AY;-6.0;AZ;254.0;GX;4.0;GY;0.0;GZ;0.0;MAGX;81.0;MAGY;-88.0;MAGZ;58.0
MOT;0;1150.0;1;1150.0;2;1150.0;3;1150.0;4;0.0;5;0.0;6;0.0;7;0.0;
RC;ROLL;1492.0;PITCH;1498.0;YAW;1521.0;THROTTLE;1057.0;AUX1;1538.0;AUX2;1500.0;AUX3;1500.0;AUX4;1500.0
ALTITUDE;47.0
DEBUG;DEBUG10.0;DEBUG2;0.0;DEBUG3;47.0;DEBUG4;0.0
ATTITUDE;ANGX;-16.0;ANGY;0.0;HEAD;-120.0
STATUS;CYCLETIME;2892;I2CERR;0;PRESENT;23;MODE;1
RAW_IMU;AX;-21.0;AY;-12.0;AZ;253.0;GX;6.0;GY;0.0;GZ;0.0;MAGX;77.0;MAGY;-87.0;MAGZ;56.0
MOT;0;1150.0;1;1150.0;2;1150.0;3;1150.0;4;0.0;5;0.0;6;0.0;7;0.0;
RC;ROLL;1495.0;PITCH;1500.0;YAW;1521.0;THROTTLE;1052.0;AUX1;1538.0;AUX2;1500.0;AUX3;1500.0;AUX4;1500.0
ALTITUDE;47.0
DEBUG;DEBUG10.0;DEBUG2;0.0;DEBUG3;47.0;DEBUG4;0.0
ATTITUDE;ANGX;-15.0;ANGY;0.0;HEAD;-120.0
STATUS;CYCLETIME;2896;I2CERR;0;PRESENT;23;MODE;1
RAW_IMU;AX;-19.0;AY;-13.0;AZ;259.0;GX;5.0;GY;1.0;GZ;0.0;MAGX;77.0;MAGY;-87.0;MAGZ;56.0
MOT;0;1150.0;1;1150.0;2;1150.0;3;1150.0;4;0.0;5;0.0;6;0.0;7;0.0;
RC;ROLL;1490.0;PITCH;1500.0;YAW;1514.0;THROTTLE;1052.0;AUX1;1538.0;AUX2;1500.0;AUX3;1500.0;AUX4;1500.0
ALTITUDE;47.0
DEBUG;DEBUG10.0;DEBUG2;0.0;DEBUG3;47.0;DEBUG4;0.0
ATTITUDE;ANGX;-14.0;ANGY;0.0;HEAD;-121.0
STATUS;CYCLETIME;2888;I2CERR;0;PRESENT;23;MODE;1
RAW_IMU;AX;-19.0;AY;-11.0;AZ;256.0;GX;2.0;GY;2.0;GZ;0.0;MAGX;82.0;MAGY;-85.0;MAGZ;52.0
MOT;0;1150.0;1;1150.0;2;1150.0;3;1150.0;4;0.0;5;0.0;6;0.0;7;0.0;
RC;ROLL;1490.0;PITCH;1500.0;YAW;1508.0;THROTTLE;1056.0;AUX1;1538.0;AUX2;1500.0;AUX3;1500.0;AUX4;1500.0
ALTITUDE;47.0
DEBUG;DEBUG10.0;DEBUG2;0.0;DEBUG3;47.0;DEBUG4;0.0
ATTITUDE;ANGX;-14.0;ANGY;0.0;HEAD;-120.0
STATUS;CYCLETIME;3020;I2CERR;0;PRESENT;23;MODE;1
RAW_IMU;AX;-20.0;AY;-9.0;AZ;258.0;GX;-3.0;GY;2.0;GZ;0.0;MAGX;82.0;MAGY;-85.0;MAGZ;52.0
MOT;0;1150.0;1;1150.0;2;1150.0;3;1150.0;4;0.0;5;0.0;6;0.0;7;0.0;
RC;ROLL;1497.0;PITCH;1498.0;YAW;1514.0;THROTTLE;1056.0;AUX1;1527.0;AUX2;1500.0;AUX3;1500.0;AUX4;1500.0
ALTITUDE;47.0
DEBUG;DEBUG10.0;DEBUG2;0.0;DEBUG3;47.0;DEBUG4;0.0
ATTITUDE;ANGX;-14.0;ANGY;0.0;HEAD;-120.0
STATUS;CYCLETIME;2912;I2CERR;0;PRESENT;23;MODE;1
RAW_IMU;AX;-21.0;AY;-10.0;AZ;255.0;GX;-8.0;GY;0.0;GZ;1.0;MAGX;78.0;MAGY;-87.0;MAGZ;65.0
MOT;0;1150.0;1;1150.0;2;1150.0;3;1150.0;4;0.0;5;0.0;6;0.0;7;0.0;
RC;ROLL;1499.0;PITCH;1496.0;YAW;1514.0;THROTTLE;1056.0;AUX1;1533.0;AUX2;1500.0;AUX3;1500.0;AUX4;1500.0
ALTITUDE;47.0
DEBUG;DEBUG10.0;DEBUG2;0.0;DEBUG3;47.0;DEBUG4;0.0
ATTITUDE;ANGX;-14.0;ANGY;0.0;HEAD;-121.0
STATUS;CYCLETIME;2888;I2CERR;0;PRESENT;23;MODE;1
RAW_IMU;AX;-26.0;AY;-10.0;AZ;259.0;GX;-10.0;GY;0.0;GZ;1.0;MAGX;78.0;MAGY;-87.0;MAGZ;65.0
MOT;0;1150.0;1;1150.0;2;1150.0;3;1150.0;4;0.0;5;0.0;6;0.0;7;0.0;
RC;ROLL;1492.0;PITCH;1504.0;YAW;1526.0;THROTTLE;1042.0;AUX1;1532.0;AUX2;1500.0;AUX3;1500.0;AUX4;1500.0
ALTITUDE;47.0
DEBUG;DEBUG10.0;DEBUG2;0.0;DEBUG3;47.0;DEBUG4;0.0
ATTITUDE;ANGX;-15.0;ANGY;0.0;HEAD;-121.0
STATUS;CYCLETIME;2876;I2CERR;0;PRESENT;23;MODE;1
RAW_IMU;AX;-28.0;AY;-9.0;AZ;257.0;GX;-9.0;GY;0.0;GZ;1.0;MAGX;78.0;MAGY;-85.0;MAGZ;55.0
MOT;0;1150.0;1;1150.0;2;1150.0;3;1150.0;4;0.0;5;0.0;6;0.0;7;0.0;
RC;ROLL;1489.0;PITCH;1504.0;YAW;1529.0;THROTTLE;1044.0;AUX1;1532.0;AUX2;1500.0;AUX3;1500.0;AUX4;1500.0
ALTITUDE;47.0
DEBUG;DEBUG10.0;DEBUG2;0.0;DEBUG3;47.0;DEBUG4;0.0
ATTITUDE;ANGX;-16.0;ANGY;0.0;HEAD;-121.0
STATUS;CYCLETIME;2880;I2CERR;0;PRESENT;23;MODE;1
RAW_IMU;AX;-27.0;AY;-10.0;AZ;254.0;GX;-6.0;GY;0.0;GZ;1.0;MAGX;78.0;MAGY;-85.0;MAGZ;55.0
MOT;0;1150.0;1;1150.0;2;1150.0;3;1150.0;4;0.0;5;0.0;6;0.0;7;0.0;
RC;ROLL;1492.0;PITCH;1499.0;YAW;1519.0;THROTTLE;1055.0;AUX1;1537.0;AUX2;1500.0;AUX3;1500.0;AUX4;1500.0
ALTITUDE;47.0
DEBUG;DEBUG10.0;DEBUG2;0.0;DEBUG3;47.0;DEBUG4;0.0
ATTITUDE;ANGX;-16.0;ANGY;0.0;HEAD;-121.0
STATUS;CYCLETIME;2936;I2CERR;0;PRESENT;23;MODE;1
RAW_IMU;AX;-27.0;AY;-10.0;AZ;253.0;GX;-2.0;GY;1.0;GZ;0.0;MAGX;77.0;MAGY;-85.0;MAGZ;54.0
MOT;0;1150.0;1;1150.0;2;1150.0;3;1150.0;4;0.0;5;0.0;6;0.0;7;0.0;
RC;ROLL;1494.0;PITCH;1504.0;YAW;1512.0;THROTTLE;1060.0;AUX1;1537.0;AUX2;1500.0;AUX3;1500.0;AUX4;1500.0
ALTITUDE;47.0
DEBUG;DEBUG10.0;DEBUG2;0.0;DEBUG3;47.0;DEBUG4;0.0
ATTITUDE;ANGX;-16.0;ANGY;0.0;HEAD;-121.0
STATUS;CYCLETIME;2912;I2CERR;0;PRESENT;23;MODE;1
RAW_IMU;AX;-27.0;AY;-10.0;AZ;252.0;GX;0.0;GY;1.0;GZ;0.0;MAGX;77.0;MAGY;-85.0;MAGZ;54.0
MOT;0;1150.0;1;1150.0;2;1150.0;3;1150.0;4;0.0;5;0.0;6;0.0;7;0.0;
RC;ROLL;1494.0;PITCH;1504.0;YAW;1512.0;THROTTLE;1060.0;AUX1;1537.0;AUX2;1500.0;AUX3;1500.0;AUX4;1500.0
ALTITUDE;47.0
DEBUG;DEBUG10.0;DEBUG2;0.0;DEBUG3;47.0;DEBUG4;0.0
ATTITUDE;ANGX;-16.0;ANGY;0.0;HEAD;-121.0
STATUS;CYCLETIME;2888;I2CERR;0;PRESENT;23;MODE;1
RAW_IMU;AX;-28.0;AY;-12.0;AZ;256.0;GX;2.0;GY;1.0;GZ;1.0;MAGX;77.0;MAGY;-85.0;MAGZ;55.0
MOT;0;1150.0;1;1150.0;2;1150.0;3;1150.0;4;0.0;5;0.0;6;0.0;7;0.0;
RC;ROLL;1503.0;PITCH;1504.0;YAW;1516.0;THROTTLE;1054.0;AUX1;1532.0;AUX2;1500.0;AUX3;1500.0;AUX4;1500.0
ALTITUDE;47.0
DEBUG;DEBUG10.0;DEBUG2;0.0;DEBUG3;47.0;DEBUG4;0.0
ATTITUDE;ANGX;-16.0;ANGY;0.0;HEAD;-121.0
STATUS;CYCLETIME;2992;I2CERR;0;PRESENT;23;MODE;1
RAW_IMU;AX;-29.0;AY;-11.0;AZ;257.0;GX;1.0;GY;0.0;GZ;1.0;MAGX;77.0;MAGY;-85.0;MAGZ;55.0
MOT;0;1150.0;1;1150.0;2;1150.0;3;1150.0;4;0.0;5;0.0;6;0.0;7;0.0;
RC;ROLL;1499.0;PITCH;1504.0;YAW;1516.0;THROTTLE;1054.0;AUX1;1530.0;AUX2;1500.0;AUX3;1500.0;AUX4;1500.0
ALTITUDE;47.0
DEBUG;DEBUG10.0;DEBUG2;0.0;DEBUG3;47.0;DEBUG4;0.0
ATTITUDE;ANGX;-15.0;ANGY;0.0;HEAD;-121.0
STATUS;CYCLETIME;2884;I2CERR;0;PRESENT;23;MODE;1
RAW_IMU;AX;-25.0;AY;-10.0;AZ;257.0;GX;-1.0;GY;0.0;GZ;0.0;MAGX;77.0;MAGY;-85.0;MAGZ;55.0
MOT;0;1150.0;1;1150.0;2;1150.0;3;1150.0;4;0.0;5;0.0;6;0.0;7;0.0;
RC;ROLL;1495.0;PITCH;1504.0;YAW;1512.0;THROTTLE;1054.0;AUX1;1533.0;AUX2;1500.0;AUX3;1500.0;AUX4;1500.0
ALTITUDE;47.0
DEBUG;DEBUG10.0;DEBUG2;0.0;DEBUG3;47.0;DEBUG4;0.0
ATTITUDE;ANGX;-15.0;ANGY;0.0;HEAD;-121.0
STATUS;CYCLETIME;2928;I2CERR;0;PRESENT;23;MODE;1
RAW_IMU;AX;-23.0;AY;-11.0;AZ;257.0;GX;-4.0;GY;1.0;GZ;1.0;MAGX;77.0;MAGY;-85.0;MAGZ;57.0
MOT;0;1150.0;1;1150.0;2;1150.0;3;1150.0;4;0.0;5;0.0;6;0.0;7;0.0;
RC;ROLL;1498.0;PITCH;1504.0;YAW;1509.0;THROTTLE;1058.0;AUX1;1533.0;AUX2;1500.0;AUX3;1500.0;AUX4;1500.0
ALTITUDE;47.0
DEBUG;DEBUG10.0;DEBUG2;0.0;DEBUG3;47.0;DEBUG4;0.0
ATTITUDE;ANGX;-15.0;ANGY;0.0;HEAD;-121.0
STATUS;CYCLETIME;2932;I2CERR;0;PRESENT;23;MODE;1
RAW_IMU;AX;-23.0;AY;-10.0;AZ;258.0;GX;-6.0;GY;0.0;GZ;1.0;MAGX;77.0;MAGY;-85.0;MAGZ;57.0
MOT;0;1150.0;1;1150.0;2;1150.0;3;1150.0;4;0.0;5;0.0;6;0.0;7;0.0;
RC;ROLL;1498.0;PITCH;1504.0;YAW;1509.0;THROTTLE;1058.0;AUX1;1533.0;AUX2;1500.0;AUX3;1500.0;AUX4;1500.0
ALTITUDE;47.0
DEBUG;DEBUG10.0;DEBUG2;0.0;DEBUG3;47.0;DEBUG4;0.0
ATTITUDE;ANGX;-15.0;ANGY;0.0;HEAD;-121.0
STATUS;CYCLETIME;2884;I2CERR;0;PRESENT;23;MODE;1
RAW_IMU;AX;-23.0;AY;-10.0;AZ;257.0;GX;-7.0;GY;1.0;GZ;1.0;MAGX;77.0;MAGY;-85.0;MAGZ;57.0
MOT;0;1150.0;1;1150.0;2;1150.0;3;1150.0;4;0.0;5;0.0;6;0.0;7;0.0;
RC;ROLL;1491.0;PITCH;1504.0;YAW;1509.0;THROTTLE;1058.0;AUX1;1533.0;AUX2;1500.0;AUX3;1500.0;AUX4;1500.0
ALTITUDE;47.0
DEBUG;DEBUG10.0;DEBUG2;0.0;DEBUG3;47.0;DEBUG4;0.0
ATTITUDE;ANGX;-16.0;ANGY;0.0;HEAD;-121.0
STATUS;CYCLETIME;2996;I2CERR;0;PRESENT;23;MODE;1
RAW_IMU;AX;-24.0;AY;-11.0;AZ;255.0;GX;-5.0;GY;1.0;GZ;0.0;MAGX;77.0;MAGY;-85.0;MAGZ;57.0
MOT;0;1150.0;1;1150.0;2;1150.0;3;1150.0;4;0.0;5;0.0;6;0.0;7;0.0;
RC;ROLL;1491.0;PITCH;1504.0;YAW;1509.0;THROTTLE;1058.0;AUX1;1533.0;AUX2;1500.0;AUX3;1500.0;AUX4;1500.0
ALTITUDE;47.0
DEBUG;DEBUG10.0;DEBUG2;0.0;DEBUG3;47.0;DEBUG4;0.0
ATTITUDE;ANGX;-16.0;ANGY;0.0;HEAD;-121.0
STATUS;CYCLETIME;2892;I2CERR;0;PRESENT;23;MODE;1
RAW_IMU;AX;-25.0;AY;-12.0;AZ;254.0;GX;-3.0;GY;1.0;GZ;0.0;MAGX;77.0;MAGY;-86.0;MAGZ;54.0
MOT;0;1150.0;1;1150.0;2;1150.0;3;1150.0;4;0.0;5;0.0;6;0.0;7;0.0;
RC;ROLL;1491.0;PITCH;1504.0;YAW;1509.0;THROTTLE;1060.0;AUX1;1533.0;AUX2;1500.0;AUX3;1500.0;AUX4;1500.0
ALTITUDE;47.0
DEBUG;DEBUG10.0;DEBUG2;0.0;DEBUG3;47.0;DEBUG4;0.0
ATTITUDE;ANGX;-16.0;ANGY;0.0;HEAD;-121.0
STATUS;CYCLETIME;2924;I2CERR;0;PRESENT;23;MODE;1
RAW_IMU;AX;-28.0;AY;-10.0;AZ;253.0;GX;0.0;GY;1.0;GZ;1.0;MAGX;77.0;MAGY;-86.0;MAGZ;54.0
MOT;0;1150.0;1;1150.0;2;1150.0;3;1150.0;4;0.0;5;0.0;6;0.0;7;0.0;
RC;ROLL;1491.0;PITCH;1504.0;YAW;1509.0;THROTTLE;1062.0;AUX1;1535.0;AUX2;1500.0;AUX3;1500.0;AUX4;1500.0
ALTITUDE;47.0
DEBUG;DEBUG10.0;DEBUG2;0.0;DEBUG3;47.0;DEBUG4;0.0
ATTITUDE;ANGX;-16.0;ANGY;0.0;HEAD;-121.0
STATUS;CYCLETIME;2992;I2CERR;0;PRESENT;23;MODE;1
RAW_IMU;AX;-30.0;AY;-10.0;AZ;257.0;GX;1.0;GY;2.0;GZ;0.0;MAGX;76.0;MAGY;-86.0;MAGZ;55.0
MOT;0;1150.0;1;1150.0;2;1150.0;3;1150.0;4;0.0;5;0.0;6;0.0;7;0.0;
RC;ROLL;1491.0;PITCH;1504.0;YAW;1509.0;THROTTLE;1062.0;AUX1;1535.0;AUX2;1500.0;AUX3;1500.0;AUX4;1500.0
ALTITUDE;47.0
DEBUG;DEBUG10.0;DEBUG2;0.0;DEBUG3;47.0;DEBUG4;0.0
ATTITUDE;ANGX;-16.0;ANGY;0.0;HEAD;-121.0
STATUS;CYCLETIME;2888;I2CERR;0;PRESENT;23;MODE;1
RAW_IMU;AX;-29.0;AY;-9.0;AZ;258.0;GX;2.0;GY;0.0;GZ;0.0;MAGX;76.0;MAGY;-86.0;MAGZ;55.0
MOT;0;1150.0;1;1150.0;2;1150.0;3;1150.0;4;0.0;5;0.0;6;0.0;7;0.0;
RC;ROLL;1493.0;PITCH;1504.0;YAW;1509.0;THROTTLE;1062.0;AUX1;1535.0;AUX2;1500.0;AUX3;1500.0;AUX4;1500.0
ALTITUDE;48.0
DEBUG;DEBUG10.0;DEBUG2;0.0;DEBUG3;48.0;DEBUG4;0.0
ATTITUDE;ANGX;-15.0;ANGY;0.0;HEAD;-121.0
STATUS;CYCLETIME;2940;I2CERR;0;PRESENT;23;MODE;1
RAW_IMU;AX;-25.0;AY;-10.0;AZ;254.0;GX;2.0;GY;-2.0;GZ;0.0;MAGX;76.0;MAGY;-86.0;MAGZ;55.0
MOT;0;1150.0;1;1150.0;2;1150.0;3;1150.0;4;0.0;5;0.0;6;0.0;7;0.0;
RC;ROLL;1495.0;PITCH;1504.0;YAW;1512.0;THROTTLE;1059.0;AUX1;1535.0;AUX2;1500.0;AUX3;1500.0;AUX4;1500.0
ALTITUDE;48.0
DEBUG;DEBUG10.0;DEBUG2;0.0;DEBUG3;48.0;DEBUG4;0.0
ATTITUDE;ANGX;-15.0;ANGY;0.0;HEAD;-122.0
STATUS;CYCLETIME;2900;I2CERR;0;PRESENT;23;MODE;1
RAW_IMU;AX;-25.0;AY;-10.0;AZ;256.0;GX;1.0;GY;-1.0;GZ;0.0;MAGX;76.0;MAGY;-86.0;MAGZ;55.0
MOT;0;1150.0;1;1150.0;2;1150.0;3;1150.0;4;0.0;5;0.0;6;0.0;7;0.0;
RC;ROLL;1498.0;PITCH;1504.0;YAW;1512.0;THROTTLE;1059.0;AUX1;1535.0;AUX2;1500.0;AUX3;1500.0;AUX4;1500.0
ALTITUDE;48.0
DEBUG;DEBUG10.0;DEBUG2;0.0;DEBUG3;48.0;DEBUG4;0.0
ATTITUDE;ANGX;-14.0;ANGY;0.0;HEAD;-122.0
STATUS;CYCLETIME;2884;I2CERR;0;PRESENT;23;MODE;1
RAW_IMU;AX;-25.0;AY;-9.0;AZ;255.0;GX;-1.0;GY;3.0;GZ;1.0;MAGX;78.0;MAGY;-84.0;MAGZ;59.0
MOT;0;1150.0;1;1150.0;2;1150.0;3;1150.0;4;0.0;5;0.0;6;0.0;7;0.0;
RC;ROLL;1494.0;PITCH;1506.0;YAW;1512.0;THROTTLE;1059.0;AUX1;1535.0;AUX2;1500.0;AUX3;1500.0;AUX4;1500.0
ALTITUDE;48.0
DEBUG;DEBUG10.0;DEBUG2;0.0;DEBUG3;48.0;DEBUG4;0.0
ATTITUDE;ANGX;-14.0;ANGY;0.0;HEAD;-122.0
STATUS;CYCLETIME;2916;I2CERR;0;PRESENT;23;MODE;1
RAW_IMU;AX;-24.0;AY;-9.0;AZ;254.0;GX;-3.0;GY;5.0;GZ;0.0;MAGX;78.0;MAGY;-84.0;MAGZ;59.0
MOT;0;1150.0;1;1150.0;2;1150.0;3;1150.0;4;0.0;5;0.0;6;0.0;7;0.0;
RC;ROLL;1494.0;PITCH;1506.0;YAW;1512.0;THROTTLE;1059.0;AUX1;1535.0;AUX2;1500.0;AUX3;1500.0;AUX4;1500.0
ALTITUDE;48.0
DEBUG;DEBUG10.0;DEBUG2;0.0;DEBUG3;48.0;DEBUG4;0.0
ATTITUDE;ANGX;-14.0;ANGY;0.0;HEAD;-121.0
STATUS;CYCLETIME;2948;I2CERR;0;PRESENT;23;MODE;1
RAW_IMU;AX;-25.0;AY;-8.0;AZ;257.0;GX;-5.0;GY;2.0;GZ;0.0;MAGX;78.0;MAGY;-84.0;MAGZ;59.0
MOT;0;1150.0;1;1150.0;2;1150.0;3;1150.0;4;0.0;5;0.0;6;0.0;7;0.0;
RC;ROLL;1494.0;PITCH;1503.0;YAW;1512.0;THROTTLE;1059.0;AUX1;1535.0;AUX2;1500.0;AUX3;1500.0;AUX4;1500.0
ALTITUDE;48.0
DEBUG;DEBUG10.0;DEBUG2;0.0;DEBUG3;48.0;DEBUG4;0.0
ATTITUDE;ANGX;-14.0;ANGY;0.0;HEAD;-121.0
STATUS;CYCLETIME;3008;I2CERR;0;PRESENT;23;MODE;1
RAW_IMU;AX;-25.0;AY;-9.0;AZ;256.0;GX;-6.0;GY;0.0;GZ;0.0;MAGX;75.0;MAGY;-86.0;MAGZ;58.0
MOT;0;1150.0;1;1150.0;2;1150.0;3;1150.0;4;0.0;5;0.0;6;0.0;7;0.0;
RC;ROLL;1494.0;PITCH;1507.0;YAW;1512.0;THROTTLE;1059.0;AUX1;1535.0;AUX2;1500.0;AUX3;1500.0;AUX4;1500.0
ALTITUDE;48.0
DEBUG;DEBUG10.0;DEBUG2;0.0;DEBUG3;48.0;DEBUG4;0.0
ATTITUDE;ANGX;-15.0;ANGY;0.0;HEAD;-122.0
STATUS;CYCLETIME;2884;I2CERR;0;PRESENT;23;MODE;1
RAW_IMU;AX;-27.0;AY;-10.0;AZ;261.0;GX;-4.0;GY;0.0;GZ;1.0;MAGX;75.0;MAGY;-86.0;MAGZ;58.0
MOT;0;1150.0;1;1150.0;2;1150.0;3;1150.0;4;0.0;5;0.0;6;0.0;7;0.0;
RC;ROLL;1494.0;PITCH;1507.0;YAW;1512.0;THROTTLE;1059.0;AUX1;1535.0;AUX2;1500.0;AUX3;1500.0;AUX4;1500.0
ALTITUDE;48.0
DEBUG;DEBUG10.0;DEBUG2;0.0;DEBUG3;48.0;DEBUG4;0.0
ATTITUDE;ANGX;-15.0;ANGY;0.0;HEAD;-122.0
STATUS;CYCLETIME;2940;I2CERR;0;PRESENT;23;MODE;1
RAW_IMU;AX;-26.0;AY;-10.0;AZ;260.0;GX;-2.0;GY;0.0;GZ;1.0;MAGX;77.0;MAGY;-86.0;MAGZ;58.0
MOT;0;1150.0;1;1150.0;2;1150.0;3;1150.0;4;0.0;5;0.0;6;0.0;7;0.0;
RC;ROLL;1494.0;PITCH;1503.0;YAW;1510.0;THROTTLE;1059.0;AUX1;1535.0;AUX2;1500.0;AUX3;1500.0;AUX4;1500.0
ALTITUDE;48.0
DEBUG;DEBUG10.0;DEBUG2;0.0;DEBUG3;48.0;DEBUG4;0.0
ATTITUDE;ANGX;-15.0;ANGY;0.0;HEAD;-122.0
STATUS;CYCLETIME;2888;I2CERR;0;PRESENT;23;MODE;1
RAW_IMU;AX;-26.0;AY;-12.0;AZ;256.0;GX;-2.0;GY;1.0;GZ;0.0;MAGX;77.0;MAGY;-86.0;MAGZ;58.0
MOT;0;1150.0;1;1150.0;2;1150.0;3;1150.0;4;0.0;5;0.0;6;0.0;7;0.0;
RC;ROLL;1494.0;PITCH;1503.0;YAW;1510.0;THROTTLE;1059.0;AUX1;1535.0;AUX2;1500.0;AUX3;1500.0;AUX4;1500.0
ALTITUDE;48.0
DEBUG;DEBUG10.0;DEBUG2;0.0;DEBUG3;48.0;DEBUG4;0.0
ATTITUDE;ANGX;-15.0;ANGY;0.0;HEAD;-122.0
STATUS;CYCLETIME;2888;I2CERR;0;PRESENT;23;MODE;1
RAW_IMU;AX;-24.0;AY;-10.0;AZ;255.0;GX;-1.0;GY;1.0;GZ;0.0;MAGX;76.0;MAGY;-85.0;MAGZ;56.0
MOT;0;1150.0;1;1150.0;2;1150.0;3;1150.0;4;0.0;5;0.0;6;0.0;7;0.0;
RC;ROLL;1492.0;PITCH;1505.0;YAW;1510.0;THROTTLE;1059.0;AUX1;1535.0;AUX2;1500.0;AUX3;1500.0;AUX4;1500.0
ALTITUDE;48.0
DEBUG;DEBUG10.0;DEBUG2;0.0;DEBUG3;48.0;DEBUG4;0.0
ATTITUDE;ANGX;-15.0;ANGY;0.0;HEAD;-122.0
STATUS;CYCLETIME;2904;I2CERR;0;PRESENT;23;MODE;1
RAW_IMU;AX;-25.0;AY;-8.0;AZ;255.0;GX;-2.0;GY;0.0;GZ;0.0;MAGX;76.0;MAGY;-85.0;MAGZ;56.0
MOT;0;1150.0;1;1150.0;2;1150.0;3;1150.0;4;0.0;5;0.0;6;0.0;7;0.0;
RC;ROLL;1492.0;PITCH;1505.0;YAW;1510.0;THROTTLE;1059.0;AUX1;1535.0;AUX2;1500.0;AUX3;1500.0;AUX4;1500.0
ALTITUDE;48.0
DEBUG;DEBUG10.0;DEBUG2;0.0;DEBUG3;48.0;DEBUG4;0.0
ATTITUDE;ANGX;-15.0;ANGY;0.0;HEAD;-122.0
STATUS;CYCLETIME;2904;I2CERR;0;PRESENT;23;MODE;1
RAW_IMU;AX;-25.0;AY;-10.0;AZ;254.0;GX;-4.0;GY;0.0;GZ;1.0;MAGX;77.0;MAGY;-85.0;MAGZ;56.0
MOT;0;1150.0;1;1150.0;2;1150.0;3;1150.0;4;0.0;5;0.0;6;0.0;7;0.0;
RC;ROLL;1495.0;PITCH;1505.0;YAW;1510.0;THROTTLE;1059.0;AUX1;1535.0;AUX2;1500.0;AUX3;1500.0;AUX4;1500.0
ALTITUDE;48.0
DEBUG;DEBUG10.0;DEBUG2;0.0;DEBUG3;48.0;DEBUG4;0.0
ATTITUDE;ANGX;-15.0;ANGY;0.0;HEAD;-122.0
STATUS;CYCLETIME;2904;I2CERR;0;PRESENT;23;MODE;1
RAW_IMU;AX;-24.0;AY;-9.0;AZ;252.0;GX;-6.0;GY;0.0;GZ;0.0;MAGX;77.0;MAGY;-85.0;MAGZ;56.0
MOT;0;1150.0;1;1150.0;2;1150.0;3;1150.0;4;0.0;5;0.0;6;0.0;7;0.0;
RC;ROLL;1495.0;PITCH;1502.0;YAW;1510.0;THROTTLE;1061.0;AUX1;1535.0;AUX2;1500.0;AUX3;1500.0;AUX4;1500.0
ALTITUDE;48.0
DEBUG;DEBUG10.0;DEBUG2;0.0;DEBUG3;48.0;DEBUG4;0.0
ATTITUDE;ANGX;-16.0;ANGY;0.0;HEAD;-122.0
STATUS;CYCLETIME;3012;I2CERR;0;PRESENT;23;MODE;1
RAW_IMU;AX;-26.0;AY;-10.0;AZ;256.0;GX;-7.0;GY;1.0;GZ;0.0;MAGX;77.0;MAGY;-85.0;MAGZ;54.0
MOT;0;1150.0;1;1150.0;2;1150.0;3;1150.0;4;0.0;5;0.0;6;0.0;7;0.0;
RC;ROLL;1495.0;PITCH;1502.0;YAW;1510.0;THROTTLE;1061.0;AUX1;1538.0;AUX2;1500.0;AUX3;1500.0;AUX4;1500.0
ALTITUDE;48.0
DEBUG;DEBUG10.0;DEBUG2;0.0;DEBUG3;48.0;DEBUG4;0.0
ATTITUDE;ANGX;-16.0;ANGY;0.0;HEAD;-122.0
STATUS;CYCLETIME;3008;I2CERR;0;PRESENT;23;MODE;1
RAW_IMU;AX;-26.0;AY;-9.0;AZ;257.0;GX;-6.0;GY;3.0;GZ;0.0;MAGX;77.0;MAGY;-85.0;MAGZ;54.0
MOT;0;1150.0;1;1150.0;2;1150.0;3;1150.0;4;0.0;5;0.0;6;0.0;7;0.0;
RC;ROLL;1495.0;PITCH;1502.0;YAW;1510.0;THROTTLE;1061.0;AUX1;1538.0;AUX2;1500.0;AUX3;1500.0;AUX4;1500.0
ALTITUDE;48.0
DEBUG;DEBUG10.0;DEBUG2;0.0;DEBUG3;48.0;DEBUG4;0.0
ATTITUDE;ANGX;-17.0;ANGY;0.0;HEAD;-122.0
STATUS;CYCLETIME;2888;I2CERR;0;PRESENT;23;MODE;1
RAW_IMU;AX;-30.0;AY;-9.0;AZ;258.0;GX;-3.0;GY;1.0;GZ;0.0;MAGX;77.0;MAGY;-85.0;MAGZ;54.0
MOT;0;1150.0;1;1150.0;2;1150.0;3;1150.0;4;0.0;5;0.0;6;0.0;7;0.0;
RC;ROLL;1495.0;PITCH;1502.0;YAW;1510.0;THROTTLE;1061.0;AUX1;1538.0;AUX2;1500.0;AUX3;1500.0;AUX4;1500.0
ALTITUDE;48.0
DEBUG;DEBUG10.0;DEBUG2;0.0;DEBUG3;48.0;DEBUG4;0.0
ATTITUDE;ANGX;-17.0;ANGY;0.0;HEAD;-122.0
STATUS;CYCLETIME;2916;I2CERR;0;PRESENT;23;MODE;1
RAW_IMU;AX;-30.0;AY;-8.0;AZ;259.0;GX;0.0;GY;0.0;GZ;0.0;MAGX;76.0;MAGY;-86.0;MAGZ;52.0
MOT;0;1150.0;1;1150.0;2;1150.0;3;1150.0;4;0.0;5;0.0;6;0.0;7;0.0;
RC;ROLL;1495.0;PITCH;1502.0;YAW;1510.0;THROTTLE;1061.0;AUX1;1535.0;AUX2;1500.0;AUX3;1500.0;AUX4;1500.0
ALTITUDE;48.0
DEBUG;DEBUG10.0;DEBUG2;0.0;DEBUG3;48.0;DEBUG4;0.0
ATTITUDE;ANGX;-17.0;ANGY;0.0;HEAD;-122.0
STATUS;CYCLETIME;2900;I2CERR;0;PRESENT;23;MODE;1
RAW_IMU;AX;-28.0;AY;-6.0;AZ;256.0;GX;1.0;GY;-1.0;GZ;0.0;MAGX;76.0;MAGY;-86.0;MAGZ;52.0
MOT;0;1150.0;1;1150.0;2;1150.0;3;1150.0;4;0.0;5;0.0;6;0.0;7;0.0;
RC;ROLL;1497.0;PITCH;1502.0;YAW;1510.0;THROTTLE;1061.0;AUX1;1535.0;AUX2;1500.0;AUX3;1500.0;AUX4;1500.0
ALTITUDE;48.0
DEBUG;DEBUG10.0;DEBUG2;0.0;DEBUG3;48.0;DEBUG4;0.0
ATTITUDE;ANGX;-16.0;ANGY;0.0;HEAD;-122.0
STATUS;CYCLETIME;2880;I2CERR;0;PRESENT;23;MODE;1
RAW_IMU;AX;-29.0;AY;-5.0;AZ;258.0;GX;3.0;GY;0.0;GZ;-1.0;MAGX;77.0;MAGY;-85.0;MAGZ;52.0
MOT;0;1150.0;1;1150.0;2;1150.0;3;1150.0;4;0.0;5;0.0;6;0.0;7;0.0;
RC;ROLL;1497.0;PITCH;1502.0;YAW;1510.0;THROTTLE;1061.0;AUX1;1535.0;AUX2;1500.0;AUX3;1500.0;AUX4;1500.0
ALTITUDE;49.0
DEBUG;DEBUG10.0;DEBUG2;0.0;DEBUG3;49.0;DEBUG4;0.0
ATTITUDE;ANGX;-16.0;ANGY;0.0;HEAD;-122.0
STATUS;CYCLETIME;2852;I2CERR;0;PRESENT;23;MODE;1
RAW_IMU;AX;-28.0;AY;-9.0;AZ;257.0;GX;3.0;GY;0.0;GZ;-1.0;MAGX;77.0;MAGY;-85.0;MAGZ;52.0
MOT;0;1150.0;1;1150.0;2;1150.0;3;1150.0;4;0.0;5;0.0;6;0.0;7;0.0;
RC;ROLL;1497.0;PITCH;1502.0;YAW;1510.0;THROTTLE;1061.0;AUX1;1535.0;AUX2;1500.0;AUX3;1500.0;AUX4;1500.0
ALTITUDE;49.0
DEBUG;DEBUG10.0;DEBUG2;0.0;DEBUG3;49.0;DEBUG4;0.0
ATTITUDE;ANGX;-15.0;ANGY;0.0;HEAD;-122.0
STATUS;CYCLETIME;2896;I2CERR;0;PRESENT;23;MODE;1
RAW_IMU;AX;-27.0;AY;-10.0;AZ;258.0;GX;2.0;GY;1.0;GZ;0.0;MAGX;76.0;MAGY;-85.0;MAGZ;55.0
MOT;0;1150.0;1;1150.0;2;1150.0;3;1150.0;4;0.0;5;0.0;6;0.0;7;0.0;
RC;ROLL;1497.0;PITCH;1502.0;YAW;1507.0;THROTTLE;1061.0;AUX1;1537.0;AUX2;1500.0;AUX3;1500.0;AUX4;1500.0
ALTITUDE;49.0
DEBUG;DEBUG10.0;DEBUG2;0.0;DEBUG3;49.0;DEBUG4;0.0
ATTITUDE;ANGX;-14.0;ANGY;0.0;HEAD;-123.0
STATUS;CYCLETIME;2852;I2CERR;0;PRESENT;23;MODE;1
RAW_IMU;AX;-25.0;AY;-10.0;AZ;255.0;GX;0.0;GY;1.0;GZ;0.0;MAGX;76.0;MAGY;-85.0;MAGZ;55.0
MOT;0;1150.0;1;1150.0;2;1150.0;3;1150.0;4;0.0;5;0.0;6;0.0;7;0.0;
RC;ROLL;1497.0;PITCH;1502.0;YAW;1507.0;THROTTLE;1061.0;AUX1;1537.0;AUX2;1500.0;AUX3;1500.0;AUX4;1500.0
ALTITUDE;49.0
DEBUG;DEBUG10.0;DEBUG2;0.0;DEBUG3;49.0;DEBUG4;0.0
ATTITUDE;ANGX;-14.0;ANGY;0.0;HEAD;-123.0
STATUS;CYCLETIME;2888;I2CERR;0;PRESENT;23;MODE;1
RAW_IMU;AX;-25.0;AY;-10.0;AZ;257.0;GX;-3.0;GY;1.0;GZ;0.0;MAGX;77.0;MAGY;-84.0;MAGZ;57.0
MOT;0;1150.0;1;1150.0;2;1150.0;3;1150.0;4;0.0;5;0.0;6;0.0;7;0.0;
RC;ROLL;1495.0;PITCH;1502.0;YAW;1507.0;THROTTLE;1061.0;AUX1;1537.0;AUX2;1500.0;AUX3;1500.0;AUX4;1500.0
ALTITUDE;49.0
DEBUG;DEBUG10.0;DEBUG2;0.0;DEBUG3;49.0;DEBUG4;0.0
ATTITUDE;ANGX;-14.0;ANGY;0.0;HEAD;-123.0
STATUS;CYCLETIME;2896;I2CERR;0;PRESENT;23;MODE;1
RAW_IMU;AX;-27.0;AY;-11.0;AZ;254.0;GX;-6.0;GY;0.0;GZ;0.0;MAGX;77.0;MAGY;-84.0;MAGZ;57.0
MOT;0;1150.0;1;1150.0;2;1150.0;3;1150.0;4;0.0;5;0.0;6;0.0;7;0.0;
RC;ROLL;1493.0;PITCH;1502.0;YAW;1507.0;THROTTLE;1061.0;AUX1;1537.0;AUX2;1500.0;AUX3;1500.0;AUX4;1500.0
ALTITUDE;49.0
DEBUG;DEBUG10.0;DEBUG2;0.0;DEBUG3;49.0;DEBUG4;0.0
ATTITUDE;ANGX;-15.0;ANGY;0.0;HEAD;-123.0
STATUS;CYCLETIME;2908;I2CERR;0;PRESENT;23;MODE;1
RAW_IMU;AX;-28.0;AY;-12.0;AZ;254.0;GX;-9.0;GY;0.0;GZ;1.0;MAGX;79.0;MAGY;-85.0;MAGZ;54.0
MOT;0;1150.0;1;1150.0;2;1150.0;3;1150.0;4;0.0;5;0.0;6;0.0;7;0.0;
RC;ROLL;1495.0;PITCH;1502.0;YAW;1511.0;THROTTLE;1061.0;AUX1;1537.0;AUX2;1500.0;AUX3;1500.0;AUX4;1500.0
ALTITUDE;49.0
DEBUG;DEBUG10.0;DEBUG2;0.0;DEBUG3;49.0;DEBUG4;0.0
ATTITUDE;ANGX;-15.0;ANGY;0.0;HEAD;-123.0
STATUS;CYCLETIME;2924;I2CERR;0;PRESENT;23;MODE;1
RAW_IMU;AX;-27.0;AY;-12.0;AZ;252.0;GX;-12.0;GY;0.0;GZ;2.0;MAGX;79.0;MAGY;-85.0;MAGZ;54.0
MOT;0;1150.0;1;1150.0;2;1150.0;3;1150.0;4;0.0;5;0.0;6;0.0;7;0.0;
RC;ROLL;1497.0;PITCH;1502.0;YAW;1511.0;THROTTLE;1061.0;AUX1;1534.0;AUX2;1500.0;AUX3;1500.0;AUX4;1500.0
ALTITUDE;49.0
DEBUG;DEBUG10.0;DEBUG2;0.0;DEBUG3;49.0;DEBUG4;0.0
ATTITUDE;ANGX;-16.0;ANGY;0.0;HEAD;-122.0
STATUS;CYCLETIME;2836;I2CERR;0;PRESENT;23;MODE;1
RAW_IMU;AX;-26.0;AY;-13.0;AZ;248.0;GX;-13.0;GY;0.0;GZ;3.0;MAGX;80.0;MAGY;-85.0;MAGZ;51.0
MOT;0;1150.0;1;1150.0;2;1150.0;3;1150.0;4;0.0;5;0.0;6;0.0;7;0.0;
RC;ROLL;1495.0;PITCH;1502.0;YAW;1511.0;THROTTLE;1061.0;AUX1;1534.0;AUX2;1500.0;AUX3;1500.0;AUX4;1500.0
ALTITUDE;49.0
DEBUG;DEBUG10.0;DEBUG2;0.0;DEBUG3;49.0;DEBUG4;0.0
ATTITUDE;ANGX;-18.0;ANGY;0.0;HEAD;-122.0
STATUS;CYCLETIME;2792;I2CERR;0;PRESENT;23;MODE;1
RAW_IMU;AX;-28.0;AY;-13.0;AZ;250.0;GX;-14.0;GY;3.0;GZ;1.0;MAGX;80.0;MAGY;-85.0;MAGZ;51.0
MOT;0;1150.0;1;1150.0;2;1150.0;3;1150.0;4;0.0;5;0.0;6;0.0;7;0.0;
RC;ROLL;1495.0;PITCH;1504.0;YAW;1511.0;THROTTLE;1061.0;AUX1;1534.0;AUX2;1500.0;AUX3;1500.0;AUX4;1500.0
ALTITUDE;49.0
DEBUG;DEBUG10.0;DEBUG2;0.0;DEBUG3;49.0;DEBUG4;0.0
ATTITUDE;ANGX;-19.0;ANGY;0.0;HEAD;-122.0
STATUS;CYCLETIME;2896;I2CERR;0;PRESENT;23;MODE;1
RAW_IMU;AX;-28.0;AY;-12.0;AZ;254.0;GX;-11.0;GY;3.0;GZ;-1.0;MAGX;80.0;MAGY;-85.0;MAGZ;51.0
MOT;0;1150.0;1;1150.0;2;1150.0;3;1150.0;4;0.0;5;0.0;6;0.0;7;0.0;
RC;ROLL;1495.0;PITCH;1504.0;YAW;1511.0;THROTTLE;1061.0;AUX1;1534.0;AUX2;1500.0;AUX3;1500.0;AUX4;1500.0
ALTITUDE;49.0
DEBUG;DEBUG10.0;DEBUG2;0.0;DEBUG3;49.0;DEBUG4;0.0
ATTITUDE;ANGX;-20.0;ANGY;0.0;HEAD;-122.0
STATUS;CYCLETIME;3028;I2CERR;0;PRESENT;23;MODE;1
RAW_IMU;AX;-32.0;AY;-15.0;AZ;251.0;GX;-5.0;GY;1.0;GZ;0.0;MAGX;77.0;MAGY;-85.0;MAGZ;43.0
MOT;0;1150.0;1;1150.0;2;1150.0;3;1150.0;4;0.0;5;0.0;6;0.0;7;0.0;
RC;ROLL;1495.0;PITCH;1504.0;YAW;1509.0;THROTTLE;1061.0;AUX1;1534.0;AUX2;1500.0;AUX3;1500.0;AUX4;1500.0
ALTITUDE;49.0
DEBUG;DEBUG10.0;DEBUG2;0.0;DEBUG3;49.0;DEBUG4;0.0
ATTITUDE;ANGX;-20.0;ANGY;0.0;HEAD;-122.0
STATUS;CYCLETIME;3020;I2CERR;0;PRESENT;23;MODE;1
RAW_IMU;AX;-37.0;AY;-13.0;AZ;251.0;GX;0.0;GY;0.0;GZ;1.0;MAGX;77.0;MAGY;-85.0;MAGZ;43.0
MOT;0;1150.0;1;1150.0;2;1150.0;3;1150.0;4;0.0;5;0.0;6;0.0;7;0.0;
RC;ROLL;1495.0;PITCH;1504.0;YAW;1509.0;THROTTLE;1061.0;AUX1;1534.0;AUX2;1500.0;AUX3;1500.0;AUX4;1500.0
ALTITUDE;49.0
DEBUG;DEBUG10.0;DEBUG2;0.0;DEBUG3;49.0;DEBUG4;0.0
ATTITUDE;ANGX;-20.0;ANGY;0.0;HEAD;-122.0
STATUS;CYCLETIME;2892;I2CERR;0;PRESENT;23;MODE;1
RAW_IMU;AX;-35.0;AY;-11.0;AZ;259.0;GX;4.0;GY;2.0;GZ;1.0;MAGX;77.0;MAGY;-85.0;MAGZ;43.0
MOT;0;1150.0;1;1150.0;2;1150.0;3;1150.0;4;0.0;5;0.0;6;0.0;7;0.0;
RC;ROLL;1495.0;PITCH;1504.0;YAW;1504.0;THROTTLE;1061.0;AUX1;1534.0;AUX2;1500.0;AUX3;1500.0;AUX4;1500.0
ALTITUDE;49.0
DEBUG;DEBUG10.0;DEBUG2;0.0;DEBUG3;49.0;DEBUG4;0.0
ATTITUDE;ANGX;-19.0;ANGY;0.0;HEAD;-122.0
STATUS;CYCLETIME;2888;I2CERR;0;PRESENT;23;MODE;1
RAW_IMU;AX;-33.0;AY;-10.0;AZ;261.0;GX;5.0;GY;2.0;GZ;-1.0;MAGX;77.0;MAGY;-85.0;MAGZ;43.0
MOT;0;1150.0;1;1150.0;2;1150.0;3;1150.0;4;0.0;5;0.0;6;0.0;7;0.0;
RC;ROLL;1495.0;PITCH;1504.0;YAW;1504.0;THROTTLE;1061.0;AUX1;1534.0;AUX2;1500.0;AUX3;1500.0;AUX4;1500.0
ALTITUDE;49.0
DEBUG;DEBUG10.0;DEBUG2;0.0;DEBUG3;49.0;DEBUG4;0.0
ATTITUDE;ANGX;-18.0;ANGY;0.0;HEAD;-122.0
STATUS;CYCLETIME;2880;I2CERR;0;PRESENT;23;MODE;1
RAW_IMU;AX;-32.0;AY;-10.0;AZ;257.0;GX;3.0;GY;0.0;GZ;0.0;MAGX;76.0;MAGY;-85.0;MAGZ;44.0
MOT;0;1150.0;1;1150.0;2;1150.0;3;1150.0;4;0.0;5;0.0;6;0.0;7;0.0;
RC;ROLL;1495.0;PITCH;1504.0;YAW;1510.0;THROTTLE;1061.0;AUX1;1534.0;AUX2;1500.0;AUX3;1500.0;AUX4;1500.0
ALTITUDE;49.0
DEBUG;DEBUG10.0;DEBUG2;0.0;DEBUG3;49.0;DEBUG4;0.0
ATTITUDE;ANGX;-18.0;ANGY;0.0;HEAD;-122.0
STATUS;CYCLETIME;2920;I2CERR;0;PRESENT;23;MODE;1
RAW_IMU;AX;-31.0;AY;-11.0;AZ;254.0;GX;0.0;GY;-1.0;GZ;2.0;MAGX;76.0;MAGY;-85.0;MAGZ;44.0
MOT;0;1150.0;1;1150.0;2;1150.0;3;1150.0;4;0.0;5;0.0;6;0.0;7;0.0;
RC;ROLL;1495.0;PITCH;1504.0;YAW;1510.0;THROTTLE;1061.0;AUX1;1534.0;AUX2;1500.0;AUX3;1500.0;AUX4;1500.0
ALTITUDE;49.0
DEBUG;DEBUG10.0;DEBUG2;0.0;DEBUG3;49.0;DEBUG4;0.0
ATTITUDE;ANGX;-17.0;ANGY;0.0;HEAD;-122.0
STATUS;CYCLETIME;2880;I2CERR;0;PRESENT;23;MODE;1
RAW_IMU;AX;-25.0;AY;-10.0;AZ;253.0;GX;-3.0;GY;1.0;GZ;2.0;MAGX;77.0;MAGY;-85.0;MAGZ;48.0
MOT;0;1150.0;1;1150.0;2;1150.0;3;1150.0;4;0.0;5;0.0;6;0.0;7;0.0;
RC;ROLL;1495.0;PITCH;1502.0;YAW;1510.0;THROTTLE;1061.0;AUX1;1534.0;AUX2;1500.0;AUX3;1500.0;AUX4;1500.0
ALTITUDE;49.0
DEBUG;DEBUG10.0;DEBUG2;0.0;DEBUG3;49.0;DEBUG4;0.0
ATTITUDE;ANGX;-17.0;ANGY;0.0;HEAD;-122.0
STATUS;CYCLETIME;2880;I2CERR;0;PRESENT;23;MODE;1
RAW_IMU;AX;-30.0;AY;-11.0;AZ;251.0;GX;-5.0;GY;2.0;GZ;0.0;MAGX;77.0;MAGY;-85.0;MAGZ;48.0
MOT;0;1150.0;1;1150.0;2;1150.0;3;1150.0;4;0.0;5;0.0;6;0.0;7;0.0;
RC;ROLL;1495.0;PITCH;1502.0;YAW;1510.0;THROTTLE;1061.0;AUX1;1534.0;AUX2;1500.0;AUX3;1500.0;AUX4;1500.0
ALTITUDE;49.0
DEBUG;DEBUG10.0;DEBUG2;0.0;DEBUG3;49.0;DEBUG4;0.0
ATTITUDE;ANGX;-17.0;ANGY;0.0;HEAD;-122.0
STATUS;CYCLETIME;2888;I2CERR;0;PRESENT;23;MODE;1
RAW_IMU;AX;-32.0;AY;-11.0;AZ;252.0;GX;-4.0;GY;2.0;GZ;0.0;MAGX;77.0;MAGY;-85.0;MAGZ;46.0
MOT;0;1150.0;1;1150.0;2;1150.0;3;1150.0;4;0.0;5;0.0;6;0.0;7;0.0;
RC;ROLL;1495.0;PITCH;1502.0;YAW;1510.0;THROTTLE;1061.0;AUX1;1534.0;AUX2;1500.0;AUX3;1500.0;AUX4;1500.0
ALTITUDE;49.0
DEBUG;DEBUG10.0;DEBUG2;0.0;DEBUG3;49.0;DEBUG4;0.0
ATTITUDE;ANGX;-18.0;ANGY;0.0;HEAD;-122.0
STATUS;CYCLETIME;2996;I2CERR;0;PRESENT;23;MODE;1
RAW_IMU;AX;-35.0;AY;-11.0;AZ;252.0;GX;-1.0;GY;1.0;GZ;1.0;MAGX;77.0;MAGY;-85.0;MAGZ;46.0
MOT;0;1150.0;1;1150.0;2;1150.0;3;1150.0;4;0.0;5;0.0;6;0.0;7;0.0;
RC;ROLL;1495.0;PITCH;1502.0;YAW;1510.0;THROTTLE;1061.0;AUX1;1537.0;AUX2;1500.0;AUX3;1500.0;AUX4;1500.0
ALTITUDE;49.0
DEBUG;DEBUG10.0;DEBUG2;0.0;DEBUG3;49.0;DEBUG4;0.0
ATTITUDE;ANGX;-18.0;ANGY;0.0;HEAD;-122.0
STATUS;CYCLETIME;2920;I2CERR;0;PRESENT;23;MODE;1
RAW_IMU;AX;-37.0;AY;-10.0;AZ;255.0;GX;2.0;GY;1.0;GZ;2.0;MAGX;77.0;MAGY;-85.0;MAGZ;46.0
MOT;0;1150.0;1;1150.0;2;1150.0;3;1150.0;4;0.0;5;0.0;6;0.0;7;0.0;
RC;ROLL;1495.0;PITCH;1504.0;YAW;1510.0;THROTTLE;1061.0;AUX1;1537.0;AUX2;1500.0;AUX3;1500.0;AUX4;1500.0
ALTITUDE;49.0
DEBUG;DEBUG10.0;DEBUG2;0.0;DEBUG3;49.0;DEBUG4;0.0
ATTITUDE;ANGX;-17.0;ANGY;0.0;HEAD;-122.0
STATUS;CYCLETIME;2884;I2CERR;0;PRESENT;23;MODE;1
RAW_IMU;AX;-37.0;AY;-8.0;AZ;258.0;GX;5.0;GY;0.0;GZ;0.0;MAGX;77.0;MAGY;-85.0;MAGZ;46.0
MOT;0;1150.0;1;1150.0;2;1150.0;3;1150.0;4;0.0;5;0.0;6;0.0;7;0.0;
RC;ROLL;1495.0;PITCH;1504.0;YAW;1510.0;THROTTLE;1061.0;AUX1;1537.0;AUX2;1500.0;AUX3;1500.0;AUX4;1500.0
ALTITUDE;49.0
DEBUG;DEBUG10.0;DEBUG2;0.0;DEBUG3;49.0;DEBUG4;0.0
ATTITUDE;ANGX;-16.0;ANGY;0.0;HEAD;-122.0
STATUS;CYCLETIME;2884;I2CERR;0;PRESENT;23;MODE;1
RAW_IMU;AX;-34.0;AY;-7.0;AZ;257.0;GX;5.0;GY;0.0;GZ;0.0;MAGX;77.0;MAGY;-85.0;MAGZ;46.0
MOT;0;1150.0;1;1150.0;2;1150.0;3;1150.0;4;0.0;5;0.0;6;0.0;7;0.0;
RC;ROLL;1495.0;PITCH;1506.0;YAW;1510.0;THROTTLE;1061.0;AUX1;1537.0;AUX2;1500.0;AUX3;1500.0;AUX4;1500.0
ALTITUDE;49.0
DEBUG;DEBUG10.0;DEBUG2;0.0;DEBUG3;50.0;DEBUG4;0.0
ATTITUDE;ANGX;-15.0;ANGY;0.0;HEAD;-122.0
STATUS;CYCLETIME;2892;I2CERR;0;PRESENT;23;MODE;1
RAW_IMU;AX;-34.0;AY;-7.0;AZ;261.0;GX;2.0;GY;0.0;GZ;1.0;MAGX;76.0;MAGY;-85.0;MAGZ;52.0
MOT;0;1150.0;1;1150.0;2;1150.0;3;1150.0;4;0.0;5;0.0;6;0.0;7;0.0;
RC;ROLL;1495.0;PITCH;1506.0;YAW;1510.0;THROTTLE;1061.0;AUX1;1537.0;AUX2;1500.0;AUX3;1500.0;AUX4;1500.0
ALTITUDE;50.0
DEBUG;DEBUG10.0;DEBUG2;0.0;DEBUG3;50.0;DEBUG4;0.0
ATTITUDE;ANGX;-15.0;ANGY;0.0;HEAD;-122.0
STATUS;CYCLETIME;2900;I2CERR;0;PRESENT;23;MODE;1
RAW_IMU;AX;-30.0;AY;-10.0;AZ;257.0;GX;-1.0;GY;0.0;GZ;2.0;MAGX;76.0;MAGY;-85.0;MAGZ;52.0
MOT;0;1150.0;1;1150.0;2;1150.0;3;1150.0;4;0.0;5;0.0;6;0.0;7;0.0;
RC;ROLL;1495.0;PITCH;1504.0;YAW;1510.0;THROTTLE;1061.0;AUX1;1537.0;AUX2;1500.0;AUX3;1500.0;AUX4;1500.0
ALTITUDE;50.0
DEBUG;DEBUG10.0;DEBUG2;0.0;DEBUG3;50.0;DEBUG4;0.0
ATTITUDE;ANGX;-15.0;ANGY;0.0;HEAD;-122.0
STATUS;CYCLETIME;2932;I2CERR;0;PRESENT;23;MODE;1
RAW_IMU;AX;-27.0;AY;-10.0;AZ;253.0;GX;-5.0;GY;-1.0;GZ;1.0;MAGX;77.0;MAGY;-85.0;MAGZ;55.0
MOT;0;1150.0;1;1150.0;2;1150.0;3;1150.0;4;0.0;5;0.0;6;0.0;7;0.0;
RC;ROLL;1495.0;PITCH;1504.0;YAW;1510.0;THROTTLE;1061.0;AUX1;1537.0;AUX2;1500.0;AUX3;1500.0;AUX4;1500.0
ALTITUDE;50.0
DEBUG;DEBUG10.0;DEBUG2;0.0;DEBUG3;50.0;DEBUG4;0.0
ATTITUDE;ANGX;-15.0;ANGY;0.0;HEAD;-122.0
STATUS;CYCLETIME;2876;I2CERR;0;PRESENT;23;MODE;1
RAW_IMU;AX;-28.0;AY;-12.0;AZ;248.0;GX;-8.0;GY;0.0;GZ;0.0;MAGX;77.0;MAGY;-85.0;MAGZ;55.0
MOT;0;1150.0;1;1150.0;2;1150.0;3;1150.0;4;0.0;5;0.0;6;0.0;7;0.0;
RC;ROLL;1495.0;PITCH;1502.0;YAW;1510.0;THROTTLE;1063.0;AUX1;1537.0;AUX2;1500.0;AUX3;1500.0;AUX4;1500.0
ALTITUDE;50.0
DEBUG;DEBUG10.0;DEBUG2;0.0;DEBUG3;50.0;DEBUG4;0.0
ATTITUDE;ANGX;-16.0;ANGY;0.0;HEAD;-122.0
STATUS;CYCLETIME;2888;I2CERR;0;PRESENT;23;MODE;1
RAW_IMU;AX;-34.0;AY;-13.0;AZ;247.0;GX;-9.0;GY;3.0;GZ;1.0;MAGX;79.0;MAGY;-84.0;MAGZ;54.0
MOT;0;1150.0;1;1150.0;2;1150.0;3;1150.0;4;0.0;5;0.0;6;0.0;7;0.0;
RC;ROLL;1495.0;PITCH;1502.0;YAW;1510.0;THROTTLE;1063.0;AUX1;1537.0;AUX2;1500.0;AUX3;1500.0;AUX4;1500.0
ALTITUDE;50.0
DEBUG;DEBUG10.0;DEBUG2;0.0;DEBUG3;50.0;DEBUG4;0.0
ATTITUDE;ANGX;-16.0;ANGY;0.0;HEAD;-122.0
STATUS;CYCLETIME;3028;I2CERR;0;PRESENT;23;MODE;1
RAW_IMU;AX;-33.0;AY;-13.0;AZ;249.0;GX;-8.0;GY;5.0;GZ;2.0;MAGX;79.0;MAGY;-84.0;MAGZ;54.0
MOT;0;1150.0;1;1150.0;2;1150.0;3;1150.0;4;0.0;5;0.0;6;0.0;7;0.0;
RC;ROLL;1497.0;PITCH;1502.0;YAW;1510.0;THROTTLE;1063.0;AUX1;1537.0;AUX2;1500.0;AUX3;1500.0;AUX4;1500.0
ALTITUDE;50.0
DEBUG;DEBUG10.0;DEBUG2;0.0;DEBUG3;50.0;DEBUG4;0.0
ATTITUDE;ANGX;-17.0;ANGY;0.0;HEAD;-122.0
STATUS;CYCLETIME;2864;I2CERR;0;PRESENT;23;MODE;1
RAW_IMU;AX;-35.0;AY;-7.0;AZ;257.0;GX;-5.0;GY;3.0;GZ;1.0;MAGX;75.0;MAGY;-85.0;MAGZ;49.0
MOT;0;1150.0;1;1150.0;2;1150.0;3;1150.0;4;0.0;5;0.0;6;0.0;7;0.0;
RC;ROLL;1497.0;PITCH;1502.0;YAW;1508.0;THROTTLE;1063.0;AUX1;1537.0;AUX2;1500.0;AUX3;1500.0;AUX4;1500.0
ALTITUDE;50.0
DEBUG;DEBUG10.0;DEBUG2;0.0;DEBUG3;50.0;DEBUG4;0.0
ATTITUDE;ANGX;-18.0;ANGY;0.0;HEAD;-121.0
STATUS;CYCLETIME;2880;I2CERR;0;PRESENT;23;MODE;1
RAW_IMU;AX;-35.0;AY;-6.0;AZ;256.0;GX;-3.0;GY;0.0;GZ;0.0;MAGX;75.0;MAGY;-85.0;MAGZ;49.0
MOT;0;1150.0;1;1150.0;2;1150.0;3;1150.0;4;0.0;5;0.0;6;0.0;7;0.0;
RC;ROLL;1497.0;PITCH;1502.0;YAW;1508.0;THROTTLE;1063.0;AUX1;1537.0;AUX2;1500.0;AUX3;1500.0;AUX4;1500.0
ALTITUDE;50.0
DEBUG;DEBUG10.0;DEBUG2;0.0;DEBUG3;50.0;DEBUG4;0.0
ATTITUDE;ANGX;-18.0;ANGY;1.0;HEAD;-122.0
STATUS;CYCLETIME;2964;I2CERR;0;PRESENT;23;MODE;1
RAW_IMU;AX;-36.0;AY;-6.0;AZ;256.0;GX;-2.0;GY;-3.0;GZ;0.0;MAGX;76.0;MAGY;-86.0;MAGZ;47.0
MOT;0;1150.0;1;1150.0;2;1150.0;3;1150.0;4;0.0;5;0.0;6;0.0;7;0.0;
RC;ROLL;1497.0;PITCH;1502.0;YAW;1510.0;THROTTLE;1060.0;AUX1;1532.0;AUX2;1500.0;AUX3;1500.0;AUX4;1500.0
ALTITUDE;50.0
DEBUG;DEBUG10.0;DEBUG2;0.0;DEBUG3;50.0;DEBUG4;0.0
ATTITUDE;ANGX;-18.0;ANGY;0.0;HEAD;-122.0
STATUS;CYCLETIME;2896;I2CERR;0;PRESENT;23;MODE;1
RAW_IMU;AX;-33.0;AY;-9.0;AZ;257.0;GX;-1.0;GY;-2.0;GZ;1.0;MAGX;76.0;MAGY;-86.0;MAGZ;47.0
MOT;0;1150.0;1;1150.0;2;1150.0;3;1150.0;4;0.0;5;0.0;6;0.0;7;0.0;
RC;ROLL;1497.0;PITCH;1502.0;YAW;1510.0;THROTTLE;1060.0;AUX1;1532.0;AUX2;1500.0;AUX3;1500.0;AUX4;1500.0
ALTITUDE;50.0
DEBUG;DEBUG10.0;DEBUG2;0.0;DEBUG3;50.0;DEBUG4;0.0
ATTITUDE;ANGX;-18.0;ANGY;0.0;HEAD;-122.0
STATUS;CYCLETIME;2884;I2CERR;0;PRESENT;23;MODE;1
RAW_IMU;AX;-29.0;AY;-12.0;AZ;255.0;GX;-2.0;GY;0.0;GZ;2.0;MAGX;78.0;MAGY;-86.0;MAGZ;46.0
MOT;0;1150.0;1;1150.0;2;1150.0;3;1150.0;4;0.0;5;0.0;6;0.0;7;0.0;
RC;ROLL;1497.0;PITCH;1502.0;YAW;1510.0;THROTTLE;1060.0;AUX1;1534.0;AUX2;1500.0;AUX3;1500.0;AUX4;1500.0
ALTITUDE;50.0
DEBUG;DEBUG10.0;DEBUG2;0.0;DEBUG3;50.0;DEBUG4;0.0
ATTITUDE;ANGX;-18.0;ANGY;0.0;HEAD;-122.0
STATUS;CYCLETIME;2924;I2CERR;0;PRESENT;23;MODE;1
RAW_IMU;AX;-27.0;AY;-15.0;AZ;256.0;GX;-3.0;GY;4.0;GZ;0.0;MAGX;78.0;MAGY;-86.0;MAGZ;46.0
MOT;0;1150.0;1;1150.0;2;1150.0;3;1150.0;4;0.0;5;0.0;6;0.0;7;0.0;
RC;ROLL;1497.0;PITCH;1502.0;YAW;1508.0;THROTTLE;1060.0;AUX1;1534.0;AUX2;1500.0;AUX3;1500.0;AUX4;1500.0
ALTITUDE;50.0
DEBUG;DEBUG10.0;DEBUG2;0.0;DEBUG3;50.0;DEBUG4;0.0
ATTITUDE;ANGX;-18.0;ANGY;0.0;HEAD;-122.0
STATUS;CYCLETIME;2984;I2CERR;0;PRESENT;23;MODE;1
RAW_IMU;AX;-27.0;AY;-10.0;AZ;257.0;GX;-4.0;GY;5.0;GZ;0.0;MAGX;78.0;MAGY;-86.0;MAGZ;46.0
MOT;0;1150.0;1;1150.0;2;1150.0;3;1150.0;4;0.0;5;0.0;6;0.0;7;0.0;
RC;ROLL;1497.0;PITCH;1502.0;YAW;1508.0;THROTTLE;1062.0;AUX1;1534.0;AUX2;1500.0;AUX3;1500.0;AUX4;1500.0
ALTITUDE;50.0
DEBUG;DEBUG10.0;DEBUG2;0.0;DEBUG3;50.0;DEBUG4;0.0
ATTITUDE;ANGX;-18.0;ANGY;0.0;HEAD;-122.0
STATUS;CYCLETIME;2904;I2CERR;0;PRESENT;23;MODE;1
RAW_IMU;AX;-31.0;AY;-7.0;AZ;260.0;GX;-4.0;GY;1.0;GZ;0.0;MAGX;77.0;MAGY;-86.0;MAGZ;46.0
MOT;0;1150.0;1;1150.0;2;1150.0;3;1150.0;4;0.0;5;0.0;6;0.0;7;0.0;
RC;ROLL;1497.0;PITCH;1502.0;YAW;1508.0;THROTTLE;1062.0;AUX1;1534.0;AUX2;1500.0;AUX3;1500.0;AUX4;1500.0
ALTITUDE;50.0
DEBUG;DEBUG10.0;DEBUG2;0.0;DEBUG3;50.0;DEBUG4;0.0
ATTITUDE;ANGX;-18.0;ANGY;0.0;HEAD;-122.0
STATUS;CYCLETIME;2912;I2CERR;0;PRESENT;23;MODE;1
RAW_IMU;AX;-33.0;AY;-9.0;AZ;256.0;GX;-1.0;GY;-2.0;GZ;1.0;MAGX;77.0;MAGY;-86.0;MAGZ;46.0
MOT;0;1150.0;1;1150.0;2;1150.0;3;1150.0;4;0.0;5;0.0;6;0.0;7;0.0;
RC;ROLL;1497.0;PITCH;1504.0;YAW;1508.0;THROTTLE;1062.0;AUX1;1534.0;AUX2;1500.0;AUX3;1500.0;AUX4;1500.0
ALTITUDE;50.0
DEBUG;DEBUG10.0;DEBUG2;0.0;DEBUG3;50.0;DEBUG4;0.0
ATTITUDE;ANGX;-18.0;ANGY;0.0;HEAD;-122.0
STATUS;CYCLETIME;2908;I2CERR;0;PRESENT;23;MODE;1
RAW_IMU;AX;-36.0;AY;-12.0;AZ;253.0;GX;0.0;GY;-2.0;GZ;1.0;MAGX;76.0;MAGY;-86.0;MAGZ;45.0
MOT;0;1150.0;1;1150.0;2;1150.0;3;1150.0;4;0.0;5;0.0;6;0.0;7;0.0;
RC;ROLL;1494.0;PITCH;1504.0;YAW;1510.0;THROTTLE;1062.0;AUX1;1534.0;AUX2;1500.0;AUX3;1500.0;AUX4;1500.0
ALTITUDE;50.0
DEBUG;DEBUG10.0;DEBUG2;0.0;DEBUG3;50.0;DEBUG4;0.0
ATTITUDE;ANGX;-18.0;ANGY;0.0;HEAD;-122.0
STATUS;CYCLETIME;2880;I2CERR;0;PRESENT;23;MODE;1
RAW_IMU;AX;-34.0;AY;-12.0;AZ;255.0;GX;0.0;GY;2.0;GZ;0.0;MAGX;76.0;MAGY;-86.0;MAGZ;45.0
MOT;0;1150.0;1;1150.0;2;1150.0;3;1150.0;4;0.0;5;0.0;6;0.0;7;0.0;
RC;ROLL;1494.0;PITCH;1504.0;YAW;1510.0;THROTTLE;1062.0;AUX1;1534.0;AUX2;1500.0;AUX3;1500.0;AUX4;1500.0
ALTITUDE;50.0
DEBUG;DEBUG10.0;DEBUG2;0.0;DEBUG3;50.0;DEBUG4;0.0
ATTITUDE;ANGX;-17.0;ANGY;0.0;HEAD;-122.0
STATUS;CYCLETIME;2892;I2CERR;0;PRESENT;23;MODE;1
RAW_IMU;AX;-32.0;AY;-11.0;AZ;254.0;GX;1.0;GY;4.0;GZ;-1.0;MAGX;78.0;MAGY;-86.0;MAGZ;48.0
MOT;0;1150.0;1;1150.0;2;1150.0;3;1150.0;4;0.0;5;0.0;6;0.0;7;0.0;
RC;ROLL;1494.0;PITCH;1504.0;YAW;1510.0;THROTTLE;1062.0;AUX1;1534.0;AUX2;1500.0;AUX3;1500.0;AUX4;1500.0
ALTITUDE;50.0
DEBUG;DEBUG10.0;DEBUG2;0.0;DEBUG3;50.0;DEBUG4;0.0
ATTITUDE;ANGX;-17.0;ANGY;0.0;HEAD;-122.0
STATUS;CYCLETIME;2876;I2CERR;0;PRESENT;23;MODE;1
RAW_IMU;AX;-35.0;AY;-8.0;AZ;253.0;GX;2.0;GY;2.0;GZ;0.0;MAGX;78.0;MAGY;-86.0;MAGZ;48.0
MOT;0;1150.0;1;1150.0;2;1150.0;3;1150.0;4;0.0;5;0.0;6;0.0;7;0.0;
RC;ROLL;1494.0;PITCH;1504.0;YAW;1508.0;THROTTLE;1062.0;AUX1;1536.0;AUX2;1500.0;AUX3;1500.0;AUX4;1500.0
ALTITUDE;50.0
DEBUG;DEBUG10.0;DEBUG2;0.0;DEBUG3;50.0;DEBUG4;0.0
ATTITUDE;ANGX;-16.0;ANGY;0.0;HEAD;-122.0
STATUS;CYCLETIME;2888;I2CERR;0;PRESENT;23;MODE;1
RAW_IMU;AX;-32.0;AY;-8.0;AZ;251.0;GX;2.0;GY;-1.0;GZ;1.0;MAGX;76.0;MAGY;-86.0;MAGZ;51.0
MOT;0;1150.0;1;1150.0;2;1150.0;3;1150.0;4;0.0;5;0.0;6;0.0;7;0.0;
RC;ROLL;1494.0;PITCH;1504.0;YAW;1508.0;THROTTLE;1062.0;AUX1;1536.0;AUX2;1500.0;AUX3;1500.0;AUX4;1500.0
ALTITUDE;50.0
DEBUG;DEBUG10.0;DEBUG2;0.0;DEBUG3;50.0;DEBUG4;0.0
ATTITUDE;ANGX;-16.0;ANGY;0.0;HEAD;-122.0
STATUS;CYCLETIME;3024;I2CERR;0;PRESENT;23;MODE;1
RAW_IMU;AX;-30.0;AY;-9.0;AZ;251.0;GX;1.0;GY;-2.0;GZ;1.0;MAGX;76.0;MAGY;-86.0;MAGZ;51.0
